% program   : GINav v0.1.0
% obs start : 2019/03/28 03:17:33.0
% obs end   : 2019/03/28 03:59:01.0
% mode      : SPP
% system    : GPS 
% nfreqs    : 1
% elev mask : 10.0 deg
% ephemeris : broadcast
% ionos opt : broadcast model
% trops opt : Saastamoinen model
%
%  GPST              x-ecef(m)      y-ecef(m)      z-ecef(m)   Q  ns   sdx(m)   sdy(m)   sdz(m)  sdxy(m)  sdyz(m)  sdzx(m) age(s)  ratio
2046 357456.000  -2408693.2829   4698102.9112   3566697.2971   5   6   4.1099   6.1075   6.8119  -3.9169   4.6582  -2.8684   0.00    0.0
2046 357457.000  -2408693.2526   4698103.0004   3566697.2203   5   6   4.1103   6.1073   6.8105  -3.9170   4.6575  -2.8688   0.00    0.0
2046 357458.000  -2408693.2493   4698102.9444   3566697.1998   5   6   4.1107   6.1071   6.8090  -3.9172   4.6567  -2.8691   0.00    0.0
2046 357459.000  -2408693.0670   4698102.8505   3566697.0474   5   8   3.1681   5.7704   5.2764  -3.1796   4.3624  -2.2458   0.00    0.0
2046 357460.000  -2408693.1327   4698102.9765   3566697.1282   5   8   3.1684   5.7702   5.2759  -3.1797   4.3620  -2.2457   0.00    0.0
2046 357461.000  -2408693.1577   4698102.9755   3566697.1487   5   8   3.1686   5.7700   5.2754  -3.1799   4.3615  -2.2456   0.00    0.0
2046 357462.000  -2408693.1944   4698103.0553   3566697.2063   5   8   3.1688   5.7698   5.2750  -3.1800   4.3610  -2.2455   0.00    0.0
2046 357463.000  -2408693.1962   4698103.0719   3566697.2027   5   8   3.1691   5.7696   5.2745  -3.1801   4.3606  -2.2454   0.00    0.0
2046 357464.000  -2408693.1851   4698103.0825   3566697.2124   5   8   3.1693   5.7694   5.2740  -3.1803   4.3601  -2.2453   0.00    0.0
2046 357465.000  -2408693.2158   4698103.1503   3566697.2174   5   8   3.1695   5.7692   5.2735  -3.1804   4.3596  -2.2452   0.00    0.0
2046 357466.000  -2408693.2030   4698103.1797   3566697.1955   5   8   3.1697   5.7690   5.2731  -3.1805   4.3592  -2.2451   0.00    0.0
2046 357467.000  -2408693.2029   4698103.2195   3566697.1893   5   8   3.1700   5.7688   5.2726  -3.1807   4.3587  -2.2450   0.00    0.0
2046 357468.000  -2408693.2218   4698103.2715   3566697.2099   5   8   3.1702   5.7686   5.2721  -3.1808   4.3582  -2.2449   0.00    0.0
2046 357469.000  -2408693.2147   4698103.2842   3566697.2389   5   8   3.1704   5.7684   5.2716  -3.1809   4.3578  -2.2448   0.00    0.0
2046 357470.000  -2408693.2170   4698103.2830   3566697.2639   5   8   3.1707   5.7682   5.2712  -3.1810   4.3573  -2.2447   0.00    0.0
2046 357471.000  -2408693.2003   4698103.2607   3566697.2646   5   8   3.1709   5.7680   5.2707  -3.1812   4.3568  -2.2446   0.00    0.0
2046 357472.000  -2408693.1998   4698103.2772   3566697.2700   5   8   3.1711   5.7678   5.2702  -3.1813   4.3564  -2.2445   0.00    0.0
2046 357473.000  -2408693.1749   4698103.2564   3566697.2564   5   8   3.1713   5.7676   5.2697  -3.1814   4.3559  -2.2444   0.00    0.0
2046 357474.000  -2408693.1640   4698103.2485   3566697.2455   5   8   3.1716   5.7674   5.2693  -3.1816   4.3554  -2.2443   0.00    0.0
2046 357475.000  -2408693.1645   4698103.2496   3566697.2473   5   8   3.1718   5.7672   5.2688  -3.1817   4.3550  -2.2442   0.00    0.0
2046 357476.000  -2408693.1559   4698103.2334   3566697.2217   5   8   3.1720   5.7670   5.2683  -3.1818   4.3545  -2.2441   0.00    0.0
2046 357477.000  -2408693.1450   4698103.1897   3566697.1897   5   8   3.1722   5.7668   5.2678  -3.1820   4.3540  -2.2440   0.00    0.0
2046 357478.000  -2408693.1381   4698103.1726   3566697.1776   5   8   3.1725   5.7666   5.2673  -3.1821   4.3535  -2.2438   0.00    0.0
2046 357479.000  -2408693.1379   4698103.1798   3566697.1822   5   8   3.1727   5.7664   5.2669  -3.1822   4.3531  -2.2437   0.00    0.0
2046 357480.000  -2408693.1346   4698103.1752   3566697.1870   5   8   3.1729   5.7662   5.2664  -3.1824   4.3526  -2.2436   0.00    0.0
2046 357481.000  -2408693.1270   4698103.1539   3566697.1767   5   8   3.1732   5.7660   5.2659  -3.1825   4.3521  -2.2435   0.00    0.0
2046 357482.000  -2408693.1307   4698103.1471   3566697.1808   5   8   3.1734   5.7658   5.2654  -3.1826   4.3517  -2.2434   0.00    0.0
2046 357483.000  -2408693.1221   4698103.1391   3566697.1625   5   8   3.1736   5.7656   5.2649  -3.1827   4.3512  -2.2433   0.00    0.0
2046 357484.000  -2408693.1275   4698103.1534   3566697.1611   5   8   3.1738   5.7654   5.2645  -3.1829   4.3507  -2.2432   0.00    0.0
2046 357485.000  -2408693.1305   4698103.1637   3566697.1721   5   8   3.1741   5.7652   5.2640  -3.1830   4.3502  -2.2431   0.00    0.0
2046 357486.000  -2408693.1251   4698103.1568   3566697.1663   5   8   3.1743   5.7650   5.2635  -3.1831   4.3498  -2.2430   0.00    0.0
2046 357487.000  -2408693.1213   4698103.1483   3566697.1498   5   8   3.1745   5.7648   5.2630  -3.1833   4.3493  -2.2429   0.00    0.0
2046 357488.000  -2408693.1111   4698103.1229   3566697.1384   5   8   3.1748   5.7646   5.2625  -3.1834   4.3488  -2.2428   0.00    0.0
2046 357489.000  -2408693.1012   4698103.1126   3566697.1325   5   8   3.1750   5.7644   5.2621  -3.1835   4.3483  -2.2427   0.00    0.0
2046 357490.000  -2408693.0948   4698103.0987   3566697.1256   5   8   3.1752   5.7642   5.2616  -3.1837   4.3479  -2.2426   0.00    0.0
2046 357491.000  -2408693.0857   4698103.0772   3566697.1156   5   8   3.1754   5.7640   5.2611  -3.1838   4.3474  -2.2424   0.00    0.0
2046 357492.000  -2408693.0818   4698103.0712   3566697.1144   5   8   3.1757   5.7638   5.2606  -3.1839   4.3469  -2.2423   0.00    0.0
2046 357493.000  -2408693.0872   4698103.0624   3566697.1142   5   8   3.1759   5.7636   5.2601  -3.1840   4.3464  -2.2422   0.00    0.0
2046 357494.000  -2408693.0850   4698103.0520   3566697.1085   5   8   3.1761   5.7634   5.2596  -3.1842   4.3460  -2.2421   0.00    0.0
2046 357495.000  -2408693.0872   4698103.0506   3566697.1065   5   8   3.1764   5.7632   5.2592  -3.1843   4.3455  -2.2420   0.00    0.0
2046 357496.000  -2408693.0934   4698103.0455   3566697.1097   5   8   3.1766   5.7630   5.2587  -3.1844   4.3450  -2.2419   0.00    0.0
2046 357497.000  -2408693.0863   4698103.0365   3566697.0997   5   8   3.1768   5.7628   5.2582  -3.1846   4.3445  -2.2418   0.00    0.0
2046 357498.000  -2408693.0816   4698103.0336   3566697.1117   5   8   3.1770   5.7626   5.2577  -3.1847   4.3441  -2.2417   0.00    0.0
2046 357499.000  -2408693.0787   4698103.0134   3566697.1015   5   8   3.1773   5.7624   5.2572  -3.1848   4.3436  -2.2416   0.00    0.0
2046 357500.000  -2408693.0852   4698103.0171   3566697.1055   5   8   3.1775   5.7622   5.2567  -3.1849   4.3431  -2.2415   0.00    0.0
2046 357501.000  -2408693.0863   4698103.0168   3566697.0999   5   8   3.1777   5.7620   5.2562  -3.1851   4.3426  -2.2413   0.00    0.0
2046 357502.000  -2408693.0931   4698103.0215   3566697.1066   5   8   3.1780   5.7618   5.2557  -3.1852   4.3421  -2.2412   0.00    0.0
2046 357503.000  -2408693.0929   4698103.0124   3566697.1099   5   8   3.1782   5.7616   5.2553  -3.1853   4.3417  -2.2411   0.00    0.0
2046 357504.000  -2408693.0975   4698103.0198   3566697.1241   5   8   3.1784   5.7614   5.2548  -3.1855   4.3412  -2.2410   0.00    0.0
2046 357505.000  -2408693.0990   4698103.0124   3566697.1233   5   8   3.1786   5.7612   5.2543  -3.1856   4.3407  -2.2409   0.00    0.0
2046 357506.000  -2408693.0930   4698103.0096   3566697.1283   5   8   3.1789   5.7610   5.2538  -3.1857   4.3402  -2.2408   0.00    0.0
2046 357507.000  -2408693.0925   4698103.0081   3566697.1278   5   8   3.1791   5.7607   5.2533  -3.1858   4.3397  -2.2407   0.00    0.0
2046 357508.000  -2408693.0914   4698102.9858   3566697.1199   5   8   3.1793   5.7605   5.2528  -3.1860   4.3393  -2.2406   0.00    0.0
2046 357509.000  -2408693.0923   4698102.9826   3566697.1189   5   8   3.1796   5.7603   5.2523  -3.1861   4.3388  -2.2405   0.00    0.0
2046 357510.000  -2408693.0956   4698102.9910   3566697.1268   5   8   3.1798   5.7601   5.2518  -3.1862   4.3383  -2.2403   0.00    0.0
2046 357511.000  -2408693.1064   4698102.9953   3566697.1221   5   8   3.1800   5.7599   5.2513  -3.1864   4.3378  -2.2402   0.00    0.0
2046 357512.000  -2408693.1116   4698102.9861   3566697.1288   5   8   3.1802   5.7597   5.2509  -3.1865   4.3373  -2.2401   0.00    0.0
2046 357513.000  -2408693.1090   4698102.9839   3566697.1247   5   8   3.1805   5.7595   5.2504  -3.1866   4.3368  -2.2400   0.00    0.0
2046 357514.000  -2408693.1112   4698102.9757   3566697.1187   5   8   3.1807   5.7593   5.2499  -3.1867   4.3364  -2.2399   0.00    0.0
2046 357515.000  -2408693.1172   4698102.9793   3566697.1256   5   8   3.1809   5.7591   5.2494  -3.1869   4.3359  -2.2398   0.00    0.0
2046 357516.000  -2408693.1113   4698102.9706   3566697.1130   5   8   3.1812   5.7589   5.2489  -3.1870   4.3354  -2.2397   0.00    0.0
2046 357517.000  -2408693.1146   4698102.9787   3566697.1161   5   8   3.1814   5.7587   5.2484  -3.1871   4.3349  -2.2395   0.00    0.0
2046 357518.000  -2408693.1143   4698102.9796   3566697.1210   5   8   3.1816   5.7585   5.2479  -3.1873   4.3344  -2.2394   0.00    0.0
2046 357519.000  -2408693.1189   4698102.9834   3566697.1152   5   8   3.1818   5.7583   5.2474  -3.1874   4.3339  -2.2393   0.00    0.0
2046 357520.000  -2408693.1239   4698102.9976   3566697.1227   5   8   3.1821   5.7581   5.2469  -3.1875   4.3335  -2.2392   0.00    0.0
2046 357521.000  -2408693.1218   4698102.9899   3566697.1220   5   8   3.1823   5.7579   5.2464  -3.1876   4.3330  -2.2391   0.00    0.0
2046 357522.000  -2408693.1302   4698102.9993   3566697.1249   5   8   3.1825   5.7577   5.2459  -3.1878   4.3325  -2.2390   0.00    0.0
2046 357523.000  -2408693.1257   4698102.9976   3566697.1247   5   8   3.1828   5.7575   5.2454  -3.1879   4.3320  -2.2388   0.00    0.0
2046 357524.000  -2408693.1324   4698103.0052   3566697.1229   5   8   3.1830   5.7573   5.2449  -3.1880   4.3315  -2.2387   0.00    0.0
2046 357525.000  -2408693.1342   4698103.0099   3566697.1247   5   8   3.1832   5.7571   5.2444  -3.1881   4.3310  -2.2386   0.00    0.0
2046 357526.000  -2408693.1390   4698103.0117   3566697.1249   5   8   3.1835   5.7569   5.2439  -3.1883   4.3305  -2.2385   0.00    0.0
2046 357527.000  -2408693.1342   4698103.0008   3566697.1253   5   8   3.1837   5.7567   5.2434  -3.1884   4.3301  -2.2384   0.00    0.0
2046 357528.000  -2408693.1396   4698103.0146   3566697.1348   5   8   3.1839   5.7565   5.2429  -3.1885   4.3296  -2.2383   0.00    0.0
2046 357529.000  -2408693.1407   4698103.0137   3566697.1299   5   8   3.1841   5.7563   5.2424  -3.1887   4.3291  -2.2381   0.00    0.0
2046 357530.000  -2408693.1445   4698103.0095   3566697.1287   5   8   3.1844   5.7561   5.2419  -3.1888   4.3286  -2.2380   0.00    0.0
2046 357531.000  -2408693.1464   4698103.0086   3566697.1232   5   8   3.1846   5.7559   5.2414  -3.1889   4.3281  -2.2379   0.00    0.0
2046 357532.000  -2408693.1476   4698103.0060   3566697.1192   5   8   3.1848   5.7557   5.2409  -3.1890   4.3276  -2.2378   0.00    0.0
2046 357533.000  -2408693.1452   4698103.0106   3566697.1307   5   8   3.1851   5.7555   5.2405  -3.1892   4.3271  -2.2377   0.00    0.0
2046 357534.000  -2408693.1459   4698103.0154   3566697.1405   5   8   3.1853   5.7553   5.2400  -3.1893   4.3266  -2.2376   0.00    0.0
2046 357535.000  -2408693.1465   4698103.0236   3566697.1339   5   8   3.1855   5.7551   5.2395  -3.1894   4.3261  -2.2374   0.00    0.0
2046 357536.000  -2408693.1511   4698103.0274   3566697.1412   5   8   3.1857   5.7549   5.2390  -3.1895   4.3257  -2.2373   0.00    0.0
2046 357537.000  -2408693.1570   4698103.0338   3566697.1483   5   8   3.1860   5.7546   5.2385  -3.1897   4.3252  -2.2372   0.00    0.0
2046 357538.000  -2408693.1497   4698103.0308   3566697.1416   5   8   3.1862   5.7544   5.2380  -3.1898   4.3247  -2.2371   0.00    0.0
2046 357539.000  -2408693.1522   4698103.0366   3566697.1427   5   8   3.1864   5.7542   5.2375  -3.1899   4.3242  -2.2370   0.00    0.0
2046 357540.000  -2408693.1587   4698103.0409   3566697.1452   5   8   3.1867   5.7540   5.2369  -3.1900   4.3237  -2.2368   0.00    0.0
2046 357541.000  -2408693.1572   4698103.0385   3566697.1445   5   8   3.1869   5.7538   5.2364  -3.1902   4.3232  -2.2367   0.00    0.0
2046 357542.000  -2408693.1598   4698103.0430   3566697.1510   5   8   3.1871   5.7536   5.2359  -3.1903   4.3227  -2.2366   0.00    0.0
2046 357543.000  -2408693.1596   4698103.0402   3566697.1471   5   8   3.1874   5.7534   5.2354  -3.1904   4.3222  -2.2365   0.00    0.0
2046 357544.000  -2408693.1656   4698103.0469   3566697.1506   5   8   3.1876   5.7532   5.2349  -3.1906   4.3217  -2.2364   0.00    0.0
2046 357545.000  -2408693.1665   4698103.0485   3566697.1548   5   8   3.1878   5.7530   5.2344  -3.1907   4.3212  -2.2362   0.00    0.0
2046 357546.000  -2408693.1715   4698103.0587   3566697.1648   5   8   3.1880   5.7528   5.2339  -3.1908   4.3207  -2.2361   0.00    0.0
2046 357547.000  -2408693.1736   4698103.0581   3566697.1715   5   8   3.1883   5.7526   5.2334  -3.1909   4.3202  -2.2360   0.00    0.0
2046 357548.000  -2408693.1765   4698103.0552   3566697.1568   5   8   3.1885   5.7524   5.2329  -3.1911   4.3198  -2.2359   0.00    0.0
2046 357549.000  -2408693.1738   4698103.0527   3566697.1538   5   8   3.1887   5.7522   5.2324  -3.1912   4.3193  -2.2358   0.00    0.0
2046 357550.000  -2408693.1718   4698103.0583   3566697.1521   5   8   3.1890   5.7520   5.2319  -3.1913   4.3188  -2.2356   0.00    0.0
2046 357551.000  -2408693.1728   4698103.0590   3566697.1517   5   8   3.1892   5.7518   5.2314  -3.1914   4.3183  -2.2355   0.00    0.0
2046 357552.000  -2408693.1747   4698103.0562   3566697.1546   5   8   3.1894   5.7516   5.2309  -3.1916   4.3178  -2.2354   0.00    0.0
2046 357553.000  -2408693.1771   4698103.0512   3566697.1459   5   8   3.1896   5.7514   5.2304  -3.1917   4.3173  -2.2353   0.00    0.0
2046 357554.000  -2408693.1842   4698103.0666   3566697.1497   5   8   3.1899   5.7512   5.2299  -3.1918   4.3168  -2.2352   0.00    0.0
2046 357555.000  -2408693.1829   4698103.0571   3566697.1462   5   8   3.1901   5.7510   5.2294  -3.1919   4.3163  -2.2350   0.00    0.0
2046 357556.000  -2408693.1812   4698103.0575   3566697.1452   5   8   3.1903   5.7507   5.2289  -3.1921   4.3158  -2.2349   0.00    0.0
2046 357557.000  -2408693.1846   4698103.0563   3566697.1491   5   8   3.1906   5.7505   5.2284  -3.1922   4.3153  -2.2348   0.00    0.0
2046 357558.000  -2408693.1873   4698103.0497   3566697.1412   5   8   3.1908   5.7503   5.2279  -3.1923   4.3148  -2.2347   0.00    0.0
2046 357559.000  -2408693.1839   4698103.0454   3566697.1344   5   8   3.1910   5.7501   5.2274  -3.1924   4.3143  -2.2345   0.00    0.0
2046 357560.000  -2408693.1928   4698103.0469   3566697.1359   5   8   3.1913   5.7499   5.2269  -3.1926   4.3138  -2.2344   0.00    0.0
2046 357561.000  -2408693.1902   4698103.0397   3566697.1339   5   8   3.1915   5.7497   5.2263  -3.1927   4.3133  -2.2343   0.00    0.0
2046 357562.000  -2408693.1911   4698103.0445   3566697.1343   5   8   3.1917   5.7495   5.2258  -3.1928   4.3128  -2.2342   0.00    0.0
2046 357563.000  -2408693.1922   4698103.0514   3566697.1360   5   8   3.1919   5.7493   5.2253  -3.1929   4.3123  -2.2340   0.00    0.0
2046 357564.000  -2408693.1978   4698103.0439   3566697.1343   5   8   3.1922   5.7491   5.2248  -3.1931   4.3118  -2.2339   0.00    0.0
2046 357565.000  -2408693.1993   4698103.0485   3566697.1413   5   8   3.1924   5.7489   5.2243  -3.1932   4.3113  -2.2338   0.00    0.0
2046 357566.000  -2408693.2010   4698103.0426   3566697.1310   5   8   3.1926   5.7487   5.2238  -3.1933   4.3108  -2.2337   0.00    0.0
2046 357567.000  -2408693.1995   4698103.0473   3566697.1378   5   8   3.1929   5.7485   5.2233  -3.1934   4.3103  -2.2335   0.00    0.0
2046 357568.000  -2408693.2004   4698103.0510   3566697.1422   5   8   3.1931   5.7483   5.2228  -3.1936   4.3098  -2.2334   0.00    0.0
2046 357569.000  -2408693.1971   4698103.0462   3566697.1337   5   8   3.1933   5.7481   5.2223  -3.1937   4.3093  -2.2333   0.00    0.0
2046 357570.000  -2408693.1974   4698103.0467   3566697.1347   5   8   3.1936   5.7479   5.2218  -3.1938   4.3088  -2.2332   0.00    0.0
2046 357571.000  -2408693.1943   4698103.0318   3566697.1227   5   8   3.1938   5.7477   5.2212  -3.1939   4.3083  -2.2330   0.00    0.0
2046 357572.000  -2408693.2019   4698103.0417   3566697.1307   5   8   3.1940   5.7474   5.2207  -3.1941   4.3078  -2.2329   0.00    0.0
2046 357573.000  -2408693.2032   4698103.0365   3566697.1232   5   8   3.1943   5.7472   5.2202  -3.1942   4.3073  -2.2328   0.00    0.0
2046 357574.000  -2408693.1976   4698103.0401   3566697.1277   5   8   3.1945   5.7470   5.2197  -3.1943   4.3068  -2.2327   0.00    0.0
2046 357575.000  -2408693.2012   4698103.0373   3566697.1232   5   8   3.1947   5.7468   5.2192  -3.1944   4.3063  -2.2325   0.00    0.0
2046 357576.000  -2408693.1994   4698103.0428   3566697.1284   5   8   3.1949   5.7466   5.2187  -3.1945   4.3058  -2.2324   0.00    0.0
2046 357577.000  -2408693.1958   4698103.0367   3566697.1228   5   8   3.1952   5.7464   5.2182  -3.1947   4.3053  -2.2323   0.00    0.0
2046 357578.000  -2408693.1989   4698103.0417   3566697.1217   5   8   3.1954   5.7462   5.2176  -3.1948   4.3048  -2.2321   0.00    0.0
2046 357579.000  -2408693.1995   4698103.0337   3566697.1216   5   8   3.1956   5.7460   5.2171  -3.1949   4.3043  -2.2320   0.00    0.0
2046 357580.000  -2408693.1938   4698103.0336   3566697.1191   5   8   3.1959   5.7458   5.2166  -3.1950   4.3038  -2.2319   0.00    0.0
2046 357581.000  -2408693.1955   4698103.0376   3566697.1221   5   8   3.1961   5.7456   5.2161  -3.1952   4.3033  -2.2318   0.00    0.0
2046 357582.000  -2408693.2020   4698103.0431   3566697.1190   5   8   3.1963   5.7454   5.2156  -3.1953   4.3028  -2.2316   0.00    0.0
2046 357583.000  -2408693.1951   4698103.0313   3566697.1186   5   8   3.1966   5.7452   5.2151  -3.1954   4.3023  -2.2315   0.00    0.0
2046 357584.000  -2408693.2069   4698103.0364   3566697.1222   5   8   3.1968   5.7450   5.2146  -3.1955   4.3018  -2.2314   0.00    0.0
2046 357585.000  -2408693.2034   4698103.0285   3566697.1172   5   8   3.1970   5.7448   5.2140  -3.1957   4.3013  -2.2312   0.00    0.0
2046 357586.000  -2408693.2055   4698103.0368   3566697.1206   5   8   3.1972   5.7446   5.2135  -3.1958   4.3008  -2.2311   0.00    0.0
2046 357587.000  -2408693.1962   4698103.0250   3566697.1192   5   8   3.1975   5.7443   5.2130  -3.1959   4.3003  -2.2310   0.00    0.0
2046 357588.000  -2408693.1987   4698103.0309   3566697.1120   5   8   3.1977   5.7441   5.2125  -3.1960   4.2997  -2.2309   0.00    0.0
2046 357589.000  -2408693.1945   4698103.0284   3566697.1126   5   8   3.1979   5.7439   5.2120  -3.1962   4.2992  -2.2307   0.00    0.0
2046 357590.000  -2408693.1939   4698103.0239   3566697.1091   5   8   3.1982   5.7437   5.2115  -3.1963   4.2987  -2.2306   0.00    0.0
2046 357591.000  -2408693.2043   4698103.0211   3566697.1048   5   8   3.1984   5.7435   5.2109  -3.1964   4.2982  -2.2305   0.00    0.0
2046 357592.000  -2408693.2008   4698103.0213   3566697.1137   5   8   3.1986   5.7433   5.2104  -3.1965   4.2977  -2.2303   0.00    0.0
2046 357593.000  -2408693.1998   4698103.0247   3566697.1090   5   8   3.1989   5.7431   5.2099  -3.1966   4.2972  -2.2302   0.00    0.0
2046 357594.000  -2408693.2067   4698103.0218   3566697.1035   5   8   3.1991   5.7429   5.2094  -3.1968   4.2967  -2.2301   0.00    0.0
2046 357595.000  -2408693.2023   4698103.0260   3566697.1088   5   8   3.1993   5.7427   5.2089  -3.1969   4.2962  -2.2299   0.00    0.0
2046 357596.000  -2408693.2048   4698103.0227   3566697.1042   5   8   3.1996   5.7425   5.2083  -3.1970   4.2957  -2.2298   0.00    0.0
2046 357597.000  -2408693.2072   4698103.0186   3566697.1068   5   8   3.1998   5.7423   5.2078  -3.1971   4.2952  -2.2297   0.00    0.0
2046 357598.000  -2408693.2061   4698103.0178   3566697.1027   5   8   3.2000   5.7421   5.2073  -3.1973   4.2947  -2.2296   0.00    0.0
2046 357599.000  -2408693.2069   4698103.0174   3566697.1075   5   8   3.2002   5.7418   5.2068  -3.1974   4.2942  -2.2294   0.00    0.0
2046 357600.000  -2408693.2082   4698103.0191   3566697.1112   5   8   3.2005   5.7416   5.2063  -3.1975   4.2937  -2.2293   0.00    0.0
2046 357601.000  -2408693.2044   4698103.0073   3566697.1038   5   8   3.2007   5.7414   5.2057  -3.1976   4.2931  -2.2292   0.00    0.0
2046 357602.000  -2408693.2033   4698103.0099   3566697.1049   5   8   3.2009   5.7412   5.2052  -3.1978   4.2926  -2.2290   0.00    0.0
2046 357603.000  -2408693.2048   4698103.0130   3566697.1132   5   8   3.2012   5.7410   5.2047  -3.1979   4.2921  -2.2289   0.00    0.0
2046 357604.000  -2408693.2021   4698103.0059   3566697.1147   5   8   3.2014   5.7408   5.2042  -3.1980   4.2916  -2.2288   0.00    0.0
2046 357605.000  -2408693.2082   4698103.0123   3566697.1150   5   8   3.2016   5.7406   5.2036  -3.1981   4.2911  -2.2286   0.00    0.0
2046 357606.000  -2408693.2056   4698103.0116   3566697.1172   5   8   3.2019   5.7404   5.2031  -3.1982   4.2906  -2.2285   0.00    0.0
2046 357607.000  -2408695.3282   4698106.1399   3566697.6272   5   9   2.6401   5.0804   5.1844  -2.3212   4.1523  -2.0438   0.00    0.0
2046 357608.000  -2408695.3366   4698106.1487   3566697.6266   5   9   2.6403   5.0803   5.1839  -2.3214   4.1520  -2.0439   0.00    0.0
2046 357609.000  -2408695.3353   4698106.1418   3566697.6307   5   9   2.6405   5.0802   5.1834  -2.3217   4.1517  -2.0440   0.00    0.0
2046 357610.000  -2408695.3454   4698106.1574   3566697.6309   5   9   2.6407   5.0802   5.1829  -2.3219   4.1514  -2.0441   0.00    0.0
2046 357611.000  -2408695.3570   4698106.1750   3566697.6357   5   9   2.6409   5.0801   5.1824  -2.3221   4.1510  -2.0441   0.00    0.0
2046 357612.000  -2408695.3482   4698106.1595   3566697.6275   5   9   2.6411   5.0801   5.1820  -2.3224   4.1507  -2.0442   0.00    0.0
2046 357613.000  -2408695.3236   4698106.1262   3566697.6244   5   9   2.6413   5.0800   5.1815  -2.3226   4.1504  -2.0443   0.00    0.0
2046 357614.000  -2408695.2998   4698106.0854   3566697.6133   5   9   2.6415   5.0800   5.1810  -2.3228   4.1500  -2.0444   0.00    0.0
2046 357615.000  -2408695.2586   4698106.0206   3566697.6039   5   9   2.6417   5.0799   5.1805  -2.3231   4.1497  -2.0445   0.00    0.0
2046 357616.000  -2408695.2430   4698105.9976   3566697.5959   5   9   2.6419   5.0799   5.1800  -2.3233   4.1494  -2.0446   0.00    0.0
2046 357617.000  -2408695.2244   4698105.9674   3566697.5905   5   9   2.6421   5.0798   5.1796  -2.3235   4.1491  -2.0447   0.00    0.0
2046 357618.000  -2408695.2295   4698105.9776   3566697.5972   5   9   2.6423   5.0797   5.1791  -2.3238   4.1487  -2.0448   0.00    0.0
2046 357619.000  -2408695.2460   4698105.9931   3566697.5981   5   9   2.6425   5.0797   5.1786  -2.3240   4.1484  -2.0449   0.00    0.0
2046 357620.000  -2408695.2423   4698105.9886   3566697.5948   5   9   2.6427   5.0796   5.1781  -2.3242   4.1481  -2.0450   0.00    0.0
2046 357621.000  -2408695.2180   4698105.9441   3566697.5802   5   9   2.6429   5.0796   5.1776  -2.3245   4.1477  -2.0451   0.00    0.0
2046 357622.000  -2408695.1873   4698105.8997   3566697.5811   5   9   2.6431   5.0795   5.1772  -2.3247   4.1474  -2.0452   0.00    0.0
2046 357623.000  -2408695.1537   4698105.8444   3566697.5642   5   9   2.6433   5.0795   5.1767  -2.3249   4.1471  -2.0453   0.00    0.0
2046 357624.000  -2408695.1108   4698105.7946   3566697.5662   5   9   2.6435   5.0794   5.1762  -2.3252   4.1467  -2.0454   0.00    0.0
2046 357625.000  -2408695.0784   4698105.7380   3566697.5516   5   9   2.6437   5.0793   5.1757  -2.3254   4.1464  -2.0455   0.00    0.0
2046 357626.000  -2408695.0425   4698105.6849   3566697.5515   5   9   2.6439   5.0793   5.1752  -2.3256   4.1461  -2.0455   0.00    0.0
2046 357627.000  -2408695.0019   4698105.6226   3566697.5298   5   9   2.6441   5.0792   5.1747  -2.3258   4.1457  -2.0456   0.00    0.0
2046 357628.000  -2408694.9530   4698105.5560   3566697.5219   5   9   2.6443   5.0792   5.1743  -2.3261   4.1454  -2.0457   0.00    0.0
2046 357629.000  -2408694.8928   4698105.4604   3566697.5057   5   9   2.6445   5.0791   5.1738  -2.3263   4.1451  -2.0458   0.00    0.0
2046 357630.000  -2408694.8485   4698105.3883   3566697.4905   5   9   2.6447   5.0791   5.1733  -2.3265   4.1447  -2.0459   0.00    0.0
2046 357631.000  -2408694.7970   4698105.3078   3566697.4788   5   9   2.6449   5.0790   5.1728  -2.3268   4.1444  -2.0460   0.00    0.0
2046 357632.000  -2408694.7593   4698105.2496   3566697.4615   5   9   2.6451   5.0789   5.1723  -2.3270   4.1441  -2.0461   0.00    0.0
2046 357633.000  -2408694.7172   4698105.1966   3566697.4584   5   9   2.6453   5.0789   5.1718  -2.3272   4.1437  -2.0462   0.00    0.0
2046 357634.000  -2408694.6685   4698105.1118   3566697.4354   5   9   2.6455   5.0788   5.1713  -2.3275   4.1434  -2.0463   0.00    0.0
2046 357635.000  -2408694.6296   4698105.0528   3566697.4358   5   9   2.6457   5.0788   5.1708  -2.3277   4.1431  -2.0464   0.00    0.0
2046 357636.000  -2408694.5823   4698104.9792   3566697.4145   5   9   2.6459   5.0787   5.1704  -2.3279   4.1427  -2.0465   0.00    0.0
2046 357637.000  -2408694.5392   4698104.9122   3566697.3971   5   9   2.6461   5.0787   5.1699  -2.3281   4.1424  -2.0465   0.00    0.0
2046 357638.000  -2408694.4958   4698104.8473   3566697.3874   5   9   2.6463   5.0786   5.1694  -2.3284   4.1421  -2.0466   0.00    0.0
2046 357639.000  -2408694.4431   4698104.7650   3566697.3657   5   9   2.6465   5.0785   5.1689  -2.3286   4.1417  -2.0467   0.00    0.0
2046 357640.000  -2408694.4070   4698104.7101   3566697.3583   5   9   2.6467   5.0785   5.1684  -2.3288   4.1414  -2.0468   0.00    0.0
2046 357641.000  -2408694.3738   4698104.6580   3566697.3507   5   9   2.6469   5.0784   5.1679  -2.3291   4.1411  -2.0469   0.00    0.0
2046 357642.000  -2408694.3360   4698104.5994   3566697.3356   5   9   2.6471   5.0784   5.1674  -2.3293   4.1407  -2.0470   0.00    0.0
2046 357643.000  -2408694.3057   4698104.5500   3566697.3249   5   9   2.6473   5.0783   5.1669  -2.3295   4.1404  -2.0471   0.00    0.0
2046 357644.000  -2408694.2818   4698104.5150   3566697.3220   5   9   2.6475   5.0782   5.1664  -2.3298   4.1400  -2.0472   0.00    0.0
2046 357645.000  -2408694.2466   4698104.4649   3566697.3078   5   9   2.6477   5.0782   5.1660  -2.3300   4.1397  -2.0473   0.00    0.0
2046 357646.000  -2408694.2115   4698104.4072   3566697.3006   5   9   2.6479   5.0781   5.1655  -2.3302   4.1394  -2.0473   0.00    0.0
2046 357647.000  -2408694.1895   4698104.3710   3566697.2912   5   9   2.6481   5.0781   5.1650  -2.3304   4.1390  -2.0474   0.00    0.0
2046 357648.000  -2408694.1719   4698104.3492   3566697.2899   5   9   2.6483   5.0780   5.1645  -2.3307   4.1387  -2.0475   0.00    0.0
2046 357649.000  -2408694.1559   4698104.3253   3566697.2878   5   9   2.6485   5.0779   5.1640  -2.3309   4.1384  -2.0476   0.00    0.0
2046 357650.000  -2408694.1398   4698104.3053   3566697.2903   5   9   2.6487   5.0779   5.1635  -2.3311   4.1380  -2.0477   0.00    0.0
2046 357651.000  -2408694.1333   4698104.2873   3566697.2866   5   9   2.6489   5.0778   5.1630  -2.3314   4.1377  -2.0478   0.00    0.0
2046 357652.000  -2408694.1231   4698104.2766   3566697.2845   5   9   2.6491   5.0778   5.1625  -2.3316   4.1373  -2.0479   0.00    0.0
2046 357653.000  -2408694.1143   4698104.2592   3566697.2740   5   9   2.6493   5.0777   5.1620  -2.3318   4.1370  -2.0479   0.00    0.0
2046 357654.000  -2408694.1059   4698104.2402   3566697.2686   5   9   2.6495   5.0776   5.1615  -2.3320   4.1366  -2.0480   0.00    0.0
2046 357655.000  -2408694.1028   4698104.2299   3566697.2692   5   9   2.6497   5.0776   5.1610  -2.3323   4.1363  -2.0481   0.00    0.0
2046 357656.000  -2408694.0953   4698104.2248   3566697.2663   5   9   2.6499   5.0775   5.1605  -2.3325   4.1360  -2.0482   0.00    0.0
2046 357657.000  -2408694.0897   4698104.2154   3566697.2621   5   9   2.6501   5.0775   5.1600  -2.3327   4.1356  -2.0483   0.00    0.0
2046 357658.000  -2408694.0865   4698104.2143   3566697.2654   5   9   2.6502   5.0774   5.1595  -2.3329   4.1353  -2.0484   0.00    0.0
2046 357659.000  -2408694.0824   4698104.1999   3566697.2543   5   9   2.6504   5.0773   5.1590  -2.3332   4.1349  -2.0485   0.00    0.0
2046 357660.000  -2408694.0774   4698104.1962   3566697.2498   5   9   2.6506   5.0773   5.1585  -2.3334   4.1346  -2.0485   0.00    0.0
2046 357661.000  -2408694.0745   4698104.2004   3566697.2540   5   9   2.6508   5.0772   5.1580  -2.3336   4.1342  -2.0486   0.00    0.0
2046 357662.000  -2408694.0788   4698104.2055   3566697.2533   5   9   2.6510   5.0772   5.1576  -2.3339   4.1339  -2.0487   0.00    0.0
2046 357663.000  -2408694.0774   4698104.2105   3566697.2534   5   9   2.6512   5.0771   5.1571  -2.3341   4.1336  -2.0488   0.00    0.0
2046 357664.000  -2408694.0790   4698104.2120   3566697.2629   5   9   2.6514   5.0770   5.1566  -2.3343   4.1332  -2.0489   0.00    0.0
2046 357665.000  -2408694.0672   4698104.1980   3566697.2499   5   9   2.6516   5.0770   5.1561  -2.3345   4.1329  -2.0490   0.00    0.0
2046 357666.000  -2408694.0647   4698104.1894   3566697.2501   5   9   2.6518   5.0769   5.1556  -2.3348   4.1325  -2.0490   0.00    0.0
2046 357667.000  -2408694.0619   4698104.1833   3566697.2519   5   9   2.6520   5.0769   5.1551  -2.3350   4.1322  -2.0491   0.00    0.0
2046 357668.000  -2408694.0599   4698104.1866   3566697.2530   5   9   2.6522   5.0768   5.1546  -2.3352   4.1318  -2.0492   0.00    0.0
2046 357669.000  -2408694.0564   4698104.1809   3566697.2546   5   9   2.6524   5.0767   5.1541  -2.3354   4.1315  -2.0493   0.00    0.0
2046 357670.000  -2408694.0427   4698104.1632   3566697.2446   5   9   2.6526   5.0767   5.1536  -2.3357   4.1311  -2.0494   0.00    0.0
2046 357671.000  -2408694.0341   4698104.1390   3566697.2450   5   9   2.6528   5.0766   5.1531  -2.3359   4.1308  -2.0494   0.00    0.0
2046 357672.000  -2408694.0190   4698104.1168   3566697.2433   5   9   2.6530   5.0765   5.1526  -2.3361   4.1304  -2.0495   0.00    0.0
2046 357673.000  -2408693.9995   4698104.0901   3566697.2323   5   9   2.6532   5.0765   5.1521  -2.3363   4.1301  -2.0496   0.00    0.0
2046 357674.000  -2408693.9852   4698104.0733   3566697.2315   5   9   2.6534   5.0764   5.1516  -2.3366   4.1298  -2.0497   0.00    0.0
2046 357675.000  -2408693.9623   4698104.0395   3566697.2205   5   9   2.6536   5.0764   5.1511  -2.3368   4.1294  -2.0498   0.00    0.0
2046 357676.000  -2408693.9521   4698104.0265   3566697.2205   5   9   2.6538   5.0763   5.1506  -2.3370   4.1291  -2.0499   0.00    0.0
2046 357677.000  -2408693.9277   4698103.9884   3566697.2097   5   9   2.6540   5.0762   5.1501  -2.3372   4.1287  -2.0499   0.00    0.0
2046 357678.000  -2408693.9055   4698103.9543   3566697.2034   5   9   2.6542   5.0762   5.1496  -2.3375   4.1284  -2.0500   0.00    0.0
2046 357679.000  -2408693.8857   4698103.9262   3566697.1966   5   9   2.6544   5.0761   5.1490  -2.3377   4.1280  -2.0501   0.00    0.0
2046 357680.000  -2408693.8625   4698103.8925   3566697.1911   5   9   2.6546   5.0760   5.1485  -2.3379   4.1277  -2.0502   0.00    0.0
2046 357681.000  -2408693.8305   4698103.8495   3566697.1772   5   9   2.6548   5.0760   5.1480  -2.3381   4.1273  -2.0503   0.00    0.0
2046 357682.000  -2408693.8103   4698103.8104   3566697.1780   5   9   2.6550   5.0759   5.1475  -2.3384   4.1270  -2.0503   0.00    0.0
2046 357683.000  -2408693.7834   4698103.7687   3566697.1609   5   9   2.6552   5.0759   5.1470  -2.3386   4.1266  -2.0504   0.00    0.0
2046 357684.000  -2408693.7461   4698103.7243   3566697.1666   5   9   2.6554   5.0758   5.1465  -2.3388   4.1263  -2.0505   0.00    0.0
2046 357685.000  -2408693.7146   4698103.6745   3566697.1545   5   9   2.6556   5.0757   5.1460  -2.3390   4.1259  -2.0506   0.00    0.0
2046 357686.000  -2408693.6919   4698103.6406   3566697.1374   5   9   2.6558   5.0757   5.1455  -2.3393   4.1256  -2.0507   0.00    0.0
2046 357687.000  -2408693.6649   4698103.5996   3566697.1325   5   9   2.6560   5.0756   5.1450  -2.3395   4.1252  -2.0507   0.00    0.0
2046 357688.000  -2408693.6485   4698103.5715   3566697.1310   5   9   2.6562   5.0755   5.1445  -2.3397   4.1249  -2.0508   0.00    0.0
2046 357689.000  -2408693.2243   4698102.9577   3566697.0424   5   8   3.2211   5.7230   5.1587  -3.2082   4.2472  -2.2167   0.00    0.0
2046 357690.000  -2408693.2172   4698102.9481   3566697.0331   5   8   3.2214   5.7228   5.1581  -3.2083   4.2467  -2.2166   0.00    0.0
2046 357691.000  -2408693.2208   4698102.9516   3566697.0343   5   8   3.2216   5.7226   5.1576  -3.2084   4.2461  -2.2164   0.00    0.0
2046 357692.000  -2408693.2133   4698102.9471   3566697.0257   5   8   3.2218   5.7223   5.1570  -3.2086   4.2456  -2.2163   0.00    0.0
2046 357693.000  -2408693.2042   4698102.9364   3566697.0300   5   8   3.2221   5.7221   5.1565  -3.2087   4.2451  -2.2161   0.00    0.0
2046 357694.000  -2408693.2092   4698102.9466   3566697.0373   5   8   3.2223   5.7219   5.1559  -3.2088   4.2445  -2.2160   0.00    0.0
2046 357695.000  -2408693.2083   4698102.9406   3566697.0324   5   8   3.2225   5.7217   5.1554  -3.2089   4.2440  -2.2158   0.00    0.0
2046 357696.000  -2408693.2027   4698102.9317   3566697.0247   5   8   3.2228   5.7215   5.1548  -3.2090   4.2435  -2.2157   0.00    0.0
2046 357697.000  -2408693.2058   4698102.9428   3566697.0317   5   8   3.2230   5.7213   5.1543  -3.2092   4.2429  -2.2155   0.00    0.0
2046 357698.000  -2408693.2074   4698102.9471   3566697.0291   5   8   3.2232   5.7211   5.1537  -3.2093   4.2424  -2.2154   0.00    0.0
2046 357699.000  -2408693.2007   4698102.9326   3566697.0214   5   8   3.2235   5.7209   5.1532  -3.2094   4.2419  -2.2152   0.00    0.0
2046 357700.000  -2408693.2006   4698102.9353   3566697.0237   5   8   3.2237   5.7207   5.1526  -3.2095   4.2413  -2.2151   0.00    0.0
2046 357701.000  -2408693.2004   4698102.9417   3566697.0296   5   8   3.2239   5.7204   5.1521  -3.2096   4.2408  -2.2149   0.00    0.0
2046 357702.000  -2408693.1959   4698102.9257   3566697.0235   5   8   3.2242   5.7202   5.1515  -3.2097   4.2403  -2.2148   0.00    0.0
2046 357703.000  -2408693.1913   4698102.9221   3566697.0113   5   8   3.2244   5.7200   5.1510  -3.2099   4.2397  -2.2146   0.00    0.0
2046 357704.000  -2408693.1976   4698102.9264   3566697.0137   5   8   3.2246   5.7198   5.1504  -3.2100   4.2392  -2.2145   0.00    0.0
2046 357705.000  -2408693.1958   4698102.9270   3566697.0203   5   8   3.2249   5.7196   5.1499  -3.2101   4.2386  -2.2143   0.00    0.0
2046 357706.000  -2408693.1893   4698102.9280   3566697.0132   5   8   3.2251   5.7194   5.1493  -3.2102   4.2381  -2.2142   0.00    0.0
2046 357707.000  -2408693.1907   4698102.9330   3566697.0139   5   8   3.2253   5.7192   5.1488  -3.2103   4.2376  -2.2140   0.00    0.0
2046 357708.000  -2408693.1868   4698102.9230   3566697.0163   5   8   3.2256   5.7190   5.1482  -3.2105   4.2370  -2.2139   0.00    0.0
2046 357709.000  -2408693.1905   4698102.9235   3566697.0170   5   8   3.2258   5.7187   5.1476  -3.2106   4.2365  -2.2137   0.00    0.0
2046 357710.000  -2408693.1875   4698102.9211   3566697.0130   5   8   3.2260   5.7185   5.1471  -3.2107   4.2360  -2.2135   0.00    0.0
2046 357711.000  -2408693.1793   4698102.9160   3566697.0004   5   8   3.2263   5.7183   5.1465  -3.2108   4.2354  -2.2134   0.00    0.0
2046 357712.000  -2408693.1820   4698102.9186   3566697.0005   5   8   3.2265   5.7181   5.1460  -3.2109   4.2349  -2.2132   0.00    0.0
2046 357713.000  -2408693.1770   4698102.9081   3566696.9915   5   8   3.2267   5.7179   5.1454  -3.2110   4.2343  -2.2131   0.00    0.0
2046 357714.000  -2408693.1749   4698102.9078   3566696.9940   5   8   3.2270   5.7177   5.1449  -3.2112   4.2338  -2.2129   0.00    0.0
2046 357715.000  -2408693.1784   4698102.9066   3566696.9934   5   8   3.2272   5.7175   5.1443  -3.2113   4.2333  -2.2128   0.00    0.0
2046 357716.000  -2408693.1789   4698102.9115   3566696.9862   5   8   3.2274   5.7173   5.1438  -3.2114   4.2327  -2.2126   0.00    0.0
2046 357717.000  -2408693.1768   4698102.9137   3566696.9957   5   8   3.2277   5.7171   5.1432  -3.2115   4.2322  -2.2125   0.00    0.0
2046 357718.000  -2408693.1852   4698102.9270   3566696.9953   5   8   3.2279   5.7168   5.1427  -3.2116   4.2316  -2.2123   0.00    0.0
2046 357719.000  -2408693.1770   4698102.9205   3566696.9921   5   8   3.2281   5.7166   5.1421  -3.2117   4.2311  -2.2122   0.00    0.0
2046 357720.000  -2408693.1781   4698102.9091   3566696.9859   5   8   3.2284   5.7164   5.1416  -3.2119   4.2306  -2.2120   0.00    0.0
2046 357721.000  -2408693.1720   4698102.9007   3566696.9865   5   8   3.2286   5.7162   5.1410  -3.2120   4.2300  -2.2119   0.00    0.0
2046 357722.000  -2408693.1715   4698102.9057   3566696.9890   5   8   3.2288   5.7160   5.1404  -3.2121   4.2295  -2.2117   0.00    0.0
2046 357723.000  -2408693.1789   4698102.9124   3566696.9835   5   8   3.2291   5.7158   5.1399  -3.2122   4.2289  -2.2115   0.00    0.0
2046 357724.000  -2408693.1726   4698102.9168   3566696.9908   5   8   3.2293   5.7156   5.1393  -3.2123   4.2284  -2.2114   0.00    0.0
2046 357725.000  -2408693.1703   4698102.9089   3566696.9819   5   8   3.2295   5.7154   5.1388  -3.2124   4.2278  -2.2112   0.00    0.0
2046 357726.000  -2408693.1709   4698102.9011   3566696.9751   5   8   3.2298   5.7152   5.1382  -3.2126   4.2273  -2.2111   0.00    0.0
2046 357727.000  -2408693.1670   4698102.8935   3566696.9646   5   8   3.2300   5.7149   5.1377  -3.2127   4.2268  -2.2109   0.00    0.0
2046 357728.000  -2408693.1701   4698102.9039   3566696.9789   5   8   3.2302   5.7147   5.1371  -3.2128   4.2262  -2.2108   0.00    0.0
2046 357729.000  -2408693.1574   4698102.8938   3566696.9762   5   8   3.2305   5.7145   5.1365  -3.2129   4.2257  -2.2106   0.00    0.0
2046 357730.000  -2408693.0278   4698102.6965   3566696.9451   5   9   2.6646   5.0728   5.1230  -2.3490   4.1098  -2.0539   0.00    0.0
2046 357731.000  -2408693.0358   4698102.7195   3566696.9497   5   9   2.6648   5.0727   5.1224  -2.3492   4.1094  -2.0540   0.00    0.0
2046 357732.000  -2408693.0617   4698102.7533   3566696.9484   5   9   2.6650   5.0727   5.1219  -2.3495   4.1091  -2.0540   0.00    0.0
2046 357733.000  -2408693.0831   4698102.7837   3566696.9505   5   9   2.6652   5.0726   5.1214  -2.3497   4.1087  -2.0541   0.00    0.0
2046 357734.000  -2408693.1022   4698102.8000   3566696.9511   5   9   2.6654   5.0725   5.1209  -2.3499   4.1083  -2.0542   0.00    0.0
2046 357735.000  -2408693.1230   4698102.8341   3566696.9601   5   9   2.6656   5.0725   5.1204  -2.3501   4.1080  -2.0542   0.00    0.0
2046 357736.000  -2408693.1305   4698102.8642   3566696.9670   5   9   2.6658   5.0724   5.1198  -2.3503   4.1076  -2.0543   0.00    0.0
2046 357737.000  -2408693.1469   4698102.8644   3566696.9584   5   9   2.6660   5.0723   5.1193  -2.3506   4.1072  -2.0544   0.00    0.0
2046 357738.000  -2408693.1557   4698102.8926   3566696.9634   5   9   2.6662   5.0723   5.1188  -2.3508   4.1069  -2.0544   0.00    0.0
2046 357739.000  -2408693.1532   4698102.8768   3566696.9621   5   9   2.6664   5.0722   5.1183  -2.3510   4.1065  -2.0545   0.00    0.0
2046 357740.000  -2408693.1572   4698102.8779   3566696.9529   5   9   2.6666   5.0721   5.1178  -2.3512   4.1061  -2.0546   0.00    0.0
2046 357741.000  -2408693.1375   4698102.8624   3566696.9543   5   9   2.6668   5.0721   5.1172  -2.3514   4.1058  -2.0546   0.00    0.0
2046 357742.000  -2408693.1274   4698102.8477   3566696.9569   5   9   2.6670   5.0720   5.1167  -2.3516   4.1054  -2.0547   0.00    0.0
2046 357743.000  -2408693.1207   4698102.8358   3566696.9553   5   9   2.6672   5.0719   5.1162  -2.3519   4.1050  -2.0548   0.00    0.0
2046 357744.000  -2408693.1265   4698102.8404   3566696.9487   5   9   2.6674   5.0719   5.1157  -2.3521   4.1047  -2.0548   0.00    0.0
2046 357745.000  -2408693.1303   4698102.8439   3566696.9506   5   9   2.6676   5.0718   5.1151  -2.3523   4.1043  -2.0549   0.00    0.0
2046 357746.000  -2408693.1285   4698102.8438   3566696.9512   5   9   2.6678   5.0717   5.1146  -2.3525   4.1039  -2.0550   0.00    0.0
2046 357747.000  -2408693.1280   4698102.8417   3566696.9413   5   9   2.6680   5.0717   5.1141  -2.3527   4.1036  -2.0550   0.00    0.0
2046 357748.000  -2408693.1201   4698102.8399   3566696.9427   5   9   2.6682   5.0716   5.1136  -2.3529   4.1032  -2.0551   0.00    0.0
2046 357749.000  -2408693.1174   4698102.8334   3566696.9394   5   9   2.6684   5.0715   5.1130  -2.3532   4.1028  -2.0552   0.00    0.0
2046 357750.000  -2408693.1146   4698102.8309   3566696.9385   5   9   2.6686   5.0715   5.1125  -2.3534   4.1024  -2.0552   0.00    0.0
2046 357751.000  -2408693.1084   4698102.8159   3566696.9343   5   9   2.6688   5.0714   5.1120  -2.3536   4.1021  -2.0553   0.00    0.0
2046 357752.000  -2408693.1156   4698102.8377   3566696.9329   5   9   2.6690   5.0713   5.1115  -2.3538   4.1017  -2.0554   0.00    0.0
2046 357753.000  -2408693.1301   4698102.8611   3566696.9343   5   9   2.6692   5.0712   5.1109  -2.3540   4.1013  -2.0554   0.00    0.0
2046 357754.000  -2408693.1405   4698102.8651   3566696.9331   5   9   2.6694   5.0712   5.1104  -2.3543   4.1010  -2.0555   0.00    0.0
2046 357755.000  -2408693.1503   4698102.8817   3566696.9350   5   9   2.6696   5.0711   5.1099  -2.3545   4.1006  -2.0555   0.00    0.0
2046 357756.000  -2408693.1513   4698102.8932   3566696.9429   5   9   2.6698   5.0710   5.1094  -2.3547   4.1002  -2.0556   0.00    0.0
2046 357757.000  -2408693.1528   4698102.8916   3566696.9373   5   9   2.6700   5.0710   5.1088  -2.3549   4.0998  -2.0557   0.00    0.0
2046 357758.000  -2408693.1490   4698102.8848   3566696.9366   5   9   2.6702   5.0709   5.1083  -2.3551   4.0995  -2.0557   0.00    0.0
2046 357759.000  -2408693.1503   4698102.8963   3566696.9338   5   9   2.6704   5.0708   5.1078  -2.3553   4.0991  -2.0558   0.00    0.0
2046 357760.000  -2408693.1541   4698102.8984   3566696.9366   5   9   2.6706   5.0708   5.1072  -2.3555   4.0987  -2.0559   0.00    0.0
2046 357761.000  -2408693.1441   4698102.8833   3566696.9366   5   9   2.6708   5.0707   5.1067  -2.3558   4.0984  -2.0559   0.00    0.0
2046 357762.000  -2408693.1263   4698102.8514   3566696.9330   5   9   2.6710   5.0706   5.1062  -2.3560   4.0980  -2.0560   0.00    0.0
2046 357763.000  -2408693.1225   4698102.8482   3566696.9339   5   9   2.6712   5.0706   5.1057  -2.3562   4.0976  -2.0561   0.00    0.0
2046 357764.000  -2408693.0995   4698102.8205   3566696.9246   5   9   2.6714   5.0705   5.1051  -2.3564   4.0972  -2.0561   0.00    0.0
2046 357765.000  -2408693.0912   4698102.7987   3566696.9192   5   9   2.6716   5.0704   5.1046  -2.3566   4.0969  -2.0562   0.00    0.0
2046 357766.000  -2408693.0872   4698102.7943   3566696.9179   5   9   2.6718   5.0703   5.1041  -2.3568   4.0965  -2.0562   0.00    0.0
2046 357767.000  -2408693.0701   4698102.7712   3566696.9147   5   9   2.6720   5.0703   5.1035  -2.3571   4.0961  -2.0563   0.00    0.0
2046 357768.000  -2408693.1043   4698102.8208   3566696.9301   5   8   3.2396   5.7063   5.1146  -3.2174   4.2043  -2.2043   0.00    0.0
2046 357769.000  -2408693.1035   4698102.8147   3566696.9317   5   8   3.2399   5.7061   5.1140  -3.2175   4.2038  -2.2042   0.00    0.0
2046 357770.000  -2408693.0996   4698102.8139   3566696.9279   5   8   3.2401   5.7058   5.1135  -3.2177   4.2032  -2.2040   0.00    0.0
2046 357771.000  -2408693.0969   4698102.8067   3566696.9235   5   8   3.2403   5.7056   5.1129  -3.2178   4.2027  -2.2039   0.00    0.0
2046 357772.000  -2408693.1033   4698102.8066   3566696.9224   5   8   3.2406   5.7054   5.1123  -3.2179   4.2021  -2.2037   0.00    0.0
2046 357773.000  -2408693.0956   4698102.8052   3566696.9212   5   8   3.2408   5.7052   5.1118  -3.2180   4.2016  -2.2035   0.00    0.0
2046 357774.000  -2408693.0968   4698102.8039   3566696.9211   5   8   3.2410   5.7050   5.1112  -3.2181   4.2010  -2.2034   0.00    0.0
2046 357775.000  -2408693.0918   4698102.7953   3566696.9122   5   8   3.2413   5.7048   5.1106  -3.2182   4.2005  -2.2032   0.00    0.0
2046 357776.000  -2408693.0960   4698102.8036   3566696.9194   5   8   3.2415   5.7046   5.1101  -3.2184   4.1999  -2.2030   0.00    0.0
2046 357777.000  -2408693.0977   4698102.8008   3566696.9201   5   8   3.2417   5.7044   5.1095  -3.2185   4.1994  -2.2029   0.00    0.0
2046 357778.000  -2408693.0930   4698102.7966   3566696.9104   5   8   3.2420   5.7042   5.1089  -3.2186   4.1988  -2.2027   0.00    0.0
2046 357779.000  -2408693.0940   4698102.8003   3566696.9095   5   8   3.2422   5.7039   5.1083  -3.2187   4.1982  -2.2025   0.00    0.0
2046 357780.000  -2408693.0968   4698102.7847   3566696.9004   5   8   3.2425   5.7037   5.1078  -3.2188   4.1977  -2.2024   0.00    0.0
2046 357781.000  -2408693.0912   4698102.7843   3566696.8996   5   8   3.2427   5.7035   5.1072  -3.2189   4.1971  -2.2022   0.00    0.0
2046 357782.000  -2408693.0965   4698102.7898   3566696.9010   5   8   3.2429   5.7033   5.1066  -3.2190   4.1966  -2.2020   0.00    0.0
2046 357783.000  -2408693.0918   4698102.7818   3566696.8965   5   8   3.2432   5.7031   5.1061  -3.2192   4.1960  -2.2019   0.00    0.0
2046 357784.000  -2408693.0957   4698102.7740   3566696.9011   5   8   3.2434   5.7029   5.1055  -3.2193   4.1955  -2.2017   0.00    0.0
2046 357785.000  -2408693.2160   4698102.9557   3566696.9234   5   9   2.6756   5.0690   5.0939  -2.3609   4.0893  -2.0574   0.00    0.0
2046 357786.000  -2408693.1875   4698102.9174   3566696.9220   5   9   2.6758   5.0689   5.0934  -2.3611   4.0889  -2.0574   0.00    0.0
2046 357787.000  -2408693.1789   4698102.8954   3566696.9137   5   9   2.6760   5.0689   5.0929  -2.3613   4.0886  -2.0575   0.00    0.0
2046 357788.000  -2408693.1703   4698102.8952   3566696.9213   5   9   2.6762   5.0688   5.0923  -2.3616   4.0882  -2.0575   0.00    0.0
2046 357789.000  -2408693.1630   4698102.8699   3566696.9126   5   9   2.6764   5.0687   5.0918  -2.3618   4.0878  -2.0576   0.00    0.0
2046 357790.000  -2408693.1410   4698102.8479   3566696.9121   5   9   2.6766   5.0687   5.0912  -2.3620   4.0874  -2.0577   0.00    0.0
2046 357791.000  -2408693.1266   4698102.8286   3566696.9133   5   9   2.6768   5.0686   5.0907  -2.3622   4.0870  -2.0577   0.00    0.0
2046 357792.000  -2408693.1130   4698102.8000   3566696.9053   5   9   2.6770   5.0685   5.0902  -2.3624   4.0866  -2.0578   0.00    0.0
2046 357793.000  -2408693.0894   4698102.7705   3566696.9091   5   9   2.6772   5.0684   5.0896  -2.3626   4.0863  -2.0578   0.00    0.0
2046 357794.000  -2408693.0590   4698102.7263   3566696.9026   5   9   2.6774   5.0684   5.0891  -2.3628   4.0859  -2.0579   0.00    0.0
2046 357795.000  -2408693.0267   4698102.6717   3566696.8930   5   9   2.6776   5.0683   5.0886  -2.3631   4.0855  -2.0579   0.00    0.0
2046 357796.000  -2408693.0902   4698102.7650   3566696.9031   5   8   3.2462   5.7004   5.0986  -3.2206   4.1888  -2.1997   0.00    0.0
2046 357797.000  -2408693.0979   4698102.7795   3566696.9075   5   8   3.2465   5.7001   5.0981  -3.2208   4.1882  -2.1995   0.00    0.0
2046 357798.000  -2408693.0919   4698102.7702   3566696.9117   5   8   3.2467   5.6999   5.0975  -3.2209   4.1877  -2.1993   0.00    0.0
2046 357799.000  -2408693.0972   4698102.7755   3566696.9117   5   8   3.2469   5.6997   5.0969  -3.2210   4.1871  -2.1992   0.00    0.0
2046 357800.000  -2408693.1018   4698102.7780   3566696.9172   5   8   3.2472   5.6995   5.0963  -3.2211   4.1866  -2.1990   0.00    0.0
2046 357801.000  -2408693.0978   4698102.7743   3566696.9193   5   8   3.2474   5.6993   5.0958  -3.2212   4.1860  -2.1988   0.00    0.0
2046 357802.000  -2408693.0996   4698102.7711   3566696.9178   5   8   3.2476   5.6991   5.0952  -3.2213   4.1854  -2.1987   0.00    0.0
2046 357803.000  -2408693.1023   4698102.7702   3566696.9152   5   8   3.2479   5.6989   5.0946  -3.2214   4.1849  -2.1985   0.00    0.0
2046 357804.000  -2408693.1015   4698102.7655   3566696.9107   5   8   3.2481   5.6987   5.0940  -3.2216   4.1843  -2.1983   0.00    0.0
2046 357805.000  -2408693.0989   4698102.7585   3566696.9074   5   8   3.2484   5.6985   5.0935  -3.2217   4.1838  -2.1982   0.00    0.0
2046 357806.000  -2408693.1029   4698102.7631   3566696.9119   5   8   3.2486   5.6982   5.0929  -3.2218   4.1832  -2.1980   0.00    0.0
2046 357807.000  -2408693.0966   4698102.7530   3566696.9076   5   8   3.2488   5.6980   5.0923  -3.2219   4.1826  -2.1978   0.00    0.0
2046 357808.000  -2408693.0978   4698102.7552   3566696.9071   5   8   3.2491   5.6978   5.0917  -3.2220   4.1821  -2.1977   0.00    0.0
2046 357809.000  -2408693.1010   4698102.7548   3566696.9062   5   8   3.2493   5.6976   5.0912  -3.2221   4.1815  -2.1975   0.00    0.0
2046 357810.000  -2408694.0522   4698104.1067   3566697.0793   5   9   2.6806   5.0672   5.0804  -2.3662   4.0797  -2.0587   0.00    0.0
2046 357811.000  -2408693.9364   4698103.9318   3566697.0509   5   9   2.6809   5.0672   5.0799  -2.3664   4.0793  -2.0588   0.00    0.0
2046 357812.000  -2408693.8498   4698103.8092   3566697.0417   5   9   2.6811   5.0671   5.0794  -2.3667   4.0790  -2.0588   0.00    0.0
2046 357813.000  -2408693.7870   4698103.7241   3566697.0267   5   9   2.6813   5.0670   5.0788  -2.3669   4.0786  -2.0589   0.00    0.0
2046 357814.000  -2408693.7483   4698103.6632   3566697.0161   5   9   2.6815   5.0669   5.0783  -2.3671   4.0782  -2.0589   0.00    0.0
2046 357815.000  -2408693.7123   4698103.6250   3566697.0219   5   9   2.6817   5.0669   5.0777  -2.3673   4.0778  -2.0590   0.00    0.0
2046 357816.000  -2408693.6809   4698103.5646   3566697.0085   5   9   2.6819   5.0668   5.0772  -2.3675   4.0774  -2.0591   0.00    0.0
2046 357817.000  -2408693.6595   4698103.5347   3566697.0004   5   9   2.6821   5.0667   5.0766  -2.3677   4.0770  -2.0591   0.00    0.0
2046 357818.000  -2408693.6475   4698103.5168   3566696.9965   5   9   2.6823   5.0666   5.0761  -2.3679   4.0766  -2.0592   0.00    0.0
2046 357819.000  -2408693.6347   4698103.4940   3566696.9914   5   9   2.6825   5.0666   5.0755  -2.3681   4.0762  -2.0592   0.00    0.0
2046 357820.000  -2408693.6255   4698103.4759   3566696.9877   5   9   2.6827   5.0665   5.0750  -2.3683   4.0759  -2.0593   0.00    0.0
2046 357821.000  -2408693.6027   4698103.4480   3566696.9863   5   9   2.6829   5.0664   5.0745  -2.3685   4.0755  -2.0593   0.00    0.0
2046 357822.000  -2408693.5772   4698103.4076   3566696.9769   5   9   2.6831   5.0664   5.0739  -2.3688   4.0751  -2.0594   0.00    0.0
2046 357823.000  -2408693.5692   4698103.3903   3566696.9636   5   9   2.6833   5.0663   5.0734  -2.3690   4.0747  -2.0594   0.00    0.0
2046 357824.000  -2408693.5850   4698103.4249   3566696.9794   5   9   2.6835   5.0662   5.0728  -2.3692   4.0743  -2.0595   0.00    0.0
2046 357825.000  -2408693.6118   4698103.4526   3566696.9798   5   9   2.6837   5.0661   5.0723  -2.3694   4.0739  -2.0595   0.00    0.0
2046 357826.000  -2408693.6376   4698103.4950   3566696.9914   5   9   2.6839   5.0661   5.0717  -2.3696   4.0735  -2.0596   0.00    0.0
2046 357827.000  -2408693.6399   4698103.5023   3566696.9906   5   9   2.6841   5.0660   5.0712  -2.3698   4.0731  -2.0596   0.00    0.0
2046 357828.000  -2408693.6490   4698103.5102   3566696.9912   5   9   2.6843   5.0659   5.0706  -2.3700   4.0727  -2.0597   0.00    0.0
2046 357829.000  -2408693.6598   4698103.5262   3566696.9913   5   9   2.6845   5.0658   5.0701  -2.3702   4.0723  -2.0597   0.00    0.0
2046 357830.000  -2408693.6585   4698103.5245   3566696.9869   5   9   2.6847   5.0658   5.0695  -2.3704   4.0719  -2.0598   0.00    0.0
2046 357831.000  -2408693.6593   4698103.5181   3566696.9804   5   9   2.6849   5.0657   5.0690  -2.3706   4.0716  -2.0598   0.00    0.0
2046 357832.000  -2408693.6573   4698103.5217   3566696.9845   5   9   2.6851   5.0656   5.0684  -2.3709   4.0712  -2.0598   0.00    0.0
2046 357833.000  -2408693.6619   4698103.5324   3566696.9941   5   9   2.6853   5.0656   5.0679  -2.3711   4.0708  -2.0599   0.00    0.0
2046 357834.000  -2408693.6618   4698103.5347   3566696.9887   5   9   2.6855   5.0655   5.0673  -2.3713   4.0704  -2.0599   0.00    0.0
2046 357835.000  -2408693.6649   4698103.5365   3566696.9920   5   9   2.6857   5.0654   5.0668  -2.3715   4.0700  -2.0600   0.00    0.0
2046 357836.000  -2408693.6700   4698103.5384   3566696.9915   5   9   2.6859   5.0653   5.0662  -2.3717   4.0696  -2.0600   0.00    0.0
2046 357837.000  -2408693.6618   4698103.5303   3566696.9949   5   9   2.6861   5.0653   5.0657  -2.3719   4.0692  -2.0601   0.00    0.0
2046 357838.000  -2408693.6508   4698103.5166   3566696.9898   5   9   2.6863   5.0652   5.0651  -2.3721   4.0688  -2.0601   0.00    0.0
2046 357839.000  -2408693.6433   4698103.5053   3566696.9915   5   9   2.6865   5.0651   5.0646  -2.3723   4.0684  -2.0602   0.00    0.0
2046 357840.000  -2408693.6240   4698103.4810   3566696.9883   5   9   2.6867   5.0650   5.0640  -2.3725   4.0680  -2.0602   0.00    0.0
2046 357841.000  -2408693.6233   4698103.4793   3566696.9919   5   9   2.6869   5.0650   5.0635  -2.3727   4.0676  -2.0603   0.00    0.0
2046 357842.000  -2408693.6237   4698103.4777   3566696.9796   5   9   2.6871   5.0649   5.0629  -2.3729   4.0672  -2.0603   0.00    0.0
2046 357843.000  -2408693.6220   4698103.4729   3566696.9802   5   9   2.6873   5.0648   5.0624  -2.3731   4.0668  -2.0604   0.00    0.0
2046 357844.000  -2408693.6196   4698103.4623   3566696.9734   5   9   2.6875   5.0647   5.0618  -2.3734   4.0664  -2.0604   0.00    0.0
2046 357845.000  -2408693.6058   4698103.4402   3566696.9680   5   9   2.6877   5.0647   5.0613  -2.3736   4.0660  -2.0605   0.00    0.0
2046 357846.000  -2408693.5956   4698103.4264   3566696.9672   5   9   2.6879   5.0646   5.0607  -2.3738   4.0657  -2.0605   0.00    0.0
2046 357847.000  -2408693.5802   4698103.4171   3566696.9677   5   9   2.6881   5.0645   5.0602  -2.3740   4.0653  -2.0605   0.00    0.0
2046 357848.000  -2408693.5811   4698103.4073   3566696.9682   5   9   2.6883   5.0644   5.0596  -2.3742   4.0649  -2.0606   0.00    0.0
2046 357849.000  -2408693.5687   4698103.3867   3566696.9607   5   9   2.6885   5.0644   5.0591  -2.3744   4.0645  -2.0606   0.00    0.0
2046 357850.000  -2408693.5679   4698103.3848   3566696.9589   5   9   2.6887   5.0643   5.0585  -2.3746   4.0641  -2.0607   0.00    0.0
2046 357851.000  -2408693.5562   4698103.3717   3566696.9630   5   9   2.6889   5.0642   5.0580  -2.3748   4.0637  -2.0607   0.00    0.0
2046 357852.000  -2408693.5515   4698103.3559   3566696.9549   5   9   2.6891   5.0641   5.0574  -2.3750   4.0633  -2.0608   0.00    0.0
2046 357853.000  -2408693.5454   4698103.3434   3566696.9494   5   9   2.6893   5.0641   5.0569  -2.3752   4.0629  -2.0608   0.00    0.0
2046 357854.000  -2408693.5444   4698103.3367   3566696.9421   5   9   2.6895   5.0640   5.0563  -2.3754   4.0625  -2.0609   0.00    0.0
2046 357855.000  -2408693.5522   4698103.3497   3566696.9492   5   9   2.6897   5.0639   5.0557  -2.3756   4.0621  -2.0609   0.00    0.0
2046 357856.000  -2408693.5403   4698103.3378   3566696.9473   5   9   2.6899   5.0638   5.0552  -2.3758   4.0617  -2.0609   0.00    0.0
2046 357857.000  -2408693.5349   4698103.3298   3566696.9393   5   9   2.6901   5.0638   5.0546  -2.3760   4.0613  -2.0610   0.00    0.0
2046 357858.000  -2408693.5305   4698103.3114   3566696.9339   5   9   2.6903   5.0637   5.0541  -2.3763   4.0609  -2.0610   0.00    0.0
2046 357859.000  -2408693.5303   4698103.3068   3566696.9305   5   9   2.6905   5.0636   5.0535  -2.3765   4.0605  -2.0611   0.00    0.0
2046 357860.000  -2408693.5310   4698103.3083   3566696.9283   5   9   2.6907   5.0636   5.0530  -2.3767   4.0601  -2.0611   0.00    0.0
2046 357861.000  -2408693.5313   4698103.3134   3566696.9403   5   9   2.6909   5.0635   5.0524  -2.3769   4.0597  -2.0612   0.00    0.0
2046 357862.000  -2408693.5298   4698103.3055   3566696.9296   5   9   2.6911   5.0634   5.0519  -2.3771   4.0593  -2.0612   0.00    0.0
2046 357863.000  -2408693.5301   4698103.3083   3566696.9334   5   9   2.6913   5.0633   5.0513  -2.3773   4.0589  -2.0612   0.00    0.0
2046 357864.000  -2408693.5315   4698103.3125   3566696.9291   5   9   2.6915   5.0633   5.0507  -2.3775   4.0585  -2.0613   0.00    0.0
2046 357865.000  -2408693.5276   4698103.3023   3566696.9259   5   9   2.6917   5.0632   5.0502  -2.3777   4.0581  -2.0613   0.00    0.0
2046 357866.000  -2408693.5227   4698103.2938   3566696.9221   5   9   2.6919   5.0631   5.0496  -2.3779   4.0577  -2.0614   0.00    0.0
2046 357867.000  -2408693.5150   4698103.2812   3566696.9229   5   9   2.6921   5.0630   5.0491  -2.3781   4.0573  -2.0614   0.00    0.0
2046 357868.000  -2408693.5065   4698103.2734   3566696.9252   5   9   2.6923   5.0630   5.0485  -2.3783   4.0569  -2.0615   0.00    0.0
2046 357869.000  -2408693.4950   4698103.2629   3566696.9266   5   9   2.6925   5.0629   5.0480  -2.3785   4.0565  -2.0615   0.00    0.0
2046 357870.000  -2408693.4882   4698103.2467   3566696.9133   5   9   2.6927   5.0628   5.0474  -2.3787   4.0561  -2.0615   0.00    0.0
2046 357871.000  -2408693.4831   4698103.2355   3566696.9121   5   9   2.6929   5.0627   5.0468  -2.3789   4.0557  -2.0616   0.00    0.0
2046 357872.000  -2408693.4781   4698103.2304   3566696.9175   5   9   2.6931   5.0627   5.0463  -2.3791   4.0553  -2.0616   0.00    0.0
2046 357873.000  -2408693.4691   4698103.2092   3566696.9110   5   9   2.6933   5.0626   5.0457  -2.3793   4.0549  -2.0617   0.00    0.0
2046 357874.000  -2408693.4574   4698103.1940   3566696.9099   5   9   2.6936   5.0625   5.0452  -2.3796   4.0545  -2.0617   0.00    0.0
2046 357875.000  -2408693.4596   4698103.1903   3566696.9040   5   9   2.6938   5.0624   5.0446  -2.3798   4.0541  -2.0617   0.00    0.0
2046 357876.000  -2408693.4528   4698103.1776   3566696.9032   5   9   2.6940   5.0624   5.0441  -2.3800   4.0537  -2.0618   0.00    0.0
2046 357877.000  -2408693.4528   4698103.1759   3566696.9025   5   9   2.6942   5.0623   5.0435  -2.3802   4.0533  -2.0618   0.00    0.0
2046 357878.000  -2408693.4481   4698103.1816   3566696.9141   5   9   2.6944   5.0622   5.0429  -2.3804   4.0529  -2.0619   0.00    0.0
2046 357879.000  -2408693.4449   4698103.1762   3566696.9036   5   9   2.6946   5.0621   5.0424  -2.3806   4.0525  -2.0619   0.00    0.0
2046 357880.000  -2408693.4319   4698103.1540   3566696.9005   5   9   2.6948   5.0620   5.0418  -2.3808   4.0521  -2.0619   0.00    0.0
2046 357881.000  -2408693.4264   4698103.1513   3566696.9087   5   9   2.6950   5.0620   5.0413  -2.3810   4.0517  -2.0620   0.00    0.0
2046 357882.000  -2408693.4255   4698103.1417   3566696.8963   5   9   2.6952   5.0619   5.0407  -2.3812   4.0513  -2.0620   0.00    0.0
2046 357883.000  -2408693.4228   4698103.1396   3566696.9036   5   9   2.6954   5.0618   5.0401  -2.3814   4.0509  -2.0621   0.00    0.0
2046 357884.000  -2408693.4137   4698103.1263   3566696.9033   5   9   2.6956   5.0617   5.0396  -2.3816   4.0505  -2.0621   0.00    0.0
2046 357885.000  -2408693.4079   4698103.1172   3566696.9081   5   9   2.6958   5.0617   5.0390  -2.3818   4.0500  -2.0621   0.00    0.0
2046 357886.000  -2408693.4047   4698103.1172   3566696.9040   5   9   2.6960   5.0616   5.0384  -2.3820   4.0496  -2.0622   0.00    0.0
2046 357887.000  -2408693.3961   4698103.1128   3566696.9021   5   9   2.6962   5.0615   5.0379  -2.3822   4.0492  -2.0622   0.00    0.0
2046 357888.000  -2408693.3943   4698103.1003   3566696.9085   5   9   2.6964   5.0614   5.0373  -2.3824   4.0488  -2.0622   0.00    0.0
2046 357889.000  -2408693.3912   4698103.0956   3566696.9069   5   9   2.6966   5.0614   5.0368  -2.3826   4.0484  -2.0623   0.00    0.0
2046 357890.000  -2408693.3894   4698103.0929   3566696.9079   5   9   2.6968   5.0613   5.0362  -2.3828   4.0480  -2.0623   0.00    0.0
