% program   : GINav v0.1.0
% obs start : 2023/10/03 00:00:00.0
% obs end   : 2023/10/03 23:59:30.0
% mode      : SPP
% system    : GPS GALILEO 
% nfreqs    : 2
% elev mask : 10.0 deg
% ephemeris : broadcast
% ionos opt : off
% trops opt : Saastamoinen model
%
%  GPST              x-ecef(m)      y-ecef(m)      z-ecef(m)   Q  ns   sdx(m)   sdy(m)   sdz(m)  sdxy(m)  sdyz(m)  sdzx(m) age(s)  ratio    vx(m/s)    vy(m/s)    vz(m/s)      sdvx     sdvy     sdvz    sdvxy    sdvyz    sdvzx
2282 172800.000   2248124.1856    865687.8740   5886426.4709   5   8   2.3697   2.0968   6.4414  -1.3218  -1.6905   2.8955   0.00    0.0    0.00000    0.00000    0.00000   0.00000  0.00000  0.00000  0.00000  0.00000  0.00000
2282 172830.000   2248124.4684    865688.0051   5886427.5213   5   8   2.3675   2.0949   6.4527  -1.3175  -1.6812   2.8941   0.00    0.0    0.00000    0.00000    0.00000   0.00000  0.00000  0.00000  0.00000  0.00000  0.00000
2282 172860.000   2248124.4383    865687.8337   5886427.4439   5   8   2.3651   2.0929   6.4634  -1.3131  -1.6716   2.8923   0.00    0.0    0.00000    0.00000    0.00000   0.00000  0.00000  0.00000  0.00000  0.00000  0.00000
2282 172890.000   2248124.4454    865687.9088   5886427.2696   5   8   2.3626   2.0910   6.4733  -1.3086  -1.6616   2.8902   0.00    0.0    0.00000    0.00000    0.00000   0.00000  0.00000  0.00000  0.00000  0.00000  0.00000
2282 172920.000   2248124.4662    865687.8677   5886427.2953   5   8   2.3600   2.0891   6.4825  -1.3041  -1.6513   2.8877   0.00    0.0    0.00000    0.00000    0.00000   0.00000  0.00000  0.00000  0.00000  0.00000  0.00000
2282 172950.000   2248124.4650    865687.9584   5886427.8961   5   8   2.3573   2.0871   6.4910  -1.2995  -1.6406   2.8847   0.00    0.0    0.00000    0.00000    0.00000   0.00000  0.00000  0.00000  0.00000  0.00000  0.00000
2282 172980.000   2248124.4893    865687.7649   5886427.5275   5   8   2.3546   2.0852   6.4988  -1.2947  -1.6295   2.8814   0.00    0.0    0.00000    0.00000    0.00000   0.00000  0.00000  0.00000  0.00000  0.00000  0.00000
2282 173010.000   2248124.6900    865687.6640   5886427.7054   5   8   2.3517   2.0832   6.5059  -1.2900  -1.6181   2.8777   0.00    0.0    0.00000    0.00000    0.00000   0.00000  0.00000  0.00000  0.00000  0.00000  0.00000
2282 173040.000   2248124.4424    865687.5316   5886427.5139   5   8   2.3487   2.0813   6.5122  -1.2851  -1.6064   2.8736   0.00    0.0    0.00000    0.00000    0.00000   0.00000  0.00000  0.00000  0.00000  0.00000  0.00000
2282 173070.000   2248124.3340    865687.8745   5886427.7939   5   8   2.3456   2.0793   6.5178  -1.2802  -1.5943   2.8692   0.00    0.0    0.00000    0.00000    0.00000   0.00000  0.00000  0.00000  0.00000  0.00000  0.00000
2282 173100.000   2248124.4409    865687.7003   5886427.7492   5   8   2.3425   2.0774   6.5227  -1.2752  -1.5818   2.8643   0.00    0.0    0.00000    0.00000    0.00000   0.00000  0.00000  0.00000  0.00000  0.00000  0.00000
2282 173130.000   2248124.3898    865687.7540   5886427.5932   5   8   2.3392   2.0755   6.5268  -1.2701  -1.5690   2.8591   0.00    0.0    0.00000    0.00000    0.00000   0.00000  0.00000  0.00000  0.00000  0.00000  0.00000
2282 173160.000   2248124.6881    865687.8228   5886429.3592   5   9   2.3233   2.0733   4.7316  -1.2619  -1.5087   2.6557   0.00    0.0    0.00000    0.00000    0.00000   0.00000  0.00000  0.00000  0.00000  0.00000  0.00000
2282 173190.000   2248124.6334    865687.7918   5886429.4442   5   9   2.3205   2.0715   4.7405  -1.2573  -1.5031   2.6556   0.00    0.0    0.00000    0.00000    0.00000   0.00000  0.00000  0.00000  0.00000  0.00000  0.00000
2282 173220.000   2248124.5424    865687.8057   5886429.6678   5   9   2.3177   2.0697   4.7492  -1.2527  -1.4972   2.6552   0.00    0.0    0.00000    0.00000    0.00000   0.00000  0.00000  0.00000  0.00000  0.00000  0.00000
2282 173250.000   2248124.4916    865687.7083   5886429.9469   5   9   2.3148   2.0678   4.7577  -1.2479  -1.4911   2.6546   0.00    0.0    0.00000    0.00000    0.00000   0.00000  0.00000  0.00000  0.00000  0.00000  0.00000
2282 173280.000   2248124.6532    865687.5752   5886429.8785   5   9   2.3119   2.0660   4.7662  -1.2431  -1.4849   2.6539   0.00    0.0    0.00000    0.00000    0.00000   0.00000  0.00000  0.00000  0.00000  0.00000  0.00000
2282 173310.000   2248124.5359    865687.5550   5886429.6573   5   9   2.3088   2.0642   4.7744  -1.2382  -1.4785   2.6530   0.00    0.0    0.00000    0.00000    0.00000   0.00000  0.00000  0.00000  0.00000  0.00000  0.00000
2282 173340.000   2248124.6658    865687.5878   5886429.7683   5   9   2.3057   2.0624   4.7824  -1.2333  -1.4719   2.6518   0.00    0.0    0.00000    0.00000    0.00000   0.00000  0.00000  0.00000  0.00000  0.00000  0.00000
2282 173370.000   2248124.6354    865687.7544   5886429.8694   5   9   2.3024   2.0605   4.7903  -1.2283  -1.4651   2.6505   0.00    0.0    0.00000    0.00000    0.00000   0.00000  0.00000  0.00000  0.00000  0.00000  0.00000
2282 173400.000   2248124.6815    865687.7054   5886430.0864   5   9   2.2991   2.0587   4.7980  -1.2232  -1.4581   2.6490   0.00    0.0    0.00000    0.00000    0.00000   0.00000  0.00000  0.00000  0.00000  0.00000  0.00000
2282 173430.000   2248124.6326    865687.8273   5886429.6562   5   9   2.2957   2.0569   4.8055  -1.2180  -1.4509   2.6472   0.00    0.0    0.00000    0.00000    0.00000   0.00000  0.00000  0.00000  0.00000  0.00000  0.00000
2282 173460.000   2248124.4982    865687.6412   5886429.6031   5   9   2.2923   2.0551   4.8128  -1.2127  -1.4435   2.6453   0.00    0.0    0.00000    0.00000    0.00000   0.00000  0.00000  0.00000  0.00000  0.00000  0.00000
2282 173490.000   2248124.6444    865687.5986   5886429.7754   5   9   2.2887   2.0532   4.8198  -1.2074  -1.4359   2.6431   0.00    0.0    0.00000    0.00000    0.00000   0.00000  0.00000  0.00000  0.00000  0.00000  0.00000
2282 173520.000   2248124.7020    865687.6167   5886429.8711   5   9   2.2851   2.0514   4.8267  -1.2021  -1.4281   2.6408   0.00    0.0    0.00000    0.00000    0.00000   0.00000  0.00000  0.00000  0.00000  0.00000  0.00000
2282 173550.000   2248124.9222    865687.7463   5886430.1240   5   9   2.2814   2.0496   4.8333  -1.1966  -1.4201   2.6382   0.00    0.0    0.00000    0.00000    0.00000   0.00000  0.00000  0.00000  0.00000  0.00000  0.00000
2282 173580.000   2248124.8692    865687.6802   5886430.0536   5   9   2.2776   2.0478   4.8397  -1.1911  -1.4119   2.6354   0.00    0.0    0.00000    0.00000    0.00000   0.00000  0.00000  0.00000  0.00000  0.00000  0.00000
2282 173610.000   2248124.7133    865687.9461   5886430.1484   5   9   2.2737   2.0461   4.8459  -1.1856  -1.4035   2.6324   0.00    0.0    0.00000    0.00000    0.00000   0.00000  0.00000  0.00000  0.00000  0.00000  0.00000
2282 173640.000   2248124.8146    865687.9638   5886430.2007   5   9   2.2698   2.0443   4.8518  -1.1799  -1.3948   2.6292   0.00    0.0    0.00000    0.00000    0.00000   0.00000  0.00000  0.00000  0.00000  0.00000  0.00000
2282 173670.000   2248124.8481    865687.9349   5886430.5018   5   9   2.2657   2.0425   4.8575  -1.1742  -1.3860   2.6258   0.00    0.0    0.00000    0.00000    0.00000   0.00000  0.00000  0.00000  0.00000  0.00000  0.00000
2282 173700.000   2248124.7189    865687.9895   5886430.4638   5   9   2.2616   2.0408   4.8630  -1.1685  -1.3770   2.6222   0.00    0.0    0.00000    0.00000    0.00000   0.00000  0.00000  0.00000  0.00000  0.00000  0.00000
2282 173730.000   2248124.6533    865687.9389   5886430.4241   5   9   2.2575   2.0390   4.8682  -1.1627  -1.3677   2.6184   0.00    0.0    0.00000    0.00000    0.00000   0.00000  0.00000  0.00000  0.00000  0.00000  0.00000
2282 173760.000   2248124.7126    865688.2510   5886430.2620   5   9   2.2532   2.0373   4.8731  -1.1568  -1.3582   2.6143   0.00    0.0    0.00000    0.00000    0.00000   0.00000  0.00000  0.00000  0.00000  0.00000  0.00000
2282 173790.000   2248124.6885    865687.9762   5886429.8443   5   9   2.2489   2.0356   4.8778  -1.1509  -1.3485   2.6100   0.00    0.0    0.00000    0.00000    0.00000   0.00000  0.00000  0.00000  0.00000  0.00000  0.00000
2282 173820.000   2248124.7656    865687.9654   5886430.3148   5   9   2.2446   2.0339   4.8822  -1.1449  -1.3386   2.6056   0.00    0.0    0.00000    0.00000    0.00000   0.00000  0.00000  0.00000  0.00000  0.00000  0.00000
2282 173850.000   2248124.7337    865687.9961   5886430.4770   5   9   2.2401   2.0322   4.8863  -1.1389  -1.3285   2.6009   0.00    0.0    0.00000    0.00000    0.00000   0.00000  0.00000  0.00000  0.00000  0.00000  0.00000
2282 173880.000   2248124.5805    865687.8274   5886430.0656   5   9   2.2356   2.0306   4.8902  -1.1328  -1.3181   2.5959   0.00    0.0    0.00000    0.00000    0.00000   0.00000  0.00000  0.00000  0.00000  0.00000  0.00000
2282 173910.000   2248124.6429    865687.9871   5886430.0388   5   9   2.2311   2.0289   4.8938  -1.1266  -1.3076   2.5908   0.00    0.0    0.00000    0.00000    0.00000   0.00000  0.00000  0.00000  0.00000  0.00000  0.00000
2282 173940.000   2248124.6800    865688.0558   5886429.8334   5   9   2.2264   2.0273   4.8971  -1.1204  -1.2968   2.5855   0.00    0.0    0.00000    0.00000    0.00000   0.00000  0.00000  0.00000  0.00000  0.00000  0.00000
2282 173970.000   2248124.7092    865687.9929   5886430.3453   5   9   2.2217   2.0257   4.9002  -1.1142  -1.2857   2.5799   0.00    0.0    0.00000    0.00000    0.00000   0.00000  0.00000  0.00000  0.00000  0.00000  0.00000
2282 174000.000   2248124.9975    865687.7764   5886430.7060   5  10   1.7571   1.8669   4.4559  -0.4125  -0.1560   1.9649   0.00    0.0    0.00000    0.00000    0.00000   0.00000  0.00000  0.00000  0.00000  0.00000  0.00000
2282 174030.000   2248124.9591    865687.8016   5886430.3293   5  10   1.7563   1.8670   4.4667  -0.4091  -0.1331   1.9667   0.00    0.0    0.00000    0.00000    0.00000   0.00000  0.00000  0.00000  0.00000  0.00000  0.00000
2282 174060.000   2248125.0033    865687.8313   5886430.5052   5  10   1.7555   1.8672   4.4773  -0.4057  -0.1047   1.9684   0.00    0.0    0.00000    0.00000    0.00000   0.00000  0.00000  0.00000  0.00000  0.00000  0.00000
2282 174090.000   2248124.9045    865687.7411   5886430.6387   5  10   1.7547   1.8673   4.4877  -0.4022  -0.0642   1.9699   0.00    0.0    0.00000    0.00000    0.00000   0.00000  0.00000  0.00000  0.00000  0.00000  0.00000
2282 174120.000   2248124.9617    865687.6962   5886430.9439   5  10   1.7539   1.8675   4.4978  -0.3988   0.0532   1.9713   0.00    0.0    0.00000    0.00000    0.00000   0.00000  0.00000  0.00000  0.00000  0.00000  0.00000
2282 174150.000   2248124.9374    865687.6813   5886430.9855   5  10   1.7531   1.8677   4.5078  -0.3953   0.0995   1.9726   0.00    0.0    0.00000    0.00000    0.00000   0.00000  0.00000  0.00000  0.00000  0.00000  0.00000
2282 174180.000   2248125.0115    865687.6020   5886431.2049   5  10   1.7522   1.8680   4.5175  -0.3918   0.1307   1.9738   0.00    0.0    0.00000    0.00000    0.00000   0.00000  0.00000  0.00000  0.00000  0.00000  0.00000
2282 174210.000   2248124.8177    865687.4922   5886430.4387   5   9   1.8247   2.2591   4.6848   0.7070   1.2474   2.1255   0.00    0.0    0.00000    0.00000    0.00000   0.00000  0.00000  0.00000  0.00000  0.00000  0.00000
2282 174240.000   2248124.9385    865687.4964   5886430.8578   5   9   1.8250   2.2611   4.7008   0.7137   1.2658   2.1308   0.00    0.0    0.00000    0.00000    0.00000   0.00000  0.00000  0.00000  0.00000  0.00000  0.00000
2282 174270.000   2248125.0907    865687.5694   5886431.1878   5   9   1.8252   2.2633   4.7167   0.7203   1.2840   2.1359   0.00    0.0    0.00000    0.00000    0.00000   0.00000  0.00000  0.00000  0.00000  0.00000  0.00000
2282 174300.000   2248125.1071    865687.5702   5886431.3583   5   9   1.8255   2.2654   4.7325   0.7269   1.3022   2.1410   0.00    0.0    0.00000    0.00000    0.00000   0.00000  0.00000  0.00000  0.00000  0.00000  0.00000
2282 174330.000   2248125.0359    865687.5735   5886431.2765   5   9   1.8257   2.2676   4.7482   0.7335   1.3204   2.1460   0.00    0.0    0.00000    0.00000    0.00000   0.00000  0.00000  0.00000  0.00000  0.00000  0.00000
2282 174360.000   2248125.0646    865687.4466   5886431.2977   5   9   1.8259   2.2698   4.7638   0.7400   1.3384   2.1509   0.00    0.0    0.00000    0.00000    0.00000   0.00000  0.00000  0.00000  0.00000  0.00000  0.00000
2282 174390.000   2248125.1335    865687.5824   5886431.0340   5   9   1.8261   2.2721   4.7792   0.7465   1.3564   2.1558   0.00    0.0    0.00000    0.00000    0.00000   0.00000  0.00000  0.00000  0.00000  0.00000  0.00000
2282 174420.000   2248125.0786    865687.4661   5886430.9718   5   9   1.8263   2.2744   4.7945   0.7529   1.3743   2.1605   0.00    0.0    0.00000    0.00000    0.00000   0.00000  0.00000  0.00000  0.00000  0.00000  0.00000
2282 174450.000   2248125.2282    865687.3548   5886430.8946   5   9   1.8264   2.2768   4.8096   0.7593   1.3921   2.1651   0.00    0.0    0.00000    0.00000    0.00000   0.00000  0.00000  0.00000  0.00000  0.00000  0.00000
2282 174480.000   2248125.1387    865687.4190   5886431.0042   5   9   1.8265   2.2791   4.8246   0.7656   1.4098   2.1695   0.00    0.0    0.00000    0.00000    0.00000   0.00000  0.00000  0.00000  0.00000  0.00000  0.00000
2282 174510.000   2248125.2355    865687.4960   5886431.0014   5   9   1.8266   2.2816   4.8394   0.7718   1.4274   2.1739   0.00    0.0    0.00000    0.00000    0.00000   0.00000  0.00000  0.00000  0.00000  0.00000  0.00000
2282 174540.000   2248125.2524    865687.2416   5886431.4241   5   9   1.8267   2.2840   4.8540   0.7781   1.4450   2.1782   0.00    0.0    0.00000    0.00000    0.00000   0.00000  0.00000  0.00000  0.00000  0.00000  0.00000
2282 174570.000   2248125.2186    865687.3934   5886430.9196   5   9   1.8267   2.2865   4.8685   0.7842   1.4624   2.1823   0.00    0.0    0.00000    0.00000    0.00000   0.00000  0.00000  0.00000  0.00000  0.00000  0.00000
2282 174600.000   2248125.1344    865687.7198   5886430.7649   5   9   1.8267   2.2891   4.8827   0.7903   1.4798   2.1863   0.00    0.0    0.00000    0.00000    0.00000   0.00000  0.00000  0.00000  0.00000  0.00000  0.00000
2282 174630.000   2248124.9561    865687.5455   5886430.3161   5   9   1.8267   2.2916   4.8967   0.7964   1.4970   2.1901   0.00    0.0    0.00000    0.00000    0.00000   0.00000  0.00000  0.00000  0.00000  0.00000  0.00000
2282 174660.000   2248124.9558    865687.6002   5886430.3447   5   9   1.8267   2.2943   4.9106   0.8024   1.5142   2.1938   0.00    0.0    0.00000    0.00000    0.00000   0.00000  0.00000  0.00000  0.00000  0.00000  0.00000
2282 174690.000   2248125.0512    865687.5612   5886430.6622   5   9   1.8266   2.2969   4.9242   0.8083   1.5312   2.1974   0.00    0.0    0.00000    0.00000    0.00000   0.00000  0.00000  0.00000  0.00000  0.00000  0.00000
2282 174720.000   2248125.0574    865687.1973   5886430.6735   5   9   1.8265   2.2996   4.9375   0.8142   1.5482   2.2008   0.00    0.0    0.00000    0.00000    0.00000   0.00000  0.00000  0.00000  0.00000  0.00000  0.00000
2282 174750.000   2248125.0839    865687.3936   5886430.7159   5   9   1.8263   2.3023   4.9507   0.8200   1.5650   2.2041   0.00    0.0    0.00000    0.00000    0.00000   0.00000  0.00000  0.00000  0.00000  0.00000  0.00000
2282 174780.000   2248125.2536    865687.3357   5886430.9025   5   9   1.8262   2.3051   4.9635   0.8257   1.5817   2.2072   0.00    0.0    0.00000    0.00000    0.00000   0.00000  0.00000  0.00000  0.00000  0.00000  0.00000
2282 174810.000   2248125.2612    865687.5761   5886430.8277   5   9   1.8259   2.3078   4.9761   0.8314   1.5983   2.2102   0.00    0.0    0.00000    0.00000    0.00000   0.00000  0.00000  0.00000  0.00000  0.00000  0.00000
2282 174840.000   2248125.1371    865687.6704   5886430.4350   5   9   1.8257   2.3107   4.9885   0.8370   1.6148   2.2130   0.00    0.0    0.00000    0.00000    0.00000   0.00000  0.00000  0.00000  0.00000  0.00000  0.00000
2282 174870.000   2248125.1261    865687.5853   5886430.7980   5   9   1.8254   2.3135   5.0005   0.8425   1.6312   2.2156   0.00    0.0    0.00000    0.00000    0.00000   0.00000  0.00000  0.00000  0.00000  0.00000  0.00000
2282 174900.000   2248124.9434    865687.4399   5886430.6006   5   9   1.8250   2.3164   5.0123   0.8479   1.6474   2.2181   0.00    0.0    0.00000    0.00000    0.00000   0.00000  0.00000  0.00000  0.00000  0.00000  0.00000
2282 174930.000   2248125.0400    865687.6410   5886430.5805   5   9   1.8247   2.3193   5.0238   0.8533   1.6634   2.2204   0.00    0.0    0.00000    0.00000    0.00000   0.00000  0.00000  0.00000  0.00000  0.00000  0.00000
2282 174960.000   2248124.9197    865687.5651   5886430.6810   5   9   1.8243   2.3223   5.0349   0.8586   1.6794   2.2225   0.00    0.0    0.00000    0.00000    0.00000   0.00000  0.00000  0.00000  0.00000  0.00000  0.00000
2282 174990.000   2248125.0869    865687.4909   5886430.6442   5   9   1.8238   2.3252   5.0458   0.8638   1.6952   2.2244   0.00    0.0    0.00000    0.00000    0.00000   0.00000  0.00000  0.00000  0.00000  0.00000  0.00000
2282 175020.000   2248125.0571    865687.6920   5886430.5689   5   9   1.8233   2.3282   5.0563   0.8689   1.7108   2.2262   0.00    0.0    0.00000    0.00000    0.00000   0.00000  0.00000  0.00000  0.00000  0.00000  0.00000
2282 175050.000   2248125.1481    865687.6928   5886430.3891   5   9   1.8228   2.3313   5.0665   0.8740   1.7263   2.2278   0.00    0.0    0.00000    0.00000    0.00000   0.00000  0.00000  0.00000  0.00000  0.00000  0.00000
2282 175080.000   2248125.3394    865687.7110   5886431.0542   5   9   1.8222   2.3343   5.0764   0.8789   1.7416   2.2291   0.00    0.0    0.00000    0.00000    0.00000   0.00000  0.00000  0.00000  0.00000  0.00000  0.00000
2282 175110.000   2248125.0422    865687.7201   5886430.4950   5   9   1.8215   2.3374   5.0859   0.8838   1.7567   2.2303   0.00    0.0    0.00000    0.00000    0.00000   0.00000  0.00000  0.00000  0.00000  0.00000  0.00000
2282 175140.000   2248124.9855    865687.6771   5886430.4802   5   9   1.8209   2.3405   5.0950   0.8886   1.7717   2.2313   0.00    0.0    0.00000    0.00000    0.00000   0.00000  0.00000  0.00000  0.00000  0.00000  0.00000
2282 175170.000   2248125.2654    865687.4360   5886430.8805   5   9   1.8201   2.3436   5.1038   0.8932   1.7865   2.2321   0.00    0.0    0.00000    0.00000    0.00000   0.00000  0.00000  0.00000  0.00000  0.00000  0.00000
2282 175200.000   2248125.0167    865687.5500   5886430.6510   5   9   1.8194   2.3468   5.1123   0.8978   1.8011   2.2327   0.00    0.0    0.00000    0.00000    0.00000   0.00000  0.00000  0.00000  0.00000  0.00000  0.00000
2282 175230.000   2248125.3203    865687.7191   5886430.9558   5   9   1.8186   2.3499   5.1203   0.9023   1.8155   2.2330   0.00    0.0    0.00000    0.00000    0.00000   0.00000  0.00000  0.00000  0.00000  0.00000  0.00000
2282 175260.000   2248125.0332    865687.7038   5886430.6073   5   9   1.8177   2.3531   5.1280   0.9067   1.8298   2.2332   0.00    0.0    0.00000    0.00000    0.00000   0.00000  0.00000  0.00000  0.00000  0.00000  0.00000
2282 175290.000   2248125.2289    865687.6284   5886430.3886   5   9   1.8168   2.3563   5.1352   0.9109   1.8438   2.2332   0.00    0.0    0.00000    0.00000    0.00000   0.00000  0.00000  0.00000  0.00000  0.00000  0.00000
2282 175320.000   2248124.9970    865687.4916   5886430.0752   5   9   1.8159   2.3595   5.1421   0.9151   1.8576   2.2329   0.00    0.0    0.00000    0.00000    0.00000   0.00000  0.00000  0.00000  0.00000  0.00000  0.00000
2282 175350.000   2248125.0433    865687.7061   5886430.8640   5   9   1.8149   2.3627   5.1486   0.9192   1.8713   2.2324   0.00    0.0    0.00000    0.00000    0.00000   0.00000  0.00000  0.00000  0.00000  0.00000  0.00000
2282 175380.000   2248125.1005    865687.6666   5886430.6427   5   9   1.8138   2.3660   5.1546   0.9231   1.8847   2.2318   0.00    0.0    0.00000    0.00000    0.00000   0.00000  0.00000  0.00000  0.00000  0.00000  0.00000
2282 175410.000   2248124.9976    865687.6757   5886430.5587   5   9   1.8127   2.3692   5.1603   0.9269   1.8979   2.2309   0.00    0.0    0.00000    0.00000    0.00000   0.00000  0.00000  0.00000  0.00000  0.00000  0.00000
2282 175440.000   2248125.3174    865687.6930   5886430.5072   5   9   1.8116   2.3725   5.1655   0.9307   1.9109   2.2298   0.00    0.0    0.00000    0.00000    0.00000   0.00000  0.00000  0.00000  0.00000  0.00000  0.00000
2282 175470.000   2248125.3509    865687.6391   5886430.7714   5   9   1.8104   2.3757   5.1703   0.9343   1.9237   2.2284   0.00    0.0    0.00000    0.00000    0.00000   0.00000  0.00000  0.00000  0.00000  0.00000  0.00000
2282 175500.000   2248125.0245    865687.6932   5886430.2110   5   9   1.8092   2.3790   5.1747   0.9378   1.9362   2.2269   0.00    0.0    0.00000    0.00000    0.00000   0.00000  0.00000  0.00000  0.00000  0.00000  0.00000
2282 175530.000   2248125.3172    865687.5874   5886430.9266   5   9   1.8079   2.3823   5.1787   0.9411   1.9485   2.2251   0.00    0.0    0.00000    0.00000    0.00000   0.00000  0.00000  0.00000  0.00000  0.00000  0.00000
2282 175560.000   2248125.1929    865687.6295   5886430.6433   5   9   1.8066   2.3855   5.1822   0.9444   1.9606   2.2232   0.00    0.0    0.00000    0.00000    0.00000   0.00000  0.00000  0.00000  0.00000  0.00000  0.00000
2282 175590.000   2248125.1438    865687.5681   5886430.6362   5   9   1.8053   2.3888   5.1853   0.9475   1.9724   2.2209   0.00    0.0    0.00000    0.00000    0.00000   0.00000  0.00000  0.00000  0.00000  0.00000  0.00000
2282 175620.000   2248125.1315    865687.6658   5886431.2090   5   9   1.8039   2.3921   5.1880   0.9505   1.9840   2.2185   0.00    0.0    0.00000    0.00000    0.00000   0.00000  0.00000  0.00000  0.00000  0.00000  0.00000
2282 175650.000   2248125.2230    865687.5937   5886430.8732   5   9   1.8024   2.3953   5.1902   0.9534   1.9954   2.2159   0.00    0.0    0.00000    0.00000    0.00000   0.00000  0.00000  0.00000  0.00000  0.00000  0.00000
2282 175680.000   2248125.2233    865687.4311   5886430.7951   5   9   1.8010   2.3986   5.1919   0.9562   2.0065   2.2130   0.00    0.0    0.00000    0.00000    0.00000   0.00000  0.00000  0.00000  0.00000  0.00000  0.00000
2282 175710.000   2248125.1624    865687.5301   5886430.9065   5   9   1.7994   2.4018   5.1933   0.9588   2.0173   2.2099   0.00    0.0    0.00000    0.00000    0.00000   0.00000  0.00000  0.00000  0.00000  0.00000  0.00000
2282 175740.000   2248125.0877    865687.4842   5886430.5965   5   9   1.7979   2.4051   5.1942   0.9613   2.0279   2.2066   0.00    0.0    0.00000    0.00000    0.00000   0.00000  0.00000  0.00000  0.00000  0.00000  0.00000
2282 175770.000   2248125.2239    865687.6192   5886430.8609   5   9   1.7963   2.4083   5.1946   0.9637   2.0382   2.2031   0.00    0.0    0.00000    0.00000    0.00000   0.00000  0.00000  0.00000  0.00000  0.00000  0.00000
2282 175800.000   2248125.2245    865687.7125   5886430.7426   5   9   1.7947   2.4115   5.1946   0.9659   2.0483   2.1994   0.00    0.0    0.00000    0.00000    0.00000   0.00000  0.00000  0.00000  0.00000  0.00000  0.00000
2282 175830.000   2248124.9558    865687.5739   5886430.6358   5   9   1.7930   2.4147   5.1941   0.9680   2.0581   2.1954   0.00    0.0    0.00000    0.00000    0.00000   0.00000  0.00000  0.00000  0.00000  0.00000  0.00000
2282 175860.000   2248125.0467    865687.4860   5886430.5415   5   9   1.7913   2.4178   5.1932   0.9700   2.0676   2.1912   0.00    0.0    0.00000    0.00000    0.00000   0.00000  0.00000  0.00000  0.00000  0.00000  0.00000
2282 175890.000   2248124.9304    865687.5078   5886430.3001   5   9   1.7895   2.4210   5.1919   0.9718   2.0769   2.1869   0.00    0.0    0.00000    0.00000    0.00000   0.00000  0.00000  0.00000  0.00000  0.00000  0.00000
2282 175920.000   2248125.0695    865687.5968   5886430.5578   5   9   1.7878   2.4241   5.1901   0.9736   2.0859   2.1823   0.00    0.0    0.00000    0.00000    0.00000   0.00000  0.00000  0.00000  0.00000  0.00000  0.00000
2282 175950.000   2248125.1066    865687.3451   5886430.5884   5   9   1.7859   2.4272   5.1879   0.9751   2.0946   2.1775   0.00    0.0    0.00000    0.00000    0.00000   0.00000  0.00000  0.00000  0.00000  0.00000  0.00000
2282 175980.000   2248124.9303    865687.6942   5886430.6184   5   9   1.7841   2.4303   5.1852   0.9766   2.1030   2.1725   0.00    0.0    0.00000    0.00000    0.00000   0.00000  0.00000  0.00000  0.00000  0.00000  0.00000
2282 176010.000   2248125.0219    865687.7542   5886430.3685   5   9   1.7822   2.4334   5.1821   0.9779   2.1112   2.1673   0.00    0.0    0.00000    0.00000    0.00000   0.00000  0.00000  0.00000  0.00000  0.00000  0.00000
2282 176040.000   2248125.0324    865687.5410   5886430.6922   5   9   1.7803   2.4364   5.1786   0.9790   2.1191   2.1619   0.00    0.0    0.00000    0.00000    0.00000   0.00000  0.00000  0.00000  0.00000  0.00000  0.00000
2282 176070.000   2248124.8215    865687.7205   5886430.4591   5   9   1.7784   2.4394   5.1747   0.9801   2.1267   2.1563   0.00    0.0    0.00000    0.00000    0.00000   0.00000  0.00000  0.00000  0.00000  0.00000  0.00000
2282 176100.000   2248125.0339    865687.4035   5886430.4678   5   9   1.7765   2.4424   5.1703   0.9810   2.1340   2.1505   0.00    0.0    0.00000    0.00000    0.00000   0.00000  0.00000  0.00000  0.00000  0.00000  0.00000
2282 176130.000   2248125.0266    865687.4589   5886430.7723   5   9   1.7745   2.4453   5.1655   0.9817   2.1410   2.1445   0.00    0.0    0.00000    0.00000    0.00000   0.00000  0.00000  0.00000  0.00000  0.00000  0.00000
2282 176160.000   2248124.9557    865687.5455   5886430.5880   5   9   1.7725   2.4482   5.1603   0.9823   2.1478   2.1383   0.00    0.0    0.00000    0.00000    0.00000   0.00000  0.00000  0.00000  0.00000  0.00000  0.00000
2282 176190.000   2248124.9749    865687.4793   5886430.5749   5   9   1.7705   2.4511   5.1547   0.9828   2.1543   2.1319   0.00    0.0    0.00000    0.00000    0.00000   0.00000  0.00000  0.00000  0.00000  0.00000  0.00000
2282 176220.000   2248124.6615    865687.4624   5886429.9110   5   9   1.7685   2.4539   5.1487   0.9832   2.1605   2.1254   0.00    0.0    0.00000    0.00000    0.00000   0.00000  0.00000  0.00000  0.00000  0.00000  0.00000
2282 176250.000   2248124.9152    865687.7740   5886430.4623   5   9   1.7665   2.4567   5.1422   0.9834   2.1664   2.1187   0.00    0.0    0.00000    0.00000    0.00000   0.00000  0.00000  0.00000  0.00000  0.00000  0.00000
2282 176280.000   2248124.8598    865687.5957   5886430.4097   5   9   1.7644   2.4594   5.1354   0.9835   2.1720   2.1118   0.00    0.0    0.00000    0.00000    0.00000   0.00000  0.00000  0.00000  0.00000  0.00000  0.00000
2282 176310.000   2248124.8564    865687.6259   5886430.1596   5   9   1.7624   2.4621   5.1282   0.9834   2.1774   2.1047   0.00    0.0    0.00000    0.00000    0.00000   0.00000  0.00000  0.00000  0.00000  0.00000  0.00000
2282 176340.000   2248124.7356    865687.7895   5886430.3319   5   9   1.7603   2.4648   5.1207   0.9832   2.1825   2.0975   0.00    0.0    0.00000    0.00000    0.00000   0.00000  0.00000  0.00000  0.00000  0.00000  0.00000
2282 176370.000   2248124.7855    865687.8783   5886430.3004   5   9   1.7582   2.4674   5.1127   0.9829   2.1873   2.0901   0.00    0.0    0.00000    0.00000    0.00000   0.00000  0.00000  0.00000  0.00000  0.00000  0.00000
2282 176400.000   2248124.7718    865687.7333   5886430.4993   5   9   1.7561   2.4700   5.1044   0.9825   2.1918   2.0825   0.00    0.0    0.00000    0.00000    0.00000   0.00000  0.00000  0.00000  0.00000  0.00000  0.00000
2282 176430.000   2248124.6938    865687.6730   5886430.3419   5   9   1.7540   2.4725   5.0957   0.9819   2.1960   2.0748   0.00    0.0    0.00000    0.00000    0.00000   0.00000  0.00000  0.00000  0.00000  0.00000  0.00000
2282 176460.000   2248124.5887    865687.8617   5886430.1333   5   9   1.7519   2.4750   5.0867   0.9811   2.2000   2.0670   0.00    0.0    0.00000    0.00000    0.00000   0.00000  0.00000  0.00000  0.00000  0.00000  0.00000
2282 176490.000   2248124.6389    865687.7092   5886430.0032   5   9   1.7499   2.4774   5.0774   0.9803   2.2037   2.0590   0.00    0.0    0.00000    0.00000    0.00000   0.00000  0.00000  0.00000  0.00000  0.00000  0.00000
2282 176520.000   2248124.5239    865687.8602   5886430.3850   5   9   1.7478   2.4798   5.0677   0.9793   2.2071   2.0509   0.00    0.0    0.00000    0.00000    0.00000   0.00000  0.00000  0.00000  0.00000  0.00000  0.00000
2282 176550.000   2248124.6763    865687.8361   5886430.2308   5   9   1.7457   2.4821   5.0576   0.9782   2.2103   2.0426   0.00    0.0    0.00000    0.00000    0.00000   0.00000  0.00000  0.00000  0.00000  0.00000  0.00000
2282 176580.000   2248124.6435    865688.0062   5886430.3091   5   9   1.7436   2.4844   5.0473   0.9770   2.2132   2.0343   0.00    0.0    0.00000    0.00000    0.00000   0.00000  0.00000  0.00000  0.00000  0.00000  0.00000
2282 176610.000   2248124.7524    865687.7384   5886430.2053   5   9   1.7415   2.4866   5.0367   0.9756   2.2158   2.0258   0.00    0.0    0.00000    0.00000    0.00000   0.00000  0.00000  0.00000  0.00000  0.00000  0.00000
2282 176640.000   2248124.6737    865687.7517   5886430.2020   5   9   1.7395   2.4887   5.0257   0.9741   2.2181   2.0171   0.00    0.0    0.00000    0.00000    0.00000   0.00000  0.00000  0.00000  0.00000  0.00000  0.00000
2282 176670.000   2248124.7449    865687.7095   5886430.1404   5   9   1.7374   2.4909   5.0145   0.9725   2.2202   2.0084   0.00    0.0    0.00000    0.00000    0.00000   0.00000  0.00000  0.00000  0.00000  0.00000  0.00000
2282 176700.000   2248124.7067    865688.0187   5886429.9342   5   9   1.7354   2.4929   5.0030   0.9707   2.2220   1.9996   0.00    0.0    0.00000    0.00000    0.00000   0.00000  0.00000  0.00000  0.00000  0.00000  0.00000
2282 176730.000   2248124.7596    865688.1209   5886430.2971   5   9   1.7334   2.4949   4.9912   0.9689   2.2236   1.9906   0.00    0.0    0.00000    0.00000    0.00000   0.00000  0.00000  0.00000  0.00000  0.00000  0.00000
2282 176760.000   2248124.6823    865688.0166   5886430.0150   5   9   1.7314   2.4969   4.9792   0.9669   2.2249   1.9816   0.00    0.0    0.00000    0.00000    0.00000   0.00000  0.00000  0.00000  0.00000  0.00000  0.00000
2282 176790.000   2248124.9484    865687.8073   5886431.1942   5   8   2.0645   2.5813   5.2539   0.4483   1.9613   2.4129   0.00    0.0    0.00000    0.00000    0.00000   0.00000  0.00000  0.00000  0.00000  0.00000  0.00000
2282 176820.000   2248125.0620    865687.7771   5886430.7161   5   8   2.0632   2.5825   5.2438   0.4460   1.9624   2.4068   0.00    0.0    0.00000    0.00000    0.00000   0.00000  0.00000  0.00000  0.00000  0.00000  0.00000
2282 176850.000   2248124.9970    865687.9832   5886431.0556   5   8   2.0618   2.5836   5.2333   0.4436   1.9633   2.4005   0.00    0.0    0.00000    0.00000    0.00000   0.00000  0.00000  0.00000  0.00000  0.00000  0.00000
2282 176880.000   2248124.8658    865687.8645   5886430.5378   5   8   2.0604   2.5848   5.2225   0.4409   1.9639   2.3940   0.00    0.0    0.00000    0.00000    0.00000   0.00000  0.00000  0.00000  0.00000  0.00000  0.00000
2282 176910.000   2248124.9725    865687.8018   5886430.5566   5   8   2.0589   2.5858   5.2114   0.4379   1.9643   2.3874   0.00    0.0    0.00000    0.00000    0.00000   0.00000  0.00000  0.00000  0.00000  0.00000  0.00000
2282 176940.000   2248125.0448    865687.7246   5886430.6010   5   8   2.0574   2.5869   5.1999   0.4348   1.9646   2.3806   0.00    0.0    0.00000    0.00000    0.00000   0.00000  0.00000  0.00000  0.00000  0.00000  0.00000
2282 176970.000   2248125.0157    865687.7178   5886430.6004   5   8   2.0559   2.5879   5.1882   0.4314   1.9646   2.3736   0.00    0.0    0.00000    0.00000    0.00000   0.00000  0.00000  0.00000  0.00000  0.00000  0.00000
2282 177000.000   2248125.0968    865687.8270   5886430.4842   5   8   2.0543   2.5889   5.1762   0.4278   1.9643   2.3665   0.00    0.0    0.00000    0.00000    0.00000   0.00000  0.00000  0.00000  0.00000  0.00000  0.00000
2282 177030.000   2248124.9174    865687.7690   5886430.3614   5   8   2.0527   2.5898   5.1638   0.4239   1.9639   2.3592   0.00    0.0    0.00000    0.00000    0.00000   0.00000  0.00000  0.00000  0.00000  0.00000  0.00000
2282 177060.000   2248125.0325    865687.7102   5886430.4772   5   8   2.0510   2.5907   5.1512   0.4198   1.9633   2.3517   0.00    0.0    0.00000    0.00000    0.00000   0.00000  0.00000  0.00000  0.00000  0.00000  0.00000
2282 177090.000   2248124.8856    865687.6761   5886430.7440   5   8   2.0493   2.5916   5.1384   0.4154   1.9624   2.3441   0.00    0.0    0.00000    0.00000    0.00000   0.00000  0.00000  0.00000  0.00000  0.00000  0.00000
2282 177120.000   2248124.6886    865687.1925   5886428.8780   5   9   2.0413   2.3653   4.1286  -0.0371   0.7903   2.2297   0.00    0.0    0.00000    0.00000    0.00000   0.00000  0.00000  0.00000  0.00000  0.00000  0.00000
2282 177150.000   2248124.7790    865687.3059   5886428.9477   5   9   2.0402   2.3654   4.1275   0.0510   0.7982   2.2275   0.00    0.0    0.00000    0.00000    0.00000   0.00000  0.00000  0.00000  0.00000  0.00000  0.00000
2282 177180.000   2248124.7118    865687.2397   5886428.9110   5   9   2.0390   2.3655   4.1262   0.0808   0.8060   2.2251   0.00    0.0    0.00000    0.00000    0.00000   0.00000  0.00000  0.00000  0.00000  0.00000  0.00000
2282 177210.000   2248124.7256    865687.2989   5886429.0894   5   9   2.0377   2.3657   4.1249   0.1021   0.8137   2.2226   0.00    0.0    0.00000    0.00000    0.00000   0.00000  0.00000  0.00000  0.00000  0.00000  0.00000
2282 177240.000   2248124.4876    865687.1359   5886428.6125   5   9   2.0364   2.3658   4.1234   0.1195   0.8214   2.2199   0.00    0.0    0.00000    0.00000    0.00000   0.00000  0.00000  0.00000  0.00000  0.00000  0.00000
2282 177270.000   2248124.6370    865687.2536   5886428.4953   5   9   2.0351   2.3660   4.1218   0.1345   0.8289   2.2172   0.00    0.0    0.00000    0.00000    0.00000   0.00000  0.00000  0.00000  0.00000  0.00000  0.00000
2282 177300.000   2248124.5100    865687.2854   5886428.6470   5   9   2.0337   2.3662   4.1201   0.1479   0.8364   2.2143   0.00    0.0    0.00000    0.00000    0.00000   0.00000  0.00000  0.00000  0.00000  0.00000  0.00000
2282 177330.000   2248124.5445    865687.2272   5886428.6828   5   9   2.0323   2.3663   4.1183   0.1599   0.8437   2.2113   0.00    0.0    0.00000    0.00000    0.00000   0.00000  0.00000  0.00000  0.00000  0.00000  0.00000
2282 177360.000   2248124.6735    865687.4471   5886428.4128   5   9   2.0308   2.3665   4.1164   0.1710   0.8509   2.2082   0.00    0.0    0.00000    0.00000    0.00000   0.00000  0.00000  0.00000  0.00000  0.00000  0.00000
2282 177390.000   2248124.6560    865687.4350   5886428.6172   5   9   2.0292   2.3667   4.1143   0.1813   0.8580   2.2049   0.00    0.0    0.00000    0.00000    0.00000   0.00000  0.00000  0.00000  0.00000  0.00000  0.00000
2282 177420.000   2248124.5624    865687.4028   5886428.4326   5   9   2.0277   2.3669   4.1122   0.1908   0.8650   2.2016   0.00    0.0    0.00000    0.00000    0.00000   0.00000  0.00000  0.00000  0.00000  0.00000  0.00000
2282 177450.000   2248124.4407    865687.2815   5886428.5275   5   9   2.0261   2.3671   4.1099   0.1998   0.8718   2.1981   0.00    0.0    0.00000    0.00000    0.00000   0.00000  0.00000  0.00000  0.00000  0.00000  0.00000
2282 177480.000   2248124.6274    865687.3267   5886428.4243   5   9   2.0244   2.3674   4.1075   0.2082   0.8786   2.1945   0.00    0.0    0.00000    0.00000    0.00000   0.00000  0.00000  0.00000  0.00000  0.00000  0.00000
2282 177510.000   2248124.5556    865687.3591   5886428.3725   5   9   2.0227   2.3676   4.1049   0.2161   0.8852   2.1908   0.00    0.0    0.00000    0.00000    0.00000   0.00000  0.00000  0.00000  0.00000  0.00000  0.00000
2282 177540.000   2248124.4461    865687.3885   5886428.3050   5   9   2.0210   2.3678   4.1023   0.2237   0.8916   2.1869   0.00    0.0    0.00000    0.00000    0.00000   0.00000  0.00000  0.00000  0.00000  0.00000  0.00000
2282 177570.000   2248124.7776    865687.2763   5886428.6870   5   9   2.0192   2.3681   4.0996   0.2308   0.8979   2.1830   0.00    0.0    0.00000    0.00000    0.00000   0.00000  0.00000  0.00000  0.00000  0.00000  0.00000
2282 177600.000   2248124.5811    865687.4163   5886428.6818   5   9   2.0174   2.3683   4.0967   0.2376   0.9041   2.1789   0.00    0.0    0.00000    0.00000    0.00000   0.00000  0.00000  0.00000  0.00000  0.00000  0.00000
2282 177630.000   2248124.4918    865687.4205   5886428.2885   5   9   2.0155   2.3686   4.0938   0.2441   0.9102   2.1748   0.00    0.0    0.00000    0.00000    0.00000   0.00000  0.00000  0.00000  0.00000  0.00000  0.00000
2282 177660.000   2248124.5403    865687.3263   5886428.6263   5   9   2.0137   2.3688   4.0907   0.2502   0.9161   2.1705   0.00    0.0    0.00000    0.00000    0.00000   0.00000  0.00000  0.00000  0.00000  0.00000  0.00000
2282 177690.000   2248124.4644    865687.3233   5886428.5517   5   9   2.0117   2.3691   4.0875   0.2561   0.9218   2.1661   0.00    0.0    0.00000    0.00000    0.00000   0.00000  0.00000  0.00000  0.00000  0.00000  0.00000
2282 177720.000   2248124.7114    865687.3039   5886428.5491   5   9   2.0098   2.3694   4.0843   0.2617   0.9274   2.1616   0.00    0.0    0.00000    0.00000    0.00000   0.00000  0.00000  0.00000  0.00000  0.00000  0.00000
2282 177750.000   2248124.4859    865687.3492   5886428.3176   5   9   2.0078   2.3696   4.0809   0.2670   0.9328   2.1570   0.00    0.0    0.00000    0.00000    0.00000   0.00000  0.00000  0.00000  0.00000  0.00000  0.00000
2282 177780.000   2248124.4271    865687.1845   5886428.2299   5   9   2.0058   2.3699   4.0774   0.2721   0.9381   2.1524   0.00    0.0    0.00000    0.00000    0.00000   0.00000  0.00000  0.00000  0.00000  0.00000  0.00000
2282 177810.000   2248124.4837    865687.4067   5886428.3970   5   9   2.0038   2.3702   4.0739   0.2770   0.9432   2.1476   0.00    0.0    0.00000    0.00000    0.00000   0.00000  0.00000  0.00000  0.00000  0.00000  0.00000
2282 177840.000   2248124.5932    865687.3046   5886428.6165   5   9   2.0017   2.3705   4.0703   0.2816   0.9482   2.1427   0.00    0.0    0.00000    0.00000    0.00000   0.00000  0.00000  0.00000  0.00000  0.00000  0.00000
2282 177870.000   2248124.7165    865687.3704   5886428.7977   5   9   1.9996   2.3708   4.0666   0.2860   0.9530   2.1377   0.00    0.0    0.00000    0.00000    0.00000   0.00000  0.00000  0.00000  0.00000  0.00000  0.00000
2282 177900.000   2248124.5251    865687.4491   5886428.6284   5   9   1.9975   2.3712   4.0628   0.2903   0.9576   2.1326   0.00    0.0    0.00000    0.00000    0.00000   0.00000  0.00000  0.00000  0.00000  0.00000  0.00000
2282 177930.000   2248124.6001    865687.5062   5886428.5245   5   9   1.9953   2.3715   4.0589   0.2943   0.9621   2.1275   0.00    0.0    0.00000    0.00000    0.00000   0.00000  0.00000  0.00000  0.00000  0.00000  0.00000
2282 177960.000   2248124.8609    865687.5583   5886429.0627   5   9   1.9931   2.3718   4.0550   0.2982   0.9664   2.1222   0.00    0.0    0.00000    0.00000    0.00000   0.00000  0.00000  0.00000  0.00000  0.00000  0.00000
2282 177990.000   2248124.6656    865687.3488   5886428.6760   5   9   1.9910   2.3721   4.0510   0.3018   0.9705   2.1169   0.00    0.0    0.00000    0.00000    0.00000   0.00000  0.00000  0.00000  0.00000  0.00000  0.00000
2282 178020.000   2248124.3593    865687.6417   5886428.2299   5   9   1.9887   2.3725   4.0470   0.3053   0.9744   2.1115   0.00    0.0    0.00000    0.00000    0.00000   0.00000  0.00000  0.00000  0.00000  0.00000  0.00000
2282 178050.000   2248124.6982    865687.5946   5886428.2896   5   9   1.9865   2.3728   4.0429   0.3086   0.9782   2.1060   0.00    0.0    0.00000    0.00000    0.00000   0.00000  0.00000  0.00000  0.00000  0.00000  0.00000
2282 178080.000   2248124.3352    865687.5875   5886428.0712   5   9   1.9843   2.3732   4.0388   0.3118   0.9818   2.1004   0.00    0.0    0.00000    0.00000    0.00000   0.00000  0.00000  0.00000  0.00000  0.00000  0.00000
2282 178110.000   2248124.2949    865688.4170   5886425.7208   5   8   2.0638   2.7575   5.9845  -0.8416  -2.2877   2.6326   0.00    0.0    0.00000    0.00000    0.00000   0.00000  0.00000  0.00000  0.00000  0.00000  0.00000
2282 178140.000   2248124.1991    865688.3969   5886425.0780   5   8   2.0623   2.7570   6.0037  -0.8422  -2.2937   2.6336   0.00    0.0    0.00000    0.00000    0.00000   0.00000  0.00000  0.00000  0.00000  0.00000  0.00000
2282 178170.000   2248124.4258    865688.4533   5886425.9317   5   8   2.0608   2.7563   6.0226  -0.8426  -2.2994   2.6344   0.00    0.0    0.00000    0.00000    0.00000   0.00000  0.00000  0.00000  0.00000  0.00000  0.00000
2282 178200.000   2248124.1989    865688.2865   5886425.2982   5   8   2.0593   2.7556   6.0411  -0.8428  -2.3049   2.6349   0.00    0.0    0.00000    0.00000    0.00000   0.00000  0.00000  0.00000  0.00000  0.00000  0.00000
2282 178230.000   2248124.1703    865688.2087   5886425.4940   5   8   2.0576   2.7549   6.0592  -0.8429  -2.3102   2.6352   0.00    0.0    0.00000    0.00000    0.00000   0.00000  0.00000  0.00000  0.00000  0.00000  0.00000
2282 178260.000   2248124.2244    865688.4121   5886425.9008   5   8   2.0559   2.7541   6.0770  -0.8428  -2.3152   2.6352   0.00    0.0    0.00000    0.00000    0.00000   0.00000  0.00000  0.00000  0.00000  0.00000  0.00000
2282 178290.000   2248124.4381    865688.1846   5886426.0155   5   8   2.0542   2.7533   6.0944  -0.8426  -2.3200   2.6349   0.00    0.0    0.00000    0.00000    0.00000   0.00000  0.00000  0.00000  0.00000  0.00000  0.00000
2282 178320.000   2248124.3133    865688.2822   5886426.3398   5   8   2.0524   2.7524   6.1114  -0.8421  -2.3245   2.6344   0.00    0.0    0.00000    0.00000    0.00000   0.00000  0.00000  0.00000  0.00000  0.00000  0.00000
2282 178350.000   2248124.1794    865688.1898   5886425.6941   5   8   2.0505   2.7515   6.1280  -0.8415  -2.3287   2.6336   0.00    0.0    0.00000    0.00000    0.00000   0.00000  0.00000  0.00000  0.00000  0.00000  0.00000
2282 178380.000   2248124.2858    865688.1742   5886425.5684   5   8   2.0485   2.7505   6.1441  -0.8407  -2.3326   2.6325   0.00    0.0    0.00000    0.00000    0.00000   0.00000  0.00000  0.00000  0.00000  0.00000  0.00000
2282 178410.000   2248124.0581    865687.9881   5886425.4681   5   8   2.0465   2.7494   6.1598  -0.8397  -2.3363   2.6312   0.00    0.0    0.00000    0.00000    0.00000   0.00000  0.00000  0.00000  0.00000  0.00000  0.00000
2282 178440.000   2248124.1949    865688.2909   5886425.6936   5   8   2.0444   2.7483   6.1750  -0.8385  -2.3397   2.6295   0.00    0.0    0.00000    0.00000    0.00000   0.00000  0.00000  0.00000  0.00000  0.00000  0.00000
2282 178470.000   2248124.1626    865688.2790   5886425.1807   5   8   2.0423   2.7472   6.1898  -0.8372  -2.3428   2.6276   0.00    0.0    0.00000    0.00000    0.00000   0.00000  0.00000  0.00000  0.00000  0.00000  0.00000
2282 178500.000   2248124.0749    865688.1953   5886424.9279   5   8   2.0401   2.7460   6.2040  -0.8356  -2.3456   2.6254   0.00    0.0    0.00000    0.00000    0.00000   0.00000  0.00000  0.00000  0.00000  0.00000  0.00000
2282 178530.000   2248123.9345    865688.1010   5886424.8054   5   8   2.0378   2.7448   6.2178  -0.8339  -2.3481   2.6229   0.00    0.0    0.00000    0.00000    0.00000   0.00000  0.00000  0.00000  0.00000  0.00000  0.00000
2282 178560.000   2248123.8061    865688.0012   5886425.1317   5   8   2.0355   2.7435   6.2310  -0.8320  -2.3503   2.6201   0.00    0.0    0.00000    0.00000    0.00000   0.00000  0.00000  0.00000  0.00000  0.00000  0.00000
2282 178590.000   2248123.9356    865688.1605   5886425.2584   5   8   2.0331   2.7421   6.2437  -0.8299  -2.3523   2.6170   0.00    0.0    0.00000    0.00000    0.00000   0.00000  0.00000  0.00000  0.00000  0.00000  0.00000
2282 178620.000   2248124.1798    865688.1592   5886424.9224   5   8   2.0306   2.7407   6.2559  -0.8276  -2.3539   2.6136   0.00    0.0    0.00000    0.00000    0.00000   0.00000  0.00000  0.00000  0.00000  0.00000  0.00000
2282 178650.000   2248123.9499    865688.0282   5886424.6323   5   8   2.0282   2.7393   6.2675  -0.8251  -2.3551   2.6099   0.00    0.0    0.00000    0.00000    0.00000   0.00000  0.00000  0.00000  0.00000  0.00000  0.00000
2282 178680.000   2248123.9949    865688.1896   5886424.6186   5   8   2.0256   2.7378   6.2786  -0.8224  -2.3561   2.6059   0.00    0.0    0.00000    0.00000    0.00000   0.00000  0.00000  0.00000  0.00000  0.00000  0.00000
2282 178710.000   2248123.9026    865687.8804   5886425.0136   5   9   1.9037   2.4957   6.2350  -1.1999  -2.5451   2.4910   0.00    0.0    0.00000    0.00000    0.00000   0.00000  0.00000  0.00000  0.00000  0.00000  0.00000
2282 178740.000   2248123.9204    865688.0275   5886425.5834   5   9   1.9026   2.4923   6.2480  -1.1965  -2.5409   2.4901   0.00    0.0    0.00000    0.00000    0.00000   0.00000  0.00000  0.00000  0.00000  0.00000  0.00000
2282 178770.000   2248123.8517    865688.0102   5886424.5088   5   9   1.9015   2.4888   6.2603  -1.1930  -2.5364   2.4889   0.00    0.0    0.00000    0.00000    0.00000   0.00000  0.00000  0.00000  0.00000  0.00000  0.00000
2282 178800.000   2248123.8331    865688.0744   5886425.3245   5   9   1.9003   2.4852   6.2720  -1.1894  -2.5314   2.4874   0.00    0.0    0.00000    0.00000    0.00000   0.00000  0.00000  0.00000  0.00000  0.00000  0.00000
2282 178830.000   2248123.9055    865688.1632   5886425.1046   5   9   1.8991   2.4816   6.2830  -1.1856  -2.5259   2.4856   0.00    0.0    0.00000    0.00000    0.00000   0.00000  0.00000  0.00000  0.00000  0.00000  0.00000
2282 178860.000   2248123.9386    865688.1564   5886425.2572   5   9   1.8978   2.4780   6.2933  -1.1816  -2.5201   2.4834   0.00    0.0    0.00000    0.00000    0.00000   0.00000  0.00000  0.00000  0.00000  0.00000  0.00000
2282 178890.000   2248123.7475    865688.0618   5886424.7904   5   9   1.8964   2.4743   6.3029  -1.1774  -2.5138   2.4810   0.00    0.0    0.00000    0.00000    0.00000   0.00000  0.00000  0.00000  0.00000  0.00000  0.00000
2282 178920.000   2248123.9645    865688.0873   5886425.2094   5   9   1.8951   2.4705   6.3117  -1.1732  -2.5071   2.4782   0.00    0.0    0.00000    0.00000    0.00000   0.00000  0.00000  0.00000  0.00000  0.00000  0.00000
2282 178950.000   2248123.8540    865688.0165   5886424.7147   5   9   1.8936   2.4667   6.3199  -1.1687  -2.4999   2.4752   0.00    0.0    0.00000    0.00000    0.00000   0.00000  0.00000  0.00000  0.00000  0.00000  0.00000
2282 178980.000   2248124.2686    865688.2164   5886425.2255   5   8   2.0873   2.5904   6.4137  -0.8047  -2.3173   2.6521   0.00    0.0    0.00000    0.00000    0.00000   0.00000  0.00000  0.00000  0.00000  0.00000  0.00000
2282 179010.000   2248124.1860    865688.2002   5886425.1449   5   8   2.0879   2.5861   6.4265  -0.7965  -2.3026   2.6558   0.00    0.0    0.00000    0.00000    0.00000   0.00000  0.00000  0.00000  0.00000  0.00000  0.00000
2282 179040.000   2248124.1694    865688.0110   5886425.2546   5   8   2.0884   2.5818   6.4389  -0.7879  -2.2873   2.6593   0.00    0.0    0.00000    0.00000    0.00000   0.00000  0.00000  0.00000  0.00000  0.00000  0.00000
2282 179070.000   2248124.1406    865688.1585   5886425.1445   5   8   2.0889   2.5775   6.4508  -0.7791  -2.2714   2.6626   0.00    0.0    0.00000    0.00000    0.00000   0.00000  0.00000  0.00000  0.00000  0.00000  0.00000
2282 179100.000   2248124.2000    865688.1414   5886425.1312   5   8   2.0894   2.5731   6.4621  -0.7699  -2.2550   2.6657   0.00    0.0    0.00000    0.00000    0.00000   0.00000  0.00000  0.00000  0.00000  0.00000  0.00000
2282 179130.000   2248124.1297    865688.1030   5886425.0354   5   8   2.0899   2.5688   6.4729  -0.7603  -2.2381   2.6685   0.00    0.0    0.00000    0.00000    0.00000   0.00000  0.00000  0.00000  0.00000  0.00000  0.00000
2282 179160.000   2248123.9550    865688.0514   5886425.1903   5   8   2.0902   2.5645   6.4831  -0.7504  -2.2206   2.6712   0.00    0.0    0.00000    0.00000    0.00000   0.00000  0.00000  0.00000  0.00000  0.00000  0.00000
2282 179190.000   2248124.0235    865688.0360   5886424.9647   5   8   2.0906   2.5602   6.4928  -0.7402  -2.2025   2.6735   0.00    0.0    0.00000    0.00000    0.00000   0.00000  0.00000  0.00000  0.00000  0.00000  0.00000
2282 179220.000   2248124.0606    865687.9412   5886425.3659   5   8   2.0909   2.5559   6.5019  -0.7296  -2.1838   2.6757   0.00    0.0    0.00000    0.00000    0.00000   0.00000  0.00000  0.00000  0.00000  0.00000  0.00000
2282 179250.000   2248123.9456    865687.8639   5886425.3332   5   8   2.0912   2.5517   6.5105  -0.7187  -2.1646   2.6776   0.00    0.0    0.00000    0.00000    0.00000   0.00000  0.00000  0.00000  0.00000  0.00000  0.00000
2282 179280.000   2248124.1919    865687.8979   5886425.2256   5   8   2.0914   2.5474   6.5185  -0.7073  -2.1448   2.6793   0.00    0.0    0.00000    0.00000    0.00000   0.00000  0.00000  0.00000  0.00000  0.00000  0.00000
2282 179310.000   2248124.2398    865687.9902   5886425.0014   5   8   2.0916   2.5432   6.5259  -0.6956  -2.1244   2.6807   0.00    0.0    0.00000    0.00000    0.00000   0.00000  0.00000  0.00000  0.00000  0.00000  0.00000
2282 179340.000   2248124.0234    865688.0000   5886425.3934   5   8   2.0918   2.5390   6.5327  -0.6835  -2.1034   2.6819   0.00    0.0    0.00000    0.00000    0.00000   0.00000  0.00000  0.00000  0.00000  0.00000  0.00000
2282 179370.000   2248124.3400    865687.9237   5886425.1834   5   8   2.0919   2.5348   6.5389  -0.6710  -2.0819   2.6828   0.00    0.0    0.00000    0.00000    0.00000   0.00000  0.00000  0.00000  0.00000  0.00000  0.00000
2282 179400.000   2248124.1572    865688.1795   5886425.5045   5   8   2.0919   2.5307   6.5446  -0.6580  -2.0597   2.6835   0.00    0.0    0.00000    0.00000    0.00000   0.00000  0.00000  0.00000  0.00000  0.00000  0.00000
2282 179430.000   2248124.2731    865688.0479   5886425.6328   5   8   2.0919   2.5266   6.5496  -0.6446  -2.0370   2.6839   0.00    0.0    0.00000    0.00000    0.00000   0.00000  0.00000  0.00000  0.00000  0.00000  0.00000
2282 179460.000   2248124.2380    865688.1436   5886425.3195   5   8   2.0919   2.5225   6.5540  -0.6307  -2.0137   2.6841   0.00    0.0    0.00000    0.00000    0.00000   0.00000  0.00000  0.00000  0.00000  0.00000  0.00000
2282 179490.000   2248124.0749    865688.0383   5886425.4309   5   8   2.0918   2.5185   6.5579  -0.6164  -1.9897   2.6840   0.00    0.0    0.00000    0.00000    0.00000   0.00000  0.00000  0.00000  0.00000  0.00000  0.00000
2282 179520.000   2248124.2663    865688.2180   5886425.0431   5   8   2.0917   2.5146   6.5611  -0.6016  -1.9652   2.6837   0.00    0.0    0.00000    0.00000    0.00000   0.00000  0.00000  0.00000  0.00000  0.00000  0.00000
2282 179550.000   2248124.1340    865688.3350   5886425.4192   5   8   2.0916   2.5107   6.5637  -0.5862  -1.9400   2.6832   0.00    0.0    0.00000    0.00000    0.00000   0.00000  0.00000  0.00000  0.00000  0.00000  0.00000
2282 179580.000   2248124.2277    865688.0942   5886425.5017   5   8   2.0914   2.5068   6.5657  -0.5703  -1.9142   2.6823   0.00    0.0    0.00000    0.00000    0.00000   0.00000  0.00000  0.00000  0.00000  0.00000  0.00000
2282 179610.000   2248124.1849    865688.0693   5886425.3603   5   8   2.0911   2.5030   6.5671  -0.5537  -1.8878   2.6813   0.00    0.0    0.00000    0.00000    0.00000   0.00000  0.00000  0.00000  0.00000  0.00000  0.00000
2282 179640.000   2248124.1730    865688.1027   5886425.8680   5   8   2.0908   2.4993   6.5679  -0.5366  -1.8608   2.6800   0.00    0.0    0.00000    0.00000    0.00000   0.00000  0.00000  0.00000  0.00000  0.00000  0.00000
2282 179670.000   2248124.1830    865688.0111   5886425.5052   5   8   2.0905   2.4956   6.5681  -0.5187  -1.8331   2.6784   0.00    0.0    0.00000    0.00000    0.00000   0.00000  0.00000  0.00000  0.00000  0.00000  0.00000
2282 179700.000   2248124.2821    865688.1841   5886425.3403   5   8   2.0901   2.4921   6.5677  -0.5001  -1.8048   2.6766   0.00    0.0    0.00000    0.00000    0.00000   0.00000  0.00000  0.00000  0.00000  0.00000  0.00000
2282 179730.000   2248124.2522    865688.1791   5886425.4891   5   8   2.0897   2.4885   6.5667  -0.4806  -1.7758   2.6745   0.00    0.0    0.00000    0.00000    0.00000   0.00000  0.00000  0.00000  0.00000  0.00000  0.00000
2282 179760.000   2248124.3535    865688.2575   5886425.8243   5   8   2.0892   2.4851   6.5650  -0.4603  -1.7462   2.6722   0.00    0.0    0.00000    0.00000    0.00000   0.00000  0.00000  0.00000  0.00000  0.00000  0.00000
2282 179790.000   2248124.2922    865688.1719   5886425.6844   5   8   2.0887   2.4817   6.5628  -0.4389  -1.7158   2.6696   0.00    0.0    0.00000    0.00000    0.00000   0.00000  0.00000  0.00000  0.00000  0.00000  0.00000
2282 179820.000   2248124.2814    865688.2362   5886425.5861   5   8   2.0881   2.4785   6.5599  -0.4164  -1.6848   2.6668   0.00    0.0    0.00000    0.00000    0.00000   0.00000  0.00000  0.00000  0.00000  0.00000  0.00000
2282 179850.000   2248124.2554    865688.2406   5886425.4998   5   8   2.0875   2.4753   6.5564  -0.3925  -1.6530   2.6637   0.00    0.0    0.00000    0.00000    0.00000   0.00000  0.00000  0.00000  0.00000  0.00000  0.00000
2282 179880.000   2248124.1553    865688.0560   5886425.1702   5   8   2.0869   2.4721   6.5524  -0.3670  -1.6206   2.6604   0.00    0.0    0.00000    0.00000    0.00000   0.00000  0.00000  0.00000  0.00000  0.00000  0.00000
2282 179910.000   2248124.0349    865688.0055   5886425.4607   5   8   2.0862   2.4691   6.5477  -0.3397  -1.5873   2.6568   0.00    0.0    0.00000    0.00000    0.00000   0.00000  0.00000  0.00000  0.00000  0.00000  0.00000
2282 179940.000   2248124.1347    865687.8028   5886425.2049   5   8   2.0854   2.4662   6.5425  -0.3098  -1.5533   2.6531   0.00    0.0    0.00000    0.00000    0.00000   0.00000  0.00000  0.00000  0.00000  0.00000  0.00000
2282 179970.000   2248124.1662    865688.0596   5886425.3784   5   8   2.0847   2.4633   6.5367  -0.2768  -1.5185   2.6490   0.00    0.0    0.00000    0.00000    0.00000   0.00000  0.00000  0.00000  0.00000  0.00000  0.00000
2282 180000.000   2248124.1666    865687.9173   5886425.2226   5   8   2.0839   2.4605   6.5303  -0.2394  -1.4829   2.6448   0.00    0.0    0.00000    0.00000    0.00000   0.00000  0.00000  0.00000  0.00000  0.00000  0.00000
2282 180030.000   2248123.9418    865687.9119   5886425.2503   5   8   2.0830   2.4579   6.5233  -0.1950  -1.4464   2.6403   0.00    0.0    0.00000    0.00000    0.00000   0.00000  0.00000  0.00000  0.00000  0.00000  0.00000
2282 180060.000   2248124.0317    865687.9530   5886425.3067   5   8   2.0821   2.4553   6.5158  -0.1370  -1.4089   2.6355   0.00    0.0    0.00000    0.00000    0.00000   0.00000  0.00000  0.00000  0.00000  0.00000  0.00000
2282 180090.000   2248124.0619    865687.9967   5886425.0244   5   8   2.0812   2.4528   6.5077   0.0202  -1.3706   2.6306   0.00    0.0    0.00000    0.00000    0.00000   0.00000  0.00000  0.00000  0.00000  0.00000  0.00000
2282 180120.000   2248123.9982    865687.8397   5886425.4372   5   8   2.0803   2.4504   6.4990   0.1397  -1.3312   2.6254   0.00    0.0    0.00000    0.00000    0.00000   0.00000  0.00000  0.00000  0.00000  0.00000  0.00000
2282 180150.000   2248124.0403    865687.9459   5886425.2182   5   8   2.0793   2.4481   6.4898   0.1963  -1.2907   2.6200   0.00    0.0    0.00000    0.00000    0.00000   0.00000  0.00000  0.00000  0.00000  0.00000  0.00000
2282 180180.000   2248124.0561    865687.7564   5886425.3897   5   8   2.0782   2.4459   6.4800   0.2397  -1.2491   2.6144   0.00    0.0    0.00000    0.00000    0.00000   0.00000  0.00000  0.00000  0.00000  0.00000  0.00000
2282 180210.000   2248124.1782    865687.8988   5886425.3983   5   8   2.0772   2.4437   6.4697   0.2762  -1.2062   2.6086   0.00    0.0    0.00000    0.00000    0.00000   0.00000  0.00000  0.00000  0.00000  0.00000  0.00000
2282 180240.000   2248124.2027    865687.7672   5886425.5285   5   8   2.0761   2.4417   6.4589   0.3082  -1.1620   2.6025   0.00    0.0    0.00000    0.00000    0.00000   0.00000  0.00000  0.00000  0.00000  0.00000  0.00000
2282 180270.000   2248124.0952    865687.7729   5886425.2034   5   8   2.0750   2.4398   6.4476   0.3369  -1.1163   2.5963   0.00    0.0    0.00000    0.00000    0.00000   0.00000  0.00000  0.00000  0.00000  0.00000  0.00000
2282 180300.000   2248123.9345    865687.9212   5886425.2977   5   8   2.0738   2.4379   6.4358   0.3632  -1.0690   2.5898   0.00    0.0    0.00000    0.00000    0.00000   0.00000  0.00000  0.00000  0.00000  0.00000  0.00000
2282 180330.000   2248124.0430    865687.8223   5886425.3281   5   8   2.0726   2.4362   6.4234   0.3875  -1.0198   2.5832   0.00    0.0    0.00000    0.00000    0.00000   0.00000  0.00000  0.00000  0.00000  0.00000  0.00000
2282 180360.000   2248124.0743    865687.7317   5886425.0622   5   8   2.0714   2.4345   6.4106   0.4102  -0.9685   2.5763   0.00    0.0    0.00000    0.00000    0.00000   0.00000  0.00000  0.00000  0.00000  0.00000  0.00000
2282 180390.000   2248124.0549    865687.7363   5886425.1632   5   8   2.0702   2.4330   6.3973   0.4315  -0.9148   2.5693   0.00    0.0    0.00000    0.00000    0.00000   0.00000  0.00000  0.00000  0.00000  0.00000  0.00000
2282 180420.000   2248124.0624    865687.5557   5886425.1481   5   8   2.0689   2.4315   6.3835   0.4516  -0.8583   2.5620   0.00    0.0    0.00000    0.00000    0.00000   0.00000  0.00000  0.00000  0.00000  0.00000  0.00000
2282 180450.000   2248124.1324    865687.6544   5886425.7065   5   8   2.0676   2.4301   6.3692   0.4706  -0.7983   2.5546   0.00    0.0    0.00000    0.00000    0.00000   0.00000  0.00000  0.00000  0.00000  0.00000  0.00000
2282 180480.000   2248124.0873    865687.6203   5886425.6227   5   8   2.0663   2.4288   6.3545   0.4887  -0.7342   2.5470   0.00    0.0    0.00000    0.00000    0.00000   0.00000  0.00000  0.00000  0.00000  0.00000  0.00000
2282 180510.000   2248124.0765    865687.5686   5886425.5896   5   8   2.0650   2.4276   6.3394   0.5060  -0.6648   2.5393   0.00    0.0    0.00000    0.00000    0.00000   0.00000  0.00000  0.00000  0.00000  0.00000  0.00000
2282 180540.000   2248124.1608    865687.6136   5886425.5613   5   8   2.0637   2.4265   6.3238   0.5224  -0.5880   2.5313   0.00    0.0    0.00000    0.00000    0.00000   0.00000  0.00000  0.00000  0.00000  0.00000  0.00000
2282 180570.000   2248124.0526    865687.5389   5886425.2710   5   8   2.0623   2.4254   6.3078   0.5382  -0.5009   2.5232   0.00    0.0    0.00000    0.00000    0.00000   0.00000  0.00000  0.00000  0.00000  0.00000  0.00000
2282 180600.000   2248124.1195    865687.6557   5886425.1999   5   8   2.0609   2.4244   6.2914   0.5533  -0.3964   2.5149   0.00    0.0    0.00000    0.00000    0.00000   0.00000  0.00000  0.00000  0.00000  0.00000  0.00000
2282 180630.000   2248124.1805    865687.5874   5886425.0093   5   8   2.0595   2.4236   6.2746   0.5678  -0.2542   2.5065   0.00    0.0    0.00000    0.00000    0.00000   0.00000  0.00000  0.00000  0.00000  0.00000  0.00000
2282 180660.000   2248124.2043    865687.5724   5886425.5665   5   8   2.0581   2.4227   6.2574   0.5817   0.1631   2.4979   0.00    0.0    0.00000    0.00000    0.00000   0.00000  0.00000  0.00000  0.00000  0.00000  0.00000
2282 180690.000   2248124.1334    865687.4549   5886424.9815   5   8   2.0566   2.4220   6.2398   0.5951   0.3413   2.4892   0.00    0.0    0.00000    0.00000    0.00000   0.00000  0.00000  0.00000  0.00000  0.00000  0.00000
