% program   : GINav v0.1.0
% obs start : 2023/06/28 00:00:40.0
% obs end   : 2023/06/28 01:24:03.0
% mode      : PPP Kinematic
% system    : GPS GALILEO 
% nfreqs    : 2
% elev mask : 10.0 deg
% ephemeris : broadcast
% ionos opt : off
% trops opt : off
%
%  GPST              x-ecef(m)      y-ecef(m)      z-ecef(m)   Q  ns   sdx(m)   sdy(m)   sdz(m)  sdxy(m)  sdyz(m)  sdzx(m) age(s)  ratio    vx(m/s)    vy(m/s)    vz(m/s)      sdvx     sdvy     sdvz    sdvxy    sdvyz    sdvzx
2268 259240.003   4402957.8837    666835.8766   4550862.1200   6  10   0.5230   0.4162   0.7846   0.3429   0.4619   0.5394   0.00    0.0   -0.02459    0.06470   -0.02990   0.00000  0.00000  0.00000  0.00000  0.00000  0.00000
2268 259241.003   4402957.9687    666835.9218   4550862.2365   6  10   0.3813   0.3029   0.5713   0.2467   0.3354   0.3910   0.00    0.0   -0.00064    0.02521    0.02893   0.00000  0.00000  0.00000  0.00000  0.00000  0.00000
2268 259242.003   4402958.0537    666835.9805   4550862.3696   6  10   0.3203   0.2542   0.4796   0.2049   0.2809   0.3270   0.00    0.0    0.03010    0.04720    0.03683   0.00000  0.00000  0.00000  0.00000  0.00000  0.00000
2268 259243.003   4402958.0945    666836.0404   4550862.4856   6  10   0.2851   0.2259   0.4264   0.1803   0.2491   0.2897   0.00    0.0    0.04826    0.00603    0.04044   0.00000  0.00000  0.00000  0.00000  0.00000  0.00000
2268 259244.003   4402958.1175    666836.0638   4550862.5302   6  10   0.2616   0.2071   0.3910   0.1638   0.2280   0.2648   0.00    0.0    0.02191   -0.00208    0.06521   0.00000  0.00000  0.00000  0.00000  0.00000  0.00000
2268 259245.003   4402958.0945    666836.0484   4550862.5060   6  10   0.2448   0.1936   0.3656   0.1519   0.2127   0.2468   0.00    0.0   -0.02891   -0.03096   -0.09779   0.00000  0.00000  0.00000  0.00000  0.00000  0.00000
2268 259246.003   4402958.0866    666836.0439   4550862.5334   6  10   0.2320   0.1833   0.3462   0.1427   0.2011   0.2332   0.00    0.0    0.01777    0.02361    0.05532   0.00000  0.00000  0.00000  0.00000  0.00000  0.00000
2268 259247.003   4402958.0489    666836.0064   4550862.5052   6  10   0.2219   0.1752   0.3310   0.1354   0.1920   0.2224   0.00    0.0   -0.01986   -0.00621    0.00185   0.00000  0.00000  0.00000  0.00000  0.00000  0.00000
2268 259248.003   4402957.9980    666835.9769   4550862.4606   6  11   0.2135   0.1681   0.3151   0.1300   0.1861   0.2124   0.00    0.0   -0.00171    0.03037    0.04199   0.00000  0.00000  0.00000  0.00000  0.00000  0.00000
2268 259249.003   4402957.9543    666835.9485   4550862.4045   6  11   0.2066   0.1623   0.3031   0.1255   0.1807   0.2045   0.00    0.0    0.00410    0.01164    0.05691   0.00000  0.00000  0.00000  0.00000  0.00000  0.00000
2268 259250.003   4402957.9128    666835.9471   4550862.3701   6  11   0.2008   0.1576   0.2936   0.1214   0.1758   0.1980   0.00    0.0    0.05335   -0.00241    0.04563   0.00000  0.00000  0.00000  0.00000  0.00000  0.00000
2268 259251.003   4402957.8983    666835.9272   4550862.3464   6  11   0.1958   0.1536   0.2856   0.1179   0.1714   0.1925   0.00    0.0   -0.02897    0.00621    0.01320   0.00000  0.00000  0.00000  0.00000  0.00000  0.00000
2268 259252.003   4402957.8517    666835.8941   4550862.2729   6  11   0.1915   0.1502   0.2788   0.1148   0.1676   0.1877   0.00    0.0    0.04927   -0.00159    0.06970   0.00000  0.00000  0.00000  0.00000  0.00000  0.00000
2268 259253.003   4402957.8235    666835.8638   4550862.2178   6  12   0.1843   0.1413   0.2580   0.1052   0.1526   0.1745   0.00    0.0    0.03736    0.01492    0.06005   0.00000  0.00000  0.00000  0.00000  0.00000  0.00000
2268 259254.003   4402957.7976    666835.8540   4550862.2097   6  12   0.1791   0.1353   0.2435   0.0988   0.1426   0.1655   0.00    0.0   -0.06441   -0.03855   -0.07972   0.00000  0.00000  0.00000  0.00000  0.00000  0.00000
2268 259255.003   4402957.7965    666835.8393   4550862.2034   6  12   0.1753   0.1315   0.2351   0.0948   0.1369   0.1600   0.00    0.0   -0.05000   -0.08732   -0.03388   0.00000  0.00000  0.00000  0.00000  0.00000  0.00000
2268 259256.003   4402957.7974    666835.8279   4550862.1952   6  12   0.1722   0.1286   0.2290   0.0918   0.1328   0.1557   0.00    0.0    0.03750   -0.01164   -0.00646   0.00000  0.00000  0.00000  0.00000  0.00000  0.00000
2268 259257.003   4402957.8132    666835.8242   4550862.2125   6  12   0.1696   0.1262   0.2241   0.0894   0.1295   0.1523   0.00    0.0    0.06316   -0.02416    0.02867   0.00000  0.00000  0.00000  0.00000  0.00000  0.00000
2268 259258.003   4402957.8364    666835.8377   4550862.2339   6  12   0.1672   0.1241   0.2199   0.0873   0.1268   0.1494   0.00    0.0    0.02953    0.00259    0.05062   0.00000  0.00000  0.00000  0.00000  0.00000  0.00000
2268 259259.003   4402957.8532    666835.8405   4550862.2503   6  12   0.1652   0.1224   0.2164   0.0855   0.1246   0.1468   0.00    0.0    0.05154    0.00716    0.06713   0.00000  0.00000  0.00000  0.00000  0.00000  0.00000
2268 259260.003   4402957.8832    666835.8547   4550862.2850   6  12   0.1633   0.1208   0.2133   0.0839   0.1226   0.1446   0.00    0.0   -0.03671   -0.01905   -0.05650   0.00000  0.00000  0.00000  0.00000  0.00000  0.00000
2268 259261.003   4402957.9034    666835.8739   4550862.3012   6  12   0.1617   0.1194   0.2106   0.0825   0.1209   0.1426   0.00    0.0    0.04140   -0.00663    0.02242   0.00000  0.00000  0.00000  0.00000  0.00000  0.00000
2268 259262.003   4402957.9333    666835.8813   4550862.3387   6  12   0.1601   0.1182   0.2081   0.0813   0.1194   0.1408   0.00    0.0    0.02082    0.01955    0.07472   0.00000  0.00000  0.00000  0.00000  0.00000  0.00000
2268 259263.003   4402957.9524    666835.8970   4550862.3632   6  12   0.1587   0.1171   0.2059   0.0802   0.1181   0.1391   0.00    0.0   -0.01492   -0.00366   -0.00441   0.00000  0.00000  0.00000  0.00000  0.00000  0.00000
2268 259264.003   4402957.9625    666835.9027   4550862.3831   6  12   0.1575   0.1161   0.2039   0.0792   0.1169   0.1376   0.00    0.0    0.03763    0.00404    0.04320   0.00000  0.00000  0.00000  0.00000  0.00000  0.00000
2268 259265.003   4402957.9749    666835.9008   4550862.3860   6  12   0.1563   0.1152   0.2020   0.0782   0.1158   0.1362   0.00    0.0    0.01949    0.01294   -0.02679   0.00000  0.00000  0.00000  0.00000  0.00000  0.00000
2268 259266.003   4402957.9677    666835.9115   4550862.3942   6  12   0.1552   0.1144   0.2003   0.0774   0.1148   0.1350   0.00    0.0    0.06324    0.02522    0.04311   0.00000  0.00000  0.00000  0.00000  0.00000  0.00000
2268 259267.003   4402957.9707    666835.9097   4550862.3959   6  12   0.1542   0.1137   0.1987   0.0766   0.1138   0.1338   0.00    0.0    0.06046    0.00727    0.03377   0.00000  0.00000  0.00000  0.00000  0.00000  0.00000
2268 259268.003   4402957.9781    666835.8986   4550862.3757   6  12   0.1532   0.1130   0.1973   0.0759   0.1130   0.1327   0.00    0.0   -0.00970   -0.02165   -0.01964   0.00000  0.00000  0.00000  0.00000  0.00000  0.00000
2268 259269.003   4402957.9821    666835.9006   4550862.3921   6  12   0.1523   0.1123   0.1959   0.0752   0.1122   0.1317   0.00    0.0    0.04859   -0.00855    0.00632   0.00000  0.00000  0.00000  0.00000  0.00000  0.00000
2268 259270.003   4402957.9781    666835.9050   4550862.3879   6  12   0.1515   0.1117   0.1947   0.0746   0.1115   0.1307   0.00    0.0    0.01611    0.03069    0.04096   0.00000  0.00000  0.00000  0.00000  0.00000  0.00000
2268 259271.003   4402957.9587    666835.9001   4550862.3601   6  12   0.1507   0.1112   0.1935   0.0741   0.1108   0.1298   0.00    0.0   -0.01012   -0.01049   -0.05692   0.00000  0.00000  0.00000  0.00000  0.00000  0.00000
2268 259272.003   4402957.9399    666835.8981   4550862.3427   6  12   0.1500   0.1107   0.1923   0.0735   0.1102   0.1290   0.00    0.0    0.04691   -0.00142    0.03331   0.00000  0.00000  0.00000  0.00000  0.00000  0.00000
2268 259273.003   4402957.9301    666835.8960   4550862.3310   6  12   0.1493   0.1102   0.1913   0.0730   0.1096   0.1282   0.00    0.0    0.00555    0.02093   -0.02441   0.00000  0.00000  0.00000  0.00000  0.00000  0.00000
2268 259274.003   4402957.9287    666835.8920   4550862.3247   6  14   0.1482   0.1055   0.1812   0.0701   0.1007   0.1248   0.00    0.0   -0.02848   -0.06073   -0.08738   0.00000  0.00000  0.00000  0.00000  0.00000  0.00000
2268 259275.003   4402957.9169    666835.8868   4550862.3236   6  14   0.1473   0.0983   0.1665   0.0673   0.0865   0.1217   0.00    0.0   -0.04632   -0.06170   -0.09098   0.00000  0.00000  0.00000  0.00000  0.00000  0.00000
2268 259276.003   4402957.9123    666835.8747   4550862.3167   6  14   0.1465   0.0954   0.1606   0.0659   0.0807   0.1201   0.00    0.0    0.04133   -0.04361   -0.05780   0.00000  0.00000  0.00000  0.00000  0.00000  0.00000
2268 259277.003   4402957.9077    666835.8681   4550862.3118   6  14   0.1459   0.0936   0.1571   0.0651   0.0773   0.1189   0.00    0.0   -0.00404   -0.02245   -0.06404   0.00000  0.00000  0.00000  0.00000  0.00000  0.00000
2268 259278.003   4402957.9068    666835.8672   4550862.3145   6  14   0.1453   0.0924   0.1546   0.0644   0.0750   0.1180   0.00    0.0   -0.04413   -0.04006   -0.06182   0.00000  0.00000  0.00000  0.00000  0.00000  0.00000
2268 259279.003   4402957.9008    666835.8669   4550862.3130   6  14   0.1447   0.0915   0.1526   0.0638   0.0732   0.1172   0.00    0.0    0.02713   -0.04703   -0.05044   0.00000  0.00000  0.00000  0.00000  0.00000  0.00000
2268 259280.003   4402957.8943    666835.8659   4550862.3242   6  14   0.1442   0.0907   0.1511   0.0634   0.0718   0.1165   0.00    0.0   -0.01628   -0.05396   -0.04579   0.00000  0.00000  0.00000  0.00000  0.00000  0.00000
2268 259281.003   4402957.8937    666835.8690   4550862.3314   6  14   0.1437   0.0901   0.1497   0.0630   0.0707   0.1159   0.00    0.0   -0.04709   -0.09087   -0.07137   0.00000  0.00000  0.00000  0.00000  0.00000  0.00000
2268 259282.003   4402957.9090    666835.8658   4550862.3280   6  14   0.1433   0.0895   0.1486   0.0626   0.0697   0.1154   0.00    0.0    0.03677   -0.04395   -0.02637   0.00000  0.00000  0.00000  0.00000  0.00000  0.00000
2268 259283.003   4402957.9082    666835.8669   4550862.3355   6  14   0.1429   0.0891   0.1476   0.0623   0.0688   0.1149   0.00    0.0   -0.03706   -0.03296   -0.07553   0.00000  0.00000  0.00000  0.00000  0.00000  0.00000
2268 259284.003   4402957.9032    666835.8653   4550862.3352   6  14   0.1425   0.0886   0.1466   0.0620   0.0681   0.1144   0.00    0.0   -0.03663   -0.05339   -0.08923   0.00000  0.00000  0.00000  0.00000  0.00000  0.00000
2268 259285.003   4402957.8893    666835.8676   4550862.3177   6  14   0.1421   0.0882   0.1458   0.0617   0.0674   0.1139   0.00    0.0   -0.00824   -0.02807   -0.07183   0.00000  0.00000  0.00000  0.00000  0.00000  0.00000
2268 259286.003   4402957.8832    666835.8712   4550862.3168   6  15   0.1411   0.0879   0.1450   0.0615   0.0668   0.1133   0.00    0.0   -0.02057   -0.06069   -0.06824   0.00000  0.00000  0.00000  0.00000  0.00000  0.00000
2268 259287.003   4402957.8646    666835.8767   4550862.3001   6  15   0.1348   0.0875   0.1436   0.0612   0.0663   0.1102   0.00    0.0   -0.05762   -0.03252   -0.05709   0.00000  0.00000  0.00000  0.00000  0.00000  0.00000
2268 259288.003   4402957.8583    666835.8824   4550862.2951   6  16   0.1323   0.0872   0.1420   0.0610   0.0661   0.1088   0.00    0.0   -0.03917   -0.02445   -0.08947   0.00000  0.00000  0.00000  0.00000  0.00000  0.00000
2268 259289.003   4402957.8640    666835.8754   4550862.3013   6  16   0.1309   0.0867   0.1395   0.0609   0.0666   0.1077   0.00    0.0   -0.04795   -0.04848   -0.09836   0.00000  0.00000  0.00000  0.00000  0.00000  0.00000
2268 259290.003   4402957.8534    666835.8755   4550862.2910   6  16   0.1298   0.0864   0.1382   0.0607   0.0666   0.1070   0.00    0.0   -0.06124   -0.02409   -0.10081   0.00000  0.00000  0.00000  0.00000  0.00000  0.00000
2268 259291.003   4402957.8555    666835.8767   4550862.2836   6  16   0.1290   0.0861   0.1372   0.0605   0.0664   0.1064   0.00    0.0   -0.04664   -0.03009   -0.07997   0.00000  0.00000  0.00000  0.00000  0.00000  0.00000
2268 259292.003   4402957.8720    666835.8792   4550862.2934   6  16   0.1385   0.0854   0.1377   0.0593   0.0658   0.1103   0.00    0.0   -0.04137   -0.03580   -0.07263   0.00000  0.00000  0.00000  0.00000  0.00000  0.00000
2268 259293.003   4402957.8680    666835.8835   4550862.2845   6  16   0.1345   0.0836   0.1367   0.0547   0.0644   0.1086   0.00    0.0   -0.00462   -0.04049   -0.03085   0.00000  0.00000  0.00000  0.00000  0.00000  0.00000
2268 259294.003   4402957.8707    666835.8778   4550862.2941   6  16   0.1330   0.0828   0.1360   0.0529   0.0637   0.1078   0.00    0.0   -0.00184   -0.06153   -0.05712   0.00000  0.00000  0.00000  0.00000  0.00000  0.00000
2268 259295.003   4402957.8738    666835.8880   4550862.2977   6  16   0.1320   0.0823   0.1355   0.0519   0.0633   0.1073   0.00    0.0   -0.00716   -0.00231   -0.02076   0.00000  0.00000  0.00000  0.00000  0.00000  0.00000
2268 259296.003   4402957.8743    666835.8876   4550862.2912   6  16   0.1313   0.0820   0.1349   0.0513   0.0630   0.1068   0.00    0.0    0.02813   -0.02576   -0.06771   0.00000  0.00000  0.00000  0.00000  0.00000  0.00000
2268 259297.003   4402957.8854    666835.8985   4550862.3001   6  16   0.1308   0.0817   0.1345   0.0508   0.0627   0.1064   0.00    0.0    0.02380   -0.02686   -0.08805   0.00000  0.00000  0.00000  0.00000  0.00000  0.00000
2268 259298.003   4402957.8807    666835.8974   4550862.2971   6  16   0.1303   0.0814   0.1340   0.0504   0.0624   0.1061   0.00    0.0   -0.02329   -0.05514   -0.09812   0.00000  0.00000  0.00000  0.00000  0.00000  0.00000
2268 259299.003   4402957.8852    666835.8956   4550862.3007   6  16   0.1299   0.0812   0.1336   0.0501   0.0622   0.1058   0.00    0.0   -0.01037   -0.03927   -0.05511   0.00000  0.00000  0.00000  0.00000  0.00000  0.00000
2268 259300.003   4402957.8932    666835.9037   4550862.3031   6  16   0.1295   0.0810   0.1332   0.0499   0.0620   0.1055   0.00    0.0   -0.01842   -0.03381   -0.07494   0.00000  0.00000  0.00000  0.00000  0.00000  0.00000
2268 259301.003   4402957.8947    666835.9028   4550862.3089   6  16   0.1291   0.0808   0.1329   0.0497   0.0618   0.1052   0.00    0.0    0.01619   -0.04060   -0.05314   0.00000  0.00000  0.00000  0.00000  0.00000  0.00000
2268 259302.003   4402957.8866    666835.9013   4550862.3057   6  16   0.1288   0.0806   0.1325   0.0495   0.0617   0.1050   0.00    0.0    0.06966   -0.03710   -0.04389   0.00000  0.00000  0.00000  0.00000  0.00000  0.00000
2268 259303.003   4402957.8877    666835.8989   4550862.3056   6  16   0.1285   0.0805   0.1322   0.0493   0.0615   0.1047   0.00    0.0    0.02525   -0.03444   -0.03108   0.00000  0.00000  0.00000  0.00000  0.00000  0.00000
2268 259304.003   4402957.8815    666835.8998   4550862.3021   6  16   0.1282   0.0804   0.1319   0.0492   0.0614   0.1045   0.00    0.0   -0.00107   -0.02496   -0.05356   0.00000  0.00000  0.00000  0.00000  0.00000  0.00000
2268 259305.003   4402957.8685    666835.9039   4550862.2938   6  16   0.1279   0.0802   0.1316   0.0491   0.0613   0.1043   0.00    0.0   -0.01635   -0.01331   -0.06744   0.00000  0.00000  0.00000  0.00000  0.00000  0.00000
2268 259306.003   4402957.8794    666835.9085   4550862.3024   6  16   0.1277   0.0801   0.1313   0.0490   0.0612   0.1041   0.00    0.0    0.01288   -0.02798   -0.05078   0.00000  0.00000  0.00000  0.00000  0.00000  0.00000
2268 259307.003   4402957.8931    666835.9109   4550862.3126   6  16   0.1274   0.0800   0.1311   0.0489   0.0611   0.1039   0.00    0.0   -0.03176   -0.04428   -0.09633   0.00000  0.00000  0.00000  0.00000  0.00000  0.00000
2268 259308.003   4402957.9142    666835.9122   4550862.3329   6  16   0.1272   0.0799   0.1308   0.0488   0.0610   0.1037   0.00    0.0    0.06140   -0.01368   -0.02406   0.00000  0.00000  0.00000  0.00000  0.00000  0.00000
2268 259309.003   4402957.9138    666835.9189   4550862.3363   6  16   0.1269   0.0798   0.1306   0.0488   0.0609   0.1035   0.00    0.0    0.05869   -0.02604   -0.03952   0.00000  0.00000  0.00000  0.00000  0.00000  0.00000
2268 259310.003   4402957.9168    666835.9122   4550862.3321   6  16   0.1267   0.0797   0.1304   0.0487   0.0608   0.1033   0.00    0.0    0.02422   -0.03725   -0.05055   0.00000  0.00000  0.00000  0.00000  0.00000  0.00000
2268 259311.003   4402957.9057    666835.9045   4550862.3156   6  16   0.1265   0.0796   0.1302   0.0487   0.0607   0.1032   0.00    0.0   -0.02500   -0.05410   -0.08025   0.00000  0.00000  0.00000  0.00000  0.00000  0.00000
2268 259312.003   4402957.9080    666835.9109   4550862.3153   6  16   0.1263   0.0796   0.1299   0.0486   0.0607   0.1030   0.00    0.0    0.05383   -0.01335   -0.01798   0.00000  0.00000  0.00000  0.00000  0.00000  0.00000
2268 259313.003   4402957.8814    666835.9079   4550862.2948   6  16   0.1261   0.0795   0.1297   0.0486   0.0606   0.1028   0.00    0.0   -0.00214   -0.02603   -0.05864   0.00000  0.00000  0.00000  0.00000  0.00000  0.00000
2268 259314.003   4402957.8744    666835.9041   4550862.2906   6  16   0.1259   0.0794   0.1296   0.0485   0.0606   0.1027   0.00    0.0    0.01296   -0.01668   -0.04973   0.00000  0.00000  0.00000  0.00000  0.00000  0.00000
2268 259315.003   4402957.8646    666835.8962   4550862.2849   6  16   0.1257   0.0794   0.1294   0.0485   0.0605   0.1025   0.00    0.0   -0.01667   -0.04286   -0.05752   0.00000  0.00000  0.00000  0.00000  0.00000  0.00000
2268 259316.003   4402957.8626    666835.8920   4550862.2771   6  16   0.1255   0.0793   0.1292   0.0485   0.0605   0.1024   0.00    0.0   -0.01158   -0.04439   -0.06076   0.00000  0.00000  0.00000  0.00000  0.00000  0.00000
2268 259317.003   4402957.8558    666835.8882   4550862.2700   6  16   0.1253   0.0792   0.1290   0.0485   0.0605   0.1022   0.00    0.0    0.01353   -0.07078   -0.04924   0.00000  0.00000  0.00000  0.00000  0.00000  0.00000
2268 259318.003   4402957.8525    666835.8945   4550862.2732   6  16   0.1251   0.0792   0.1289   0.0485   0.0604   0.1021   0.00    0.0   -0.01264   -0.02839   -0.10485   0.00000  0.00000  0.00000  0.00000  0.00000  0.00000
2268 259319.003   4402957.8484    666835.8919   4550862.2615   6  16   0.1250   0.0791   0.1287   0.0485   0.0604   0.1020   0.00    0.0    0.05104   -0.00260   -0.04885   0.00000  0.00000  0.00000  0.00000  0.00000  0.00000
2268 259320.003   4402957.8849    666835.9030   4550862.2900   6  16   0.1248   0.0791   0.1286   0.0485   0.0604   0.1018   0.00    0.0   -0.00874   -0.07335   -0.09152   0.00000  0.00000  0.00000  0.00000  0.00000  0.00000
2268 259321.003   4402957.8907    666835.9109   4550862.3053   6  16   0.1246   0.0791   0.1284   0.0485   0.0604   0.1017   0.00    0.0   -0.02400   -0.05329   -0.08588   0.00000  0.00000  0.00000  0.00000  0.00000  0.00000
2268 259322.003   4402957.8853    666835.9125   4550862.2949   6  16   0.1245   0.0790   0.1283   0.0485   0.0604   0.1016   0.00    0.0    0.02195   -0.04432   -0.07040   0.00000  0.00000  0.00000  0.00000  0.00000  0.00000
2268 259323.003   4402957.8830    666835.9115   4550862.2927   6  16   0.1243   0.0790   0.1281   0.0485   0.0604   0.1015   0.00    0.0   -0.03219   -0.06317   -0.11241   0.00000  0.00000  0.00000  0.00000  0.00000  0.00000
2268 259324.003   4402957.8836    666835.9081   4550862.2912   6  16   0.1241   0.0790   0.1280   0.0485   0.0603   0.1014   0.00    0.0    0.01629   -0.04351   -0.03501   0.00000  0.00000  0.00000  0.00000  0.00000  0.00000
2268 259325.003   4402957.8733    666835.9051   4550862.2800   6  16   0.1240   0.0789   0.1279   0.0486   0.0603   0.1012   0.00    0.0    0.01081   -0.01643   -0.01661   0.00000  0.00000  0.00000  0.00000  0.00000  0.00000
2268 259326.003   4402957.8796    666835.9064   4550862.2856   6  16   0.1238   0.0789   0.1278   0.0486   0.0603   0.1011   0.00    0.0   -0.01044   -0.03105   -0.05215   0.00000  0.00000  0.00000  0.00000  0.00000  0.00000
2268 259327.003   4402957.8689    666835.9041   4550862.2754   6  16   0.1237   0.0789   0.1276   0.0486   0.0603   0.1010   0.00    0.0   -0.00678   -0.01480   -0.05092   0.00000  0.00000  0.00000  0.00000  0.00000  0.00000
2268 259328.003   4402957.8720    666835.9020   4550862.2684   6  16   0.1235   0.0789   0.1275   0.0486   0.0603   0.1009   0.00    0.0    0.01572   -0.04311   -0.04774   0.00000  0.00000  0.00000  0.00000  0.00000  0.00000
2268 259329.003   4402957.8714    666835.9127   4550862.2819   6  16   0.1234   0.0789   0.1274   0.0487   0.0604   0.1008   0.00    0.0   -0.00972    0.00194   -0.06658   0.00000  0.00000  0.00000  0.00000  0.00000  0.00000
2268 259330.003   4402957.8765    666835.9120   4550862.2887   6  16   0.1233   0.0788   0.1273   0.0487   0.0604   0.1007   0.00    0.0    0.03401   -0.03672   -0.04860   0.00000  0.00000  0.00000  0.00000  0.00000  0.00000
2268 259331.003   4402957.8561    666835.9095   4550862.2744   6  16   0.1231   0.0788   0.1272   0.0487   0.0604   0.1006   0.00    0.0    0.00048   -0.02167   -0.07260   0.00000  0.00000  0.00000  0.00000  0.00000  0.00000
2268 259332.003   4402957.8564    666835.9032   4550862.2749   6  16   0.1230   0.0788   0.1271   0.0488   0.0604   0.1005   0.00    0.0    0.01645   -0.04189   -0.05765   0.00000  0.00000  0.00000  0.00000  0.00000  0.00000
2268 259333.003   4402957.8602    666835.9000   4550862.2806   6  16   0.1228   0.0788   0.1270   0.0488   0.0604   0.1004   0.00    0.0   -0.01542   -0.02158   -0.04784   0.00000  0.00000  0.00000  0.00000  0.00000  0.00000
2268 259334.003   4402957.8752    666835.8986   4550862.2928   6  16   0.1227   0.0788   0.1269   0.0488   0.0604   0.1003   0.00    0.0    0.05408   -0.01267   -0.00697   0.00000  0.00000  0.00000  0.00000  0.00000  0.00000
2268 259335.003   4402957.8858    666835.8998   4550862.2992   6  16   0.1226   0.0788   0.1268   0.0489   0.0604   0.1002   0.00    0.0   -0.04332   -0.04153   -0.08933   0.00000  0.00000  0.00000  0.00000  0.00000  0.00000
2268 259336.003   4402957.8917    666835.9030   4550862.3048   6  16   0.1224   0.0788   0.1267   0.0489   0.0605   0.1001   0.00    0.0    0.00418   -0.02566   -0.05553   0.00000  0.00000  0.00000  0.00000  0.00000  0.00000
2268 259337.003   4402957.8921    666835.9068   4550862.3037   6  16   0.1223   0.0788   0.1267   0.0490   0.0605   0.1000   0.00    0.0    0.02886   -0.00793   -0.02584   0.00000  0.00000  0.00000  0.00000  0.00000  0.00000
2268 259338.003   4402957.8860    666835.9120   4550862.2956   6  16   0.1222   0.0788   0.1266   0.0490   0.0605   0.0999   0.00    0.0    0.02091   -0.02969   -0.03844   0.00000  0.00000  0.00000  0.00000  0.00000  0.00000
2268 259339.003   4402957.8877    666835.9117   4550862.2916   6  16   0.1221   0.0788   0.1265   0.0491   0.0605   0.0999   0.00    0.0   -0.00941   -0.03153   -0.08337   0.00000  0.00000  0.00000  0.00000  0.00000  0.00000
2268 259340.003   4402957.8944    666835.9109   4550862.3038   6  16   0.1219   0.0788   0.1264   0.0491   0.0606   0.0998   0.00    0.0    0.04247   -0.01380   -0.03851   0.00000  0.00000  0.00000  0.00000  0.00000  0.00000
2268 259341.003   4402957.8875    666835.9048   4550862.2923   6  16   0.1218   0.0788   0.1264   0.0491   0.0606   0.0997   0.00    0.0    0.00731   -0.03926   -0.03296   0.00000  0.00000  0.00000  0.00000  0.00000  0.00000
2268 259342.003   4402957.8821    666835.9024   4550862.2869   6  16   0.1217   0.0788   0.1263   0.0492   0.0606   0.0996   0.00    0.0    0.04874   -0.02159   -0.01232   0.00000  0.00000  0.00000  0.00000  0.00000  0.00000
2268 259343.003   4402957.8854    666835.9022   4550862.2967   6  16   0.1216   0.0788   0.1262   0.0492   0.0607   0.0995   0.00    0.0    0.04790   -0.02504   -0.01738   0.00000  0.00000  0.00000  0.00000  0.00000  0.00000
2268 259344.003   4402957.8871    666835.9063   4550862.3039   6  16   0.1215   0.0788   0.1262   0.0493   0.0607   0.0994   0.00    0.0    0.07982   -0.02565   -0.00867   0.00000  0.00000  0.00000  0.00000  0.00000  0.00000
2268 259345.003   4402957.8792    666835.9112   4550862.3012   6  16   0.1213   0.0788   0.1261   0.0493   0.0607   0.0994   0.00    0.0    0.02747   -0.06584   -0.03657   0.00000  0.00000  0.00000  0.00000  0.00000  0.00000
2268 259346.003   4402957.8739    666835.9093   4550862.2942   6  16   0.1212   0.0788   0.1260   0.0494   0.0608   0.0993   0.00    0.0    0.01101   -0.01379   -0.07221   0.00000  0.00000  0.00000  0.00000  0.00000  0.00000
2268 259347.003   4402957.8785    666835.9181   4550862.3097   6  16   0.1211   0.0788   0.1260   0.0494   0.0608   0.0992   0.00    0.0    0.03190   -0.03469   -0.06297   0.00000  0.00000  0.00000  0.00000  0.00000  0.00000
2268 259348.003   4402957.8902    666835.9238   4550862.3139   6  16   0.1210   0.0788   0.1259   0.0495   0.0609   0.0991   0.00    0.0   -0.03789   -0.04415   -0.09305   0.00000  0.00000  0.00000  0.00000  0.00000  0.00000
2268 259349.003   4402957.8872    666835.9206   4550862.3085   6  16   0.1209   0.0788   0.1259   0.0496   0.0609   0.0991   0.00    0.0   -0.03369   -0.04547   -0.09641   0.00000  0.00000  0.00000  0.00000  0.00000  0.00000
2268 259350.003   4402957.8905    666835.9235   4550862.3133   6  16   0.1208   0.0788   0.1258   0.0496   0.0609   0.0990   0.00    0.0   -0.00116   -0.05104   -0.04075   0.00000  0.00000  0.00000  0.00000  0.00000  0.00000
2268 259351.003   4402957.8927    666835.9263   4550862.3069   6  16   0.1207   0.0789   0.1258   0.0497   0.0610   0.0989   0.00    0.0    0.02362   -0.01625   -0.04695   0.00000  0.00000  0.00000  0.00000  0.00000  0.00000
2268 259352.003   4402957.8919    666835.9225   4550862.3034   6  16   0.1205   0.0789   0.1257   0.0497   0.0610   0.0988   0.00    0.0    0.02411   -0.04086   -0.10262   0.00000  0.00000  0.00000  0.00000  0.00000  0.00000
2268 259353.003   4402957.8934    666835.9211   4550862.3043   6  16   0.1204   0.0789   0.1257   0.0498   0.0611   0.0988   0.00    0.0    0.06115    0.00098   -0.02869   0.00000  0.00000  0.00000  0.00000  0.00000  0.00000
2268 259354.003   4402957.8912    666835.9208   4550862.3009   6  16   0.1203   0.0789   0.1256   0.0498   0.0611   0.0987   0.00    0.0    0.01210   -0.02689   -0.05825   0.00000  0.00000  0.00000  0.00000  0.00000  0.00000
2268 259355.003   4402957.8867    666835.9184   4550862.2968   6  16   0.1202   0.0789   0.1256   0.0499   0.0612   0.0986   0.00    0.0   -0.02953   -0.01681   -0.03545   0.00000  0.00000  0.00000  0.00000  0.00000  0.00000
2268 259356.003   4402957.8878    666835.9124   4550862.3027   6  16   0.1201   0.0789   0.1256   0.0500   0.0612   0.0985   0.00    0.0   -0.00762   -0.05189   -0.05068   0.00000  0.00000  0.00000  0.00000  0.00000  0.00000
2268 259357.003   4402957.8911    666835.9060   4550862.2978   6  16   0.1200   0.0789   0.1255   0.0500   0.0613   0.0985   0.00    0.0   -0.04860   -0.05924   -0.13389   0.00000  0.00000  0.00000  0.00000  0.00000  0.00000
2268 259358.003   4402957.8822    666835.9080   4550862.2901   6  16   0.1199   0.0790   0.1255   0.0501   0.0613   0.0984   0.00    0.0   -0.00498   -0.04089   -0.05402   0.00000  0.00000  0.00000  0.00000  0.00000  0.00000
2268 259359.003   4402957.9012    666835.9102   4550862.2995   6  16   0.1198   0.0790   0.1255   0.0501   0.0614   0.0983   0.00    0.0    0.02097   -0.01912   -0.02982   0.00000  0.00000  0.00000  0.00000  0.00000  0.00000
2268 259360.003   4402957.9021    666835.9148   4550862.2983   6  16   0.1197   0.0790   0.1254   0.0502   0.0614   0.0983   0.00    0.0    0.02792   -0.03717   -0.02584   0.00000  0.00000  0.00000  0.00000  0.00000  0.00000
2268 259361.003   4402957.8901    666835.9219   4550862.2883   6  16   0.1196   0.0790   0.1254   0.0503   0.0615   0.0982   0.00    0.0   -0.00669   -0.02388   -0.06786   0.00000  0.00000  0.00000  0.00000  0.00000  0.00000
2268 259362.003   4402957.8889    666835.9144   4550862.2827   6  16   0.1195   0.0790   0.1254   0.0503   0.0615   0.0981   0.00    0.0    0.00700   -0.00134   -0.06725   0.00000  0.00000  0.00000  0.00000  0.00000  0.00000
2268 259363.003   4402957.8926    666835.9157   4550862.2912   6  16   0.1194   0.0791   0.1253   0.0504   0.0616   0.0981   0.00    0.0   -0.00243   -0.04942   -0.09367   0.00000  0.00000  0.00000  0.00000  0.00000  0.00000
2268 259364.003   4402957.8867    666835.9134   4550862.2906   6  16   0.1193   0.0791   0.1253   0.0504   0.0616   0.0980   0.00    0.0    0.03175   -0.00111   -0.03533   0.00000  0.00000  0.00000  0.00000  0.00000  0.00000
2268 259375.000   4402957.8880    666835.9206   4550862.2996   6  18   0.1180   0.0795   0.1254   0.0510   0.0624   0.0973   0.00    0.0    0.02706    0.00883   -0.06080   0.00000  0.00000  0.00000  0.00000  0.00000  0.00000
2268 259376.000   4402957.8825    666835.9194   4550862.2935   6  17   0.1130   0.0758   0.1234   0.0420   0.0579   0.0933   0.00    0.0    0.02784   -0.00600   -0.06725   0.00000  0.00000  0.00000  0.00000  0.00000  0.00000
2268 259377.000   4402957.8778    666835.9130   4550862.2904   6  17   0.1111   0.0745   0.1227   0.0386   0.0564   0.0918   0.00    0.0    0.01421    0.00969   -0.04995   0.00000  0.00000  0.00000  0.00000  0.00000  0.00000
2268 259378.000   4402957.8692    666835.9104   4550862.2825   6  17   0.1101   0.0739   0.1223   0.0368   0.0557   0.0910   0.00    0.0    0.00682   -0.00668   -0.06131   0.00000  0.00000  0.00000  0.00000  0.00000  0.00000
2268 259379.000   4402957.8705    666835.9108   4550862.2909   6  17   0.1094   0.0735   0.1221   0.0357   0.0552   0.0905   0.00    0.0    0.00329    0.00049   -0.09633   0.00000  0.00000  0.00000  0.00000  0.00000  0.00000
2268 259380.000   4402957.8743    666835.9079   4550862.2894   6  17   0.1090   0.0732   0.1219   0.0350   0.0549   0.0901   0.00    0.0    0.00341   -0.04237   -0.04795   0.00000  0.00000  0.00000  0.00000  0.00000  0.00000
2268 259381.000   4402957.8855    666835.9056   4550862.2909   6  17   0.1086   0.0730   0.1218   0.0344   0.0547   0.0899   0.00    0.0   -0.00529   -0.06215   -0.11360   0.00000  0.00000  0.00000  0.00000  0.00000  0.00000
2268 259382.000   4402957.8761    666835.9061   4550862.2932   6  17   0.1083   0.0728   0.1217   0.0340   0.0546   0.0896   0.00    0.0    0.00460   -0.02414   -0.07020   0.00000  0.00000  0.00000  0.00000  0.00000  0.00000
2268 259383.000   4402957.8889    666835.9176   4550862.3041   6  17   0.1080   0.0727   0.1216   0.0337   0.0545   0.0894   0.00    0.0    0.00447   -0.02182   -0.05003   0.00000  0.00000  0.00000  0.00000  0.00000  0.00000
2268 259384.000   4402957.9051    666835.9257   4550862.3126   6  18   0.1077   0.0723   0.1214   0.0339   0.0541   0.0894   0.00    0.0   -0.05455   -0.01613   -0.09509   0.00000  0.00000  0.00000  0.00000  0.00000  0.00000
2268 259385.000   4402957.9123    666835.9267   4550862.3192   6  18   0.1073   0.0712   0.1208   0.0348   0.0527   0.0897   0.00    0.0   -0.01916   -0.02386   -0.06499   0.00000  0.00000  0.00000  0.00000  0.00000  0.00000
2268 259386.000   4402957.9150    666835.9179   4550862.3239   6  18   0.1070   0.0708   0.1205   0.0351   0.0522   0.0897   0.00    0.0    0.00493   -0.00946   -0.06559   0.00000  0.00000  0.00000  0.00000  0.00000  0.00000
2268 259387.000   4402957.9155    666835.9255   4550862.3322   6  18   0.1068   0.0706   0.1204   0.0351   0.0519   0.0896   0.00    0.0   -0.00015   -0.02479   -0.05384   0.00000  0.00000  0.00000  0.00000  0.00000  0.00000
2268 259388.000   4402957.9166    666835.9313   4550862.3290   6  18   0.1066   0.0704   0.1203   0.0351   0.0518   0.0895   0.00    0.0    0.04252    0.01625   -0.02595   0.00000  0.00000  0.00000  0.00000  0.00000  0.00000
2268 259389.000   4402957.9173    666835.9224   4550862.3253   6  18   0.1065   0.0703   0.1202   0.0351   0.0517   0.0894   0.00    0.0   -0.05007   -0.06091   -0.14978   0.00000  0.00000  0.00000  0.00000  0.00000  0.00000
2268 259390.000   4402957.9203    666835.9284   4550862.3232   6  18   0.1063   0.0702   0.1201   0.0351   0.0516   0.0893   0.00    0.0   -0.00284    0.00209   -0.06427   0.00000  0.00000  0.00000  0.00000  0.00000  0.00000
2268 259391.000   4402957.9276    666835.9268   4550862.3268   6  18   0.1061   0.0701   0.1201   0.0351   0.0516   0.0892   0.00    0.0    0.01609   -0.00164   -0.04093   0.00000  0.00000  0.00000  0.00000  0.00000  0.00000
2268 259392.000   4402957.9227    666835.9232   4550862.3257   6  18   0.1060   0.0701   0.1200   0.0351   0.0516   0.0891   0.00    0.0   -0.02231   -0.03284   -0.08235   0.00000  0.00000  0.00000  0.00000  0.00000  0.00000
2268 259393.000   4402957.9192    666835.9159   4550862.3212   6  18   0.1058   0.0700   0.1200   0.0351   0.0515   0.0890   0.00    0.0   -0.01400   -0.02641   -0.08316   0.00000  0.00000  0.00000  0.00000  0.00000  0.00000
2268 259394.000   4402957.9134    666835.9194   4550862.3298   6  19   0.1057   0.0693   0.1197   0.0347   0.0509   0.0889   0.00    0.0    0.06337   -0.01871   -0.00508   0.00000  0.00000  0.00000  0.00000  0.00000  0.00000
2268 259395.000   4402957.9038    666835.9223   4550862.3214   6  19   0.1055   0.0660   0.1189   0.0337   0.0480   0.0885   0.00    0.0    0.04358   -0.00322   -0.03216   0.00000  0.00000  0.00000  0.00000  0.00000  0.00000
2268 259396.000   4402957.8971    666835.9172   4550862.3157   6  19   0.1053   0.0649   0.1186   0.0334   0.0470   0.0883   0.00    0.0    0.03362   -0.00171   -0.01391   0.00000  0.00000  0.00000  0.00000  0.00000  0.00000
2268 259397.000   4402957.8827    666835.9164   4550862.2942   6  19   0.1052   0.0643   0.1184   0.0332   0.0465   0.0882   0.00    0.0    0.02154    0.00358   -0.02132   0.00000  0.00000  0.00000  0.00000  0.00000  0.00000
2268 259398.000   4402957.8853    666835.9140   4550862.2923   6  19   0.1051   0.0639   0.1183   0.0330   0.0461   0.0881   0.00    0.0   -0.01945   -0.01789   -0.05875   0.00000  0.00000  0.00000  0.00000  0.00000  0.00000
2268 259399.000   4402957.8820    666835.9098   4550862.2788   6  19   0.1049   0.0636   0.1182   0.0330   0.0459   0.0880   0.00    0.0   -0.00170    0.00253   -0.09303   0.00000  0.00000  0.00000  0.00000  0.00000  0.00000
2268 259400.000   4402957.8946    666835.9040   4550862.2824   6  19   0.1048   0.0634   0.1181   0.0329   0.0458   0.0878   0.00    0.0   -0.02419   -0.02032   -0.08815   0.00000  0.00000  0.00000  0.00000  0.00000  0.00000
2268 259401.000   4402957.8893    666835.9128   4550862.2957   6  19   0.1047   0.0633   0.1181   0.0328   0.0457   0.0877   0.00    0.0    0.04292   -0.00167   -0.04885   0.00000  0.00000  0.00000  0.00000  0.00000  0.00000
2268 259402.000   4402957.8865    666835.9106   4550862.2997   6  19   0.1045   0.0631   0.1180   0.0328   0.0456   0.0876   0.00    0.0    0.00833   -0.03750   -0.08362   0.00000  0.00000  0.00000  0.00000  0.00000  0.00000
2268 259403.000   4402957.8966    666835.9187   4550862.3089   6  19   0.1044   0.0630   0.1180   0.0328   0.0455   0.0875   0.00    0.0    0.01619    0.00106   -0.05960   0.00000  0.00000  0.00000  0.00000  0.00000  0.00000
2268 259404.000   4402957.9012    666835.9151   4550862.3125   6  19   0.1043   0.0629   0.1179   0.0327   0.0455   0.0874   0.00    0.0    0.05708   -0.01672   -0.01773   0.00000  0.00000  0.00000  0.00000  0.00000  0.00000
2268 259405.000   4402957.8870    666835.9141   4550862.2959   6  19   0.1042   0.0628   0.1179   0.0327   0.0455   0.0873   0.00    0.0   -0.00987   -0.02394   -0.09092   0.00000  0.00000  0.00000  0.00000  0.00000  0.00000
2268 259406.000   4402957.9001    666835.9121   4550862.3092   6  19   0.1041   0.0627   0.1179   0.0327   0.0455   0.0872   0.00    0.0    0.00210    0.00228   -0.03013   0.00000  0.00000  0.00000  0.00000  0.00000  0.00000
2268 259407.000   4402957.8912    666835.9100   4550862.3047   6  19   0.1039   0.0627   0.1178   0.0327   0.0454   0.0871   0.00    0.0    0.02173   -0.01995   -0.00435   0.00000  0.00000  0.00000  0.00000  0.00000  0.00000
2268 259408.000   4402957.9015    666835.9095   4550862.3063   6  19   0.1038   0.0626   0.1178   0.0327   0.0454   0.0870   0.00    0.0    0.00961   -0.02213   -0.04385   0.00000  0.00000  0.00000  0.00000  0.00000  0.00000
2268 259409.000   4402957.9068    666835.9071   4550862.3028   6  19   0.1037   0.0626   0.1178   0.0327   0.0454   0.0869   0.00    0.0   -0.01225   -0.00795   -0.06553   0.00000  0.00000  0.00000  0.00000  0.00000  0.00000
2268 259410.000   4402957.8964    666835.9113   4550862.2957   6  19   0.1036   0.0625   0.1177   0.0327   0.0454   0.0869   0.00    0.0    0.03593   -0.00426   -0.01969   0.00000  0.00000  0.00000  0.00000  0.00000  0.00000
2268 259411.000   4402957.8994    666835.9150   4550862.3001   6  19   0.1035   0.0624   0.1177   0.0327   0.0454   0.0868   0.00    0.0   -0.00864    0.00241   -0.11004   0.00000  0.00000  0.00000  0.00000  0.00000  0.00000
2268 259412.000   4402957.8899    666835.9098   4550862.2948   6  19   0.1034   0.0624   0.1177   0.0327   0.0455   0.0867   0.00    0.0   -0.02134   -0.00777   -0.11226   0.00000  0.00000  0.00000  0.00000  0.00000  0.00000
2268 259413.000   4402957.8805    666835.9195   4550862.2909   6  19   0.1033   0.0624   0.1177   0.0327   0.0455   0.0866   0.00    0.0   -0.01061   -0.00570   -0.06119   0.00000  0.00000  0.00000  0.00000  0.00000  0.00000
2268 259414.000   4402957.8979    666835.9220   4550862.3034   6  19   0.1031   0.0623   0.1176   0.0326   0.0455   0.0865   0.00    0.0   -0.00229   -0.02913   -0.07136   0.00000  0.00000  0.00000  0.00000  0.00000  0.00000
2268 259415.000   4402957.9075    666835.9191   4550862.3060   6  19   0.1030   0.0623   0.1176   0.0327   0.0455   0.0864   0.00    0.0    0.02645   -0.01714   -0.06559   0.00000  0.00000  0.00000  0.00000  0.00000  0.00000
2268 259416.000   4402957.9026    666835.9221   4550862.3124   6  19   0.1029   0.0623   0.1176   0.0327   0.0455   0.0863   0.00    0.0    0.00824   -0.01181   -0.04550   0.00000  0.00000  0.00000  0.00000  0.00000  0.00000
2268 259417.000   4402957.8816    666835.9259   4550862.2885   6  19   0.1028   0.0622   0.1176   0.0327   0.0456   0.0862   0.00    0.0   -0.00840   -0.01357   -0.08342   0.00000  0.00000  0.00000  0.00000  0.00000  0.00000
2268 259418.000   4402957.8757    666835.9294   4550862.2801   6  19   0.1027   0.0622   0.1175   0.0327   0.0456   0.0861   0.00    0.0   -0.01605   -0.04154   -0.09268   0.00000  0.00000  0.00000  0.00000  0.00000  0.00000
2268 259419.000   4402957.8803    666835.9273   4550862.2894   6  19   0.1026   0.0622   0.1175   0.0327   0.0456   0.0860   0.00    0.0    0.06650    0.01938   -0.00993   0.00000  0.00000  0.00000  0.00000  0.00000  0.00000
2268 259420.000   4402957.8796    666835.9182   4550862.2851   6  20   0.1023   0.0620   0.1175   0.0323   0.0456   0.0859   0.00    0.0    0.00629   -0.05012   -0.01735   0.00000  0.00000  0.00000  0.00000  0.00000  0.00000
2268 259421.000   4402957.8920    666835.9166   4550862.2960   6  20   0.1015   0.0611   0.1174   0.0304   0.0455   0.0856   0.00    0.0    0.00056   -0.02012   -0.06223   0.00000  0.00000  0.00000  0.00000  0.00000  0.00000
2268 259422.000   4402957.8881    666835.9136   4550862.3008   6  20   0.1012   0.0608   0.1174   0.0298   0.0454   0.0855   0.00    0.0    0.02374   -0.01830   -0.02571   0.00000  0.00000  0.00000  0.00000  0.00000  0.00000
2268 259423.000   4402957.8798    666835.9177   4550862.2970   6  20   0.1010   0.0607   0.1174   0.0295   0.0455   0.0854   0.00    0.0   -0.06224   -0.02145   -0.11673   0.00000  0.00000  0.00000  0.00000  0.00000  0.00000
2268 259424.000   4402957.8750    666835.9178   4550862.2943   6  20   0.1008   0.0606   0.1174   0.0293   0.0455   0.0853   0.00    0.0   -0.00342   -0.01011   -0.02426   0.00000  0.00000  0.00000  0.00000  0.00000  0.00000
2268 259425.000   4402957.8681    666835.9102   4550862.2859   6  20   0.1007   0.0605   0.1174   0.0292   0.0456   0.0852   0.00    0.0   -0.04213   -0.02281   -0.07913   0.00000  0.00000  0.00000  0.00000  0.00000  0.00000
2268 259426.000   4402957.8655    666835.9059   4550862.2797   6  20   0.1006   0.0604   0.1173   0.0292   0.0456   0.0851   0.00    0.0    0.00037   -0.01463   -0.06695   0.00000  0.00000  0.00000  0.00000  0.00000  0.00000
2268 259427.000   4402957.8718    666835.9078   4550862.2839   6  20   0.1005   0.0604   0.1173   0.0291   0.0457   0.0850   0.00    0.0   -0.03466   -0.01472   -0.07238   0.00000  0.00000  0.00000  0.00000  0.00000  0.00000
2268 259428.000   4402957.8632    666835.9021   4550862.2687   6  20   0.1003   0.0603   0.1173   0.0291   0.0457   0.0850   0.00    0.0   -0.06699   -0.03942   -0.13169   0.00000  0.00000  0.00000  0.00000  0.00000  0.00000
2268 259429.000   4402957.8688    666835.9052   4550862.2732   6  20   0.1002   0.0603   0.1173   0.0291   0.0458   0.0849   0.00    0.0   -0.03089   -0.00750   -0.09652   0.00000  0.00000  0.00000  0.00000  0.00000  0.00000
2268 259430.000   4402957.8763    666835.9073   4550862.2829   6  20   0.1001   0.0603   0.1173   0.0291   0.0458   0.0848   0.00    0.0    0.03732   -0.01802   -0.01767   0.00000  0.00000  0.00000  0.00000  0.00000  0.00000
2268 259431.000   4402957.8816    666835.9108   4550862.2874   6  20   0.1000   0.0603   0.1173   0.0291   0.0459   0.0847   0.00    0.0   -0.01424    0.00433   -0.06736   0.00000  0.00000  0.00000  0.00000  0.00000  0.00000
2268 259432.000   4402957.8686    666835.9094   4550862.2739   6  20   0.0999   0.0602   0.1172   0.0292   0.0460   0.0846   0.00    0.0   -0.00045   -0.00184   -0.05425   0.00000  0.00000  0.00000  0.00000  0.00000  0.00000
2268 259433.000   4402957.8831    666835.9135   4550862.2878   6  20   0.0999   0.0602   0.1172   0.0292   0.0460   0.0845   0.00    0.0   -0.02948   -0.04470   -0.10395   0.00000  0.00000  0.00000  0.00000  0.00000  0.00000
2268 259434.000   4402957.8878    666835.9092   4550862.2942   6  20   0.0998   0.0602   0.1172   0.0292   0.0461   0.0844   0.00    0.0    0.00188   -0.02839   -0.02411   0.00000  0.00000  0.00000  0.00000  0.00000  0.00000
2268 259435.000   4402957.8829    666835.9117   4550862.2896   6  20   0.0997   0.0602   0.1172   0.0292   0.0462   0.0843   0.00    0.0   -0.05867   -0.04869   -0.12418   0.00000  0.00000  0.00000  0.00000  0.00000  0.00000
2268 259436.000   4402957.8890    666835.9179   4550862.2982   6  20   0.0996   0.0602   0.1172   0.0293   0.0463   0.0842   0.00    0.0    0.03007   -0.00878   -0.01548   0.00000  0.00000  0.00000  0.00000  0.00000  0.00000
2268 259437.000   4402957.8943    666835.9177   4550862.3010   6  18   0.1085   0.0615   0.1386   0.0190   0.0399   0.0996   0.00    0.0    0.02734   -0.00521   -0.00257   0.00000  0.00000  0.00000  0.00000  0.00000  0.00000
2268 259438.000   4402957.8937    666835.9186   4550862.2920   6  18   0.1084   0.0615   0.1387   0.0192   0.0401   0.0995   0.00    0.0   -0.01100   -0.01345   -0.04884   0.00000  0.00000  0.00000  0.00000  0.00000  0.00000
2268 259439.000   4402957.8795    666835.9210   4550862.2774   6  18   0.1083   0.0615   0.1387   0.0193   0.0403   0.0994   0.00    0.0   -0.02311   -0.04073   -0.07861   0.00000  0.00000  0.00000  0.00000  0.00000  0.00000
2268 259440.000   4402957.8913    666835.9254   4550862.2771   6  18   0.1082   0.0614   0.1387   0.0195   0.0405   0.0993   0.00    0.0   -0.01676   -0.01669   -0.01808   0.00000  0.00000  0.00000  0.00000  0.00000  0.00000
2268 259441.000   4402957.8876    666835.9314   4550862.2779   6  18   0.1081   0.0614   0.1388   0.0196   0.0406   0.0993   0.00    0.0   -0.00468   -0.00313   -0.03163   0.00000  0.00000  0.00000  0.00000  0.00000  0.00000
2268 259442.000   4402957.8857    666835.9328   4550862.2767   6  18   0.1080   0.0614   0.1388   0.0198   0.0408   0.0992   0.00    0.0   -0.02352   -0.03627   -0.06286   0.00000  0.00000  0.00000  0.00000  0.00000  0.00000
2268 259443.000   4402957.8800    666835.9325   4550862.2812   6  18   0.1080   0.0614   0.1388   0.0199   0.0410   0.0991   0.00    0.0   -0.04439   -0.02942   -0.05334   0.00000  0.00000  0.00000  0.00000  0.00000  0.00000
2268 259444.000   4402957.8907    666835.9271   4550862.2919   6  18   0.1079   0.0614   0.1388   0.0201   0.0412   0.0990   0.00    0.0    0.05446    0.01448    0.04081   0.00000  0.00000  0.00000  0.00000  0.00000  0.00000
2268 259445.000   4402957.8825    666835.9261   4550862.2834   6  18   0.1078   0.0613   0.1389   0.0202   0.0414   0.0989   0.00    0.0    0.00105   -0.03101   -0.04808   0.00000  0.00000  0.00000  0.00000  0.00000  0.00000
2268 259446.000   4402957.8941    666835.9265   4550862.2974   6  18   0.1077   0.0613   0.1389   0.0204   0.0415   0.0988   0.00    0.0    0.00885   -0.01488   -0.00552   0.00000  0.00000  0.00000  0.00000  0.00000  0.00000
2268 259447.000   4402957.8962    666835.9194   4550862.2937   6  18   0.1076   0.0613   0.1389   0.0205   0.0417   0.0987   0.00    0.0    0.03938   -0.02704   -0.00687   0.00000  0.00000  0.00000  0.00000  0.00000  0.00000
2268 259448.000   4402957.8925    666835.9220   4550862.2958   6  18   0.1075   0.0613   0.1389   0.0207   0.0419   0.0987   0.00    0.0   -0.00425   -0.00751    0.00163   0.00000  0.00000  0.00000  0.00000  0.00000  0.00000
2268 259449.000   4402957.8945    666835.9233   4550862.2995   6  18   0.1074   0.0613   0.1389   0.0208   0.0421   0.0986   0.00    0.0   -0.02050   -0.02238   -0.03972   0.00000  0.00000  0.00000  0.00000  0.00000  0.00000
2268 259450.000   4402957.8880    666835.9204   4550862.2878   6  18   0.1073   0.0613   0.1389   0.0210   0.0422   0.0985   0.00    0.0   -0.01141   -0.01725   -0.03286   0.00000  0.00000  0.00000  0.00000  0.00000  0.00000
2268 259451.000   4402957.8678    666835.9183   4550862.2666   6  18   0.1073   0.0613   0.1390   0.0211   0.0424   0.0984   0.00    0.0    0.01653    0.00610   -0.01980   0.00000  0.00000  0.00000  0.00000  0.00000  0.00000
2268 259452.000   4402957.8693    666835.9165   4550862.2579   6  18   0.1072   0.0613   0.1390   0.0212   0.0426   0.0983   0.00    0.0   -0.04763   -0.04687   -0.10270   0.00000  0.00000  0.00000  0.00000  0.00000  0.00000
2268 259453.000   4402957.8692    666835.9164   4550862.2725   6  18   0.1071   0.0613   0.1390   0.0214   0.0428   0.0982   0.00    0.0    0.00950    0.00541   -0.01779   0.00000  0.00000  0.00000  0.00000  0.00000  0.00000
2268 259454.000   4402957.8748    666835.9171   4550862.2715   6  18   0.1070   0.0613   0.1390   0.0215   0.0429   0.0981   0.00    0.0    0.01880   -0.00283    0.02076   0.00000  0.00000  0.00000  0.00000  0.00000  0.00000
2268 259455.000   4402957.8759    666835.9189   4550862.2829   6  18   0.1069   0.0612   0.1390   0.0217   0.0431   0.0980   0.00    0.0   -0.05315   -0.02666   -0.05303   0.00000  0.00000  0.00000  0.00000  0.00000  0.00000
2268 259456.000   4402957.8804    666835.9167   4550862.2874   6  18   0.1068   0.0612   0.1390   0.0218   0.0433   0.0979   0.00    0.0   -0.02395   -0.02690   -0.06022   0.00000  0.00000  0.00000  0.00000  0.00000  0.00000
2268 259457.000   4402957.8816    666835.9244   4550862.2900   6  18   0.1067   0.0612   0.1390   0.0219   0.0435   0.0978   0.00    0.0   -0.01436   -0.00720   -0.08114   0.00000  0.00000  0.00000  0.00000  0.00000  0.00000
2268 259458.000   4402957.8835    666835.9233   4550862.3025   6  18   0.1066   0.0612   0.1390   0.0221   0.0436   0.0977   0.00    0.0    0.01892   -0.04816   -0.03135   0.00000  0.00000  0.00000  0.00000  0.00000  0.00000
2268 259459.000   4402957.8927    666835.9240   4550862.3217   6  18   0.1065   0.0612   0.1390   0.0222   0.0438   0.0976   0.00    0.0    0.06519    0.00115    0.07568   0.00000  0.00000  0.00000  0.00000  0.00000  0.00000
2268 259460.000   4402957.8910    666835.9255   4550862.3228   6  18   0.1064   0.0612   0.1390   0.0223   0.0440   0.0975   0.00    0.0   -0.04274   -0.05556   -0.06964   0.00000  0.00000  0.00000  0.00000  0.00000  0.00000
2268 259461.000   4402957.8847    666835.9315   4550862.3142   6  18   0.1063   0.0612   0.1390   0.0225   0.0442   0.0974   0.00    0.0    0.00550   -0.00598   -0.01986   0.00000  0.00000  0.00000  0.00000  0.00000  0.00000
2268 259462.000   4402957.8853    666835.9265   4550862.3163   6  18   0.1062   0.0612   0.1390   0.0226   0.0443   0.0972   0.00    0.0    0.03358   -0.01764    0.00141   0.00000  0.00000  0.00000  0.00000  0.00000  0.00000
2268 259463.000   4402957.8828    666835.9225   4550862.3064   6  18   0.1062   0.0612   0.1390   0.0227   0.0445   0.0971   0.00    0.0    0.03140    0.02169    0.02932   0.00000  0.00000  0.00000  0.00000  0.00000  0.00000
2268 259464.000   4402957.8857    666835.9189   4550862.3035   6  18   0.1061   0.0612   0.1390   0.0229   0.0447   0.0970   0.00    0.0   -0.06209   -0.01131   -0.09467   0.00000  0.00000  0.00000  0.00000  0.00000  0.00000
2268 259465.000   4402957.8774    666835.9196   4550862.2873   6  18   0.1060   0.0612   0.1390   0.0230   0.0449   0.0969   0.00    0.0    0.00967   -0.02838   -0.01834   0.00000  0.00000  0.00000  0.00000  0.00000  0.00000
2268 259466.000   4402957.8770    666835.9199   4550862.2893   6  18   0.1059   0.0612   0.1390   0.0231   0.0450   0.0968   0.00    0.0   -0.02904   -0.00452   -0.03891   0.00000  0.00000  0.00000  0.00000  0.00000  0.00000
2268 259467.000   4402957.8834    666835.9244   4550862.3022   6  18   0.1058   0.0612   0.1390   0.0232   0.0452   0.0966   0.00    0.0   -0.05645   -0.02527   -0.08896   0.00000  0.00000  0.00000  0.00000  0.00000  0.00000
2268 259468.000   4402957.8723    666835.9236   4550862.2886   6  18   0.1057   0.0612   0.1390   0.0233   0.0454   0.0965   0.00    0.0    0.01625   -0.00262   -0.00890   0.00000  0.00000  0.00000  0.00000  0.00000  0.00000
2268 259469.000   4402957.8754    666835.9285   4550862.2959   6  18   0.1056   0.0612   0.1389   0.0234   0.0455   0.0964   0.00    0.0    0.02155   -0.00008    0.03960   0.00000  0.00000  0.00000  0.00000  0.00000  0.00000
2268 259470.000   4402957.8946    666835.9294   4550862.3145   6  18   0.1055   0.0612   0.1389   0.0236   0.0457   0.0963   0.00    0.0   -0.01204   -0.00268   -0.02238   0.00000  0.00000  0.00000  0.00000  0.00000  0.00000
2268 259471.000   4402957.8885    666835.9318   4550862.3089   6  18   0.1054   0.0612   0.1389   0.0237   0.0459   0.0961   0.00    0.0    0.00545   -0.02680    0.04535   0.00000  0.00000  0.00000  0.00000  0.00000  0.00000
2268 259472.000   4402957.8812    666835.9331   4550862.2989   6  18   0.1053   0.0612   0.1389   0.0238   0.0460   0.0960   0.00    0.0    0.00967   -0.01153    0.00031   0.00000  0.00000  0.00000  0.00000  0.00000  0.00000
2268 259473.000   4402957.8757    666835.9340   4550862.2973   6  18   0.1052   0.0612   0.1389   0.0239   0.0462   0.0959   0.00    0.0    0.00768   -0.01403   -0.01294   0.00000  0.00000  0.00000  0.00000  0.00000  0.00000
2268 259474.000   4402957.8761    666835.9271   4550862.2936   6  18   0.1051   0.0612   0.1389   0.0240   0.0463   0.0957   0.00    0.0    0.01851    0.00980   -0.02982   0.00000  0.00000  0.00000  0.00000  0.00000  0.00000
2268 259475.000   4402957.8801    666835.9258   4550862.2874   6  18   0.1050   0.0612   0.1388   0.0241   0.0465   0.0956   0.00    0.0   -0.02045   -0.00247   -0.05450   0.00000  0.00000  0.00000  0.00000  0.00000  0.00000
2268 259476.000   4402957.8847    666835.9286   4550862.2841   6  18   0.1049   0.0612   0.1388   0.0242   0.0467   0.0955   0.00    0.0   -0.00901    0.00219   -0.02646   0.00000  0.00000  0.00000  0.00000  0.00000  0.00000
2268 259477.000   4402957.8928    666835.9264   4550862.2759   6  18   0.1048   0.0612   0.1388   0.0243   0.0468   0.0953   0.00    0.0    0.05264    0.00376    0.04653   0.00000  0.00000  0.00000  0.00000  0.00000  0.00000
2268 259478.000   4402957.8953    666835.9248   4550862.2889   6  18   0.1047   0.0612   0.1387   0.0244   0.0470   0.0952   0.00    0.0   -0.02681   -0.03133   -0.02238   0.00000  0.00000  0.00000  0.00000  0.00000  0.00000
2268 259479.000   4402957.8994    666835.9277   4550862.2969   6  18   0.1046   0.0613   0.1387   0.0245   0.0471   0.0950   0.00    0.0    0.01524    0.02301    0.02920   0.00000  0.00000  0.00000  0.00000  0.00000  0.00000
2268 259480.000   4402957.8914    666835.9266   4550862.2962   6  18   0.1045   0.0613   0.1387   0.0246   0.0473   0.0949   0.00    0.0   -0.03063   -0.03024   -0.01727   0.00000  0.00000  0.00000  0.00000  0.00000  0.00000
2268 259481.000   4402957.9002    666835.9261   4550862.3152   6  18   0.1044   0.0613   0.1386   0.0247   0.0474   0.0948   0.00    0.0    0.01441    0.00207   -0.04035   0.00000  0.00000  0.00000  0.00000  0.00000  0.00000
2268 259482.000   4402957.8987    666835.9248   4550862.3290   6  18   0.1044   0.0613   0.1386   0.0248   0.0476   0.0946   0.00    0.0    0.00005   -0.02465   -0.01383   0.00000  0.00000  0.00000  0.00000  0.00000  0.00000
2268 259483.000   4402957.9013    666835.9199   4550862.3295   6  18   0.1043   0.0613   0.1386   0.0249   0.0478   0.0945   0.00    0.0    0.01183   -0.02638   -0.03176   0.00000  0.00000  0.00000  0.00000  0.00000  0.00000
2268 259484.000   4402957.8986    666835.9167   4550862.3212   6  18   0.1042   0.0613   0.1385   0.0250   0.0479   0.0943   0.00    0.0   -0.00967    0.00208   -0.04909   0.00000  0.00000  0.00000  0.00000  0.00000  0.00000
2268 259485.000   4402957.8884    666835.9181   4550862.2991   6  18   0.1041   0.0613   0.1385   0.0250   0.0480   0.0942   0.00    0.0   -0.03076    0.00437   -0.07758   0.00000  0.00000  0.00000  0.00000  0.00000  0.00000
2268 259486.000   4402957.8806    666835.9222   4550862.2996   6  18   0.1040   0.0613   0.1384   0.0251   0.0482   0.0940   0.00    0.0   -0.00506    0.00021   -0.01622   0.00000  0.00000  0.00000  0.00000  0.00000  0.00000
2268 259487.000   4402957.8841    666835.9198   4550862.2981   6  18   0.1039   0.0613   0.1384   0.0252   0.0483   0.0938   0.00    0.0    0.00816   -0.02857   -0.01588   0.00000  0.00000  0.00000  0.00000  0.00000  0.00000
2268 259488.000   4402957.8734    666835.9212   4550862.2894   6  18   0.1038   0.0613   0.1383   0.0253   0.0485   0.0937   0.00    0.0    0.01609   -0.00616    0.01784   0.00000  0.00000  0.00000  0.00000  0.00000  0.00000
2268 259489.000   4402957.8646    666835.9224   4550862.2751   6  18   0.1037   0.0613   0.1383   0.0254   0.0486   0.0935   0.00    0.0   -0.01801   -0.01436   -0.04519   0.00000  0.00000  0.00000  0.00000  0.00000  0.00000
2268 259490.000   4402957.8791    666835.9253   4550862.2884   6  18   0.1036   0.0613   0.1382   0.0254   0.0488   0.0934   0.00    0.0   -0.01762   -0.02515   -0.01207   0.00000  0.00000  0.00000  0.00000  0.00000  0.00000
2268 259491.000   4402957.8777    666835.9257   4550862.2758   6  18   0.1035   0.0614   0.1382   0.0255   0.0489   0.0932   0.00    0.0    0.01669   -0.02197   -0.00149   0.00000  0.00000  0.00000  0.00000  0.00000  0.00000
2268 259492.000   4402957.8764    666835.9243   4550862.2725   6  18   0.1034   0.0614   0.1381   0.0256   0.0491   0.0930   0.00    0.0   -0.01986   -0.04421   -0.05841   0.00000  0.00000  0.00000  0.00000  0.00000  0.00000
2268 259493.000   4402957.8777    666835.9226   4550862.2754   6  18   0.1033   0.0614   0.1381   0.0256   0.0492   0.0929   0.00    0.0   -0.01445    0.00435   -0.02606   0.00000  0.00000  0.00000  0.00000  0.00000  0.00000
2268 259494.000   4402957.8798    666835.9168   4550862.2776   6  18   0.1032   0.0614   0.1380   0.0257   0.0493   0.0927   0.00    0.0   -0.00346   -0.03189   -0.03167   0.00000  0.00000  0.00000  0.00000  0.00000  0.00000
2268 259495.000   4402957.8889    666835.9141   4550862.2872   6  18   0.1031   0.0614   0.1379   0.0258   0.0495   0.0925   0.00    0.0    0.02859    0.00470    0.03791   0.00000  0.00000  0.00000  0.00000  0.00000  0.00000
2268 259496.000   4402957.8787    666835.9144   4550862.2833   6  18   0.1030   0.0614   0.1379   0.0258   0.0496   0.0924   0.00    0.0   -0.06118   -0.02057   -0.05976   0.00000  0.00000  0.00000  0.00000  0.00000  0.00000
2268 259497.000   4402957.8790    666835.9131   4550862.2832   6  18   0.1029   0.0614   0.1378   0.0259   0.0497   0.0922   0.00    0.0    0.01124   -0.01489    0.05014   0.00000  0.00000  0.00000  0.00000  0.00000  0.00000
2268 259498.000   4402957.8852    666835.9156   4550862.2804   6  18   0.1028   0.0614   0.1377   0.0260   0.0499   0.0920   0.00    0.0   -0.04499   -0.01734   -0.07115   0.00000  0.00000  0.00000  0.00000  0.00000  0.00000
2268 259499.000   4402957.8813    666835.9091   4550862.2817   6  18   0.1027   0.0614   0.1377   0.0260   0.0500   0.0918   0.00    0.0    0.01272    0.00261    0.00090   0.00000  0.00000  0.00000  0.00000  0.00000  0.00000
2268 259500.000   4402957.8669    666835.9086   4550862.2778   6  18   0.1027   0.0615   0.1376   0.0261   0.0501   0.0917   0.00    0.0   -0.04248   -0.02434   -0.05973   0.00000  0.00000  0.00000  0.00000  0.00000  0.00000
2268 259501.000   4402957.8742    666835.9122   4550862.2869   6  18   0.1026   0.0615   0.1375   0.0261   0.0502   0.0915   0.00    0.0   -0.00579    0.00046    0.00514   0.00000  0.00000  0.00000  0.00000  0.00000  0.00000
2268 259502.000   4402957.8785    666835.9215   4550862.3031   6  18   0.1025   0.0615   0.1374   0.0262   0.0503   0.0913   0.00    0.0    0.03059    0.00779    0.01188   0.00000  0.00000  0.00000  0.00000  0.00000  0.00000
2268 259503.000   4402957.8723    666835.9192   4550862.2960   6  18   0.1024   0.0615   0.1374   0.0262   0.0505   0.0911   0.00    0.0    0.01426   -0.00271   -0.02375   0.00000  0.00000  0.00000  0.00000  0.00000  0.00000
2268 259504.000   4402957.8655    666835.9222   4550862.2890   6  18   0.1023   0.0615   0.1373   0.0263   0.0506   0.0909   0.00    0.0    0.01009    0.00239    0.00106   0.00000  0.00000  0.00000  0.00000  0.00000  0.00000
2268 259505.000   4402957.8670    666835.9272   4550862.2985   6  18   0.1022   0.0615   0.1372   0.0263   0.0507   0.0908   0.00    0.0   -0.01329   -0.00631   -0.04957   0.00000  0.00000  0.00000  0.00000  0.00000  0.00000
2268 259506.000   4402957.8715    666835.9289   4550862.3063   6  18   0.1021   0.0615   0.1371   0.0264   0.0508   0.0906   0.00    0.0   -0.01622   -0.00283   -0.01407   0.00000  0.00000  0.00000  0.00000  0.00000  0.00000
2268 259507.000   4402957.8623    666835.9280   4550862.2977   6  18   0.1020   0.0615   0.1370   0.0264   0.0509   0.0904   0.00    0.0    0.01084    0.00467    0.02404   0.00000  0.00000  0.00000  0.00000  0.00000  0.00000
2268 259508.000   4402957.8532    666835.9278   4550862.2938   6  18   0.1019   0.0615   0.1370   0.0264   0.0511   0.0902   0.00    0.0   -0.02624   -0.02457   -0.02445   0.00000  0.00000  0.00000  0.00000  0.00000  0.00000
2268 259509.000   4402957.8537    666835.9276   4550862.2928   6  18   0.1018   0.0616   0.1369   0.0265   0.0512   0.0900   0.00    0.0   -0.03480    0.00620   -0.02226   0.00000  0.00000  0.00000  0.00000  0.00000  0.00000
2268 259510.000   4402957.8559    666835.9228   4550862.2908   6  18   0.1018   0.0616   0.1368   0.0265   0.0513   0.0898   0.00    0.0    0.02646    0.01131    0.03941   0.00000  0.00000  0.00000  0.00000  0.00000  0.00000
2268 259511.000   4402957.8638    666835.9263   4550862.2900   6  18   0.1017   0.0616   0.1367   0.0265   0.0514   0.0896   0.00    0.0   -0.04315   -0.01843   -0.07754   0.00000  0.00000  0.00000  0.00000  0.00000  0.00000
2268 259512.000   4402957.8674    666835.9236   4550862.2850   6  18   0.1016   0.0616   0.1366   0.0266   0.0515   0.0895   0.00    0.0    0.02472   -0.00730    0.01401   0.00000  0.00000  0.00000  0.00000  0.00000  0.00000
2268 259513.000   4402957.8749    666835.9225   4550862.2814   6  18   0.1015   0.0616   0.1365   0.0266   0.0516   0.0893   0.00    0.0   -0.03022   -0.02440   -0.05805   0.00000  0.00000  0.00000  0.00000  0.00000  0.00000
