% program   : GINav v0.1.0
% obs start : 2023/06/28 00:00:19.0
% obs end   : 2023/06/28 01:05:38.0
% mode      : PPP Kinematic
% system    : GPS GALILEO 
% nfreqs    : 2
% elev mask : 10.0 deg
% ephemeris : broadcast
% ionos opt : estimation
% trops opt : ZTD estimation
%
%  GPST              x-ecef(m)      y-ecef(m)      z-ecef(m)   Q  ns   sdx(m)   sdy(m)   sdz(m)  sdxy(m)  sdyz(m)  sdzx(m) age(s)  ratio    vx(m/s)    vy(m/s)    vz(m/s)      sdvx     sdvy     sdvz    sdvxy    sdvyz    sdvzx
2268 259218.992   4403096.1247    668399.2162   4550495.8701   6   5   8.7025   5.0418   6.4961  -3.9586   5.3423  -3.0218   0.00    0.0    0.07437   -0.05963   -0.08006   0.00000  0.00000  0.00000  0.00000  0.00000  0.00000
2268 259219.992   4403094.6832    668399.3386   4550496.0210   6   7   3.4705   2.8554   4.0670  -2.3322   3.1064  -1.9263   0.00    0.0   -0.02257    0.04320    0.06558   0.00000  0.00000  0.00000  0.00000  0.00000  0.00000
2268 259220.992   4403094.4758    668399.6399   4550496.5793   6   7   2.6710   2.2477   3.2948  -1.8160   2.4649  -1.4463   0.00    0.0    0.02708   -0.00767   -0.01700   0.00000  0.00000  0.00000  0.00000  0.00000  0.00000
2268 259221.992   4403094.2446    668399.9160   4550496.9390   6   7   2.2951   1.9274   2.8652  -1.5512   2.1205  -1.1902   0.00    0.0    0.03431   -0.04686   -0.06588   0.00000  0.00000  0.00000  0.00000  0.00000  0.00000
2268 259222.992   4403094.1284    668399.9852   4550496.9710   6   7   2.0740   1.7205   2.5796  -1.3847   1.8950  -1.0183   0.00    0.0   -0.01730    0.00368   -0.02852   0.00000  0.00000  0.00000  0.00000  0.00000  0.00000
2268 259223.992   4403094.1117    668400.0978   4550497.0214   6   7   1.9292   1.5717   2.3712  -1.2680   1.7311  -0.8864   0.00    0.0   -0.00961    0.03040    0.02138   0.00000  0.00000  0.00000  0.00000  0.00000  0.00000
2268 259224.992   4403094.1039    668400.0562   4550496.9557   6   7   1.8290   1.4576   2.2103  -1.1806   1.6043  -0.7757   0.00    0.0    0.00069    0.02007    0.02730   0.00000  0.00000  0.00000  0.00000  0.00000  0.00000
2268 259225.992   4403095.3177    668398.9872   4550495.8432   6  10   1.5527   1.0670   1.8216  -0.7815   1.1909   0.4798   0.00    0.0   -0.00310   -0.01384    0.00901   0.00000  0.00000  0.00000  0.00000  0.00000  0.00000
2268 259226.992   4403095.7601    668398.6186   4550495.4859   6  10   1.4296   0.8942   1.6431  -0.6023   1.0099   0.6847   0.00    0.0    0.04405   -0.00573    0.03501   0.00000  0.00000  0.00000  0.00000  0.00000  0.00000
2268 259227.992   4403095.9227    668398.4653   4550495.3496   6  10   1.3538   0.7882   1.5307  -0.4882   0.9005   0.7612   0.00    0.0   -0.00171   -0.00807   -0.00074   0.00000  0.00000  0.00000  0.00000  0.00000  0.00000
2268 259228.992   4403096.0676    668398.3403   4550495.2197   6  10   1.3011   0.7147   1.4515  -0.4040   0.8259   0.8015   0.00    0.0    0.01235    0.00477    0.02251   0.00000  0.00000  0.00000  0.00000  0.00000  0.00000
2268 259229.992   4403096.1786    668398.2695   4550495.1406   6  10   1.2617   0.6600   1.3921  -0.3360   0.7716   0.8261   0.00    0.0    0.01639   -0.00730   -0.01433   0.00000  0.00000  0.00000  0.00000  0.00000  0.00000
2268 259230.992   4403096.2760    668398.2583   4550495.1368   6  10   1.2305   0.6174   1.3455  -0.2770   0.7301   0.8425   0.00    0.0   -0.02364   -0.03190   -0.06013   0.00000  0.00000  0.00000  0.00000  0.00000  0.00000
2268 259231.992   4403096.3693    668398.2651   4550495.1679   6  11   1.1969   0.5809   1.2915  -0.2373   0.6899   0.8369   0.00    0.0   -0.01031   -0.03119   -0.06216   0.00000  0.00000  0.00000  0.00000  0.00000  0.00000
2268 259243.000   4403096.5452    668398.2584   4550495.2725   6  11   1.1687   0.5513   1.2489  -0.1999   0.6586   0.8324   0.00    0.0   -0.02431    0.00205   -0.03093   0.00000  0.00000  0.00000  0.00000  0.00000  0.00000
2268 259244.000   4403096.6693    668398.2468   4550495.3735   6  11   1.1439   0.5264   1.2130  -0.1634   0.6327   0.8280   0.00    0.0    0.01179    0.03337    0.03238   0.00000  0.00000  0.00000  0.00000  0.00000  0.00000
2268 259245.000   4403096.8028    668398.2135   4550495.3938   6  11   1.1215   0.5050   1.1819  -0.1261   0.6108   0.8231   0.00    0.0    0.02192   -0.03388   -0.04056   0.00000  0.00000  0.00000  0.00000  0.00000  0.00000
2268 259246.000   4403096.9303    668398.1860   4550495.4166   6  11   1.1009   0.4863   1.1542  -0.0845   0.5917   0.8177   0.00    0.0   -0.05833    0.00356   -0.00046   0.00000  0.00000  0.00000  0.00000  0.00000  0.00000
2268 259247.000   4403096.9975    668398.1612   4550495.4346   6  11   1.0816   0.4698   1.1292  -0.0061   0.5749   0.8117   0.00    0.0   -0.01941   -0.02125   -0.04984   0.00000  0.00000  0.00000  0.00000  0.00000  0.00000
2268 259248.000   4403097.0436    668398.1240   4550495.4172   6  11   1.0635   0.4550   1.1061   0.0755   0.5597   0.8052   0.00    0.0    0.04697    0.00946    0.02921   0.00000  0.00000  0.00000  0.00000  0.00000  0.00000
2268 259249.000   4403097.0760    668398.1002   4550495.4062   6  11   1.0462   0.4417   1.0846   0.1017   0.5460   0.7981   0.00    0.0    0.01509   -0.00415    0.00273   0.00000  0.00000  0.00000  0.00000  0.00000  0.00000
2268 259250.000   4403097.0772    668398.1068   4550495.4192   6  11   1.0297   0.4296   1.0644   0.1186   0.5333   0.7907   0.00    0.0    0.00106   -0.01514   -0.03389   0.00000  0.00000  0.00000  0.00000  0.00000  0.00000
2268 259251.000   4403097.0557    668398.1214   4550495.4445   6  11   1.0139   0.4185   1.0454   0.1305   0.5216   0.7829   0.00    0.0   -0.02779   -0.00671   -0.00950   0.00000  0.00000  0.00000  0.00000  0.00000  0.00000
2268 259252.000   4403097.0429    668398.1205   4550495.4427   6  11   0.9987   0.4082   1.0273   0.1393   0.5106   0.7750   0.00    0.0    0.03445   -0.02574   -0.00382   0.00000  0.00000  0.00000  0.00000  0.00000  0.00000
2268 259253.000   4403097.0409    668398.1066   4550495.4664   6  11   0.9841   0.3987   1.0100   0.1459   0.5004   0.7668   0.00    0.0    0.00482    0.00070    0.03202   0.00000  0.00000  0.00000  0.00000  0.00000  0.00000
2268 259254.000   4403097.0608    668398.1005   4550495.4978   6  11   0.9700   0.3898   0.9935   0.1508   0.4907   0.7586   0.00    0.0    0.04700   -0.02752   -0.01271   0.00000  0.00000  0.00000  0.00000  0.00000  0.00000
2268 259255.000   4403097.0624    668398.1041   4550495.5181   6  11   0.9564   0.3815   0.9778   0.1545   0.4816   0.7504   0.00    0.0    0.00598    0.00876    0.03037   0.00000  0.00000  0.00000  0.00000  0.00000  0.00000
2268 259256.000   4403097.0872    668398.1009   4550495.4937   6  11   0.9433   0.3738   0.9627   0.1573   0.4729   0.7422   0.00    0.0   -0.02265    0.00591    0.00509   0.00000  0.00000  0.00000  0.00000  0.00000  0.00000
2268 259257.000   4403097.1003    668398.1086   4550495.4868   6  11   0.9306   0.3664   0.9482   0.1594   0.4647   0.7341   0.00    0.0    0.03320   -0.00981    0.01192   0.00000  0.00000  0.00000  0.00000  0.00000  0.00000
2268 259258.000   4403097.1287    668398.1263   4550495.4957   6  11   0.9184   0.3595   0.9343   0.1609   0.4568   0.7261   0.00    0.0   -0.00762   -0.00683   -0.02982   0.00000  0.00000  0.00000  0.00000  0.00000  0.00000
2268 259259.000   4403097.1500    668398.1435   4550495.5114   6  11   0.9066   0.3530   0.9210   0.1619   0.4494   0.7182   0.00    0.0   -0.01078   -0.00172   -0.00152   0.00000  0.00000  0.00000  0.00000  0.00000  0.00000
2268 259260.000   4403097.1688    668398.1647   4550495.5403   6  11   0.8953   0.3468   0.9081   0.1626   0.4423   0.7105   0.00    0.0   -0.00921   -0.02033   -0.02543   0.00000  0.00000  0.00000  0.00000  0.00000  0.00000
2268 259261.000   4403097.1883    668398.1888   4550495.5627   6  11   0.8843   0.3410   0.8958   0.1630   0.4355   0.7029   0.00    0.0   -0.00074    0.01392    0.01233   0.00000  0.00000  0.00000  0.00000  0.00000  0.00000
2268 259262.000   4403097.2300    668398.2087   4550495.5891   6  11   0.8737   0.3354   0.8839   0.1631   0.4290   0.6955   0.00    0.0   -0.03420   -0.00373   -0.03141   0.00000  0.00000  0.00000  0.00000  0.00000  0.00000
2268 259263.000   4403097.2815    668398.2299   4550495.6215   6  11   0.8634   0.3301   0.8725   0.1631   0.4228   0.6882   0.00    0.0    0.00373    0.01010    0.02285   0.00000  0.00000  0.00000  0.00000  0.00000  0.00000
2268 259264.000   4403097.3153    668398.2384   4550495.6290   6  11   0.8535   0.3250   0.8615   0.1629   0.4168   0.6812   0.00    0.0    0.01329   -0.01115   -0.01022   0.00000  0.00000  0.00000  0.00000  0.00000  0.00000
2268 259265.000   4403097.3406    668398.2459   4550495.6412   6  11   0.8440   0.3201   0.8509   0.1626   0.4111   0.6743   0.00    0.0    0.01026   -0.01042    0.00763   0.00000  0.00000  0.00000  0.00000  0.00000  0.00000
2268 259266.000   4403097.3649    668398.2433   4550495.6370   6  11   0.8348   0.3155   0.8407   0.1622   0.4056   0.6676   0.00    0.0   -0.00549    0.00209    0.00903   0.00000  0.00000  0.00000  0.00000  0.00000  0.00000
2268 259267.000   4403097.3961    668398.2328   4550495.6289   6  11   0.8258   0.3111   0.8309   0.1618   0.4003   0.6611   0.00    0.0   -0.00275    0.01454    0.00619   0.00000  0.00000  0.00000  0.00000  0.00000  0.00000
2268 259268.000   4403097.4100    668398.2256   4550495.6320   6  11   0.8172   0.3068   0.8214   0.1613   0.3953   0.6548   0.00    0.0   -0.01866   -0.01513   -0.02644   0.00000  0.00000  0.00000  0.00000  0.00000  0.00000
2268 259269.000   4403097.4601    668398.2240   4550495.6553   6  11   0.8088   0.3027   0.8122   0.1607   0.3904   0.6486   0.00    0.0   -0.01310   -0.01773   -0.02705   0.00000  0.00000  0.00000  0.00000  0.00000  0.00000
2268 259270.000   4403097.5001    668398.2246   4550495.6825   6  11   0.8007   0.2988   0.8034   0.1601   0.3857   0.6427   0.00    0.0   -0.00208    0.01357    0.02233   0.00000  0.00000  0.00000  0.00000  0.00000  0.00000
2268 259271.000   4403097.5153    668398.2284   4550495.7057   6  11   0.7929   0.2950   0.7948   0.1595   0.3812   0.6369   0.00    0.0    0.02531   -0.01021   -0.00111   0.00000  0.00000  0.00000  0.00000  0.00000  0.00000
2268 259272.000   4403097.5604    668398.2260   4550495.7433   6  11   0.7853   0.2914   0.7866   0.1588   0.3768   0.6312   0.00    0.0    0.02211   -0.00278    0.01828   0.00000  0.00000  0.00000  0.00000  0.00000  0.00000
2268 259273.000   4403097.5657    668398.2146   4550495.7461   6  11   0.7780   0.2879   0.7786   0.1582   0.3726   0.6257   0.00    0.0   -0.03521    0.00964    0.01048   0.00000  0.00000  0.00000  0.00000  0.00000  0.00000
2268 259274.000   4403097.5801    668398.2144   4550495.7805   6  11   0.7708   0.2845   0.7708   0.1575   0.3686   0.6204   0.00    0.0    0.00922   -0.02116   -0.01347   0.00000  0.00000  0.00000  0.00000  0.00000  0.00000
2268 259275.000   4403097.5883    668398.2187   4550495.8141   6  11   0.7639   0.2812   0.7633   0.1569   0.3647   0.6153   0.00    0.0   -0.00272    0.03742    0.04383   0.00000  0.00000  0.00000  0.00000  0.00000  0.00000
2268 259276.000   4403097.5917    668398.2191   4550495.8262   6  11   0.7572   0.2781   0.7561   0.1562   0.3609   0.6102   0.00    0.0   -0.01658    0.00024    0.00706   0.00000  0.00000  0.00000  0.00000  0.00000  0.00000
2268 259277.000   4403097.5949    668398.2256   4550495.8386   6  11   0.7507   0.2751   0.7490   0.1556   0.3572   0.6054   0.00    0.0    0.00969    0.00501    0.02667   0.00000  0.00000  0.00000  0.00000  0.00000  0.00000
2268 259278.000   4403097.6053    668398.2336   4550495.8564   6  11   0.7444   0.2721   0.7422   0.1549   0.3537   0.6006   0.00    0.0    0.02631   -0.02797    0.00219   0.00000  0.00000  0.00000  0.00000  0.00000  0.00000
2268 259279.000   4403097.6092    668398.2399   4550495.8499   6  11   0.7383   0.2693   0.7356   0.1543   0.3502   0.5960   0.00    0.0    0.01031   -0.03268   -0.05915   0.00000  0.00000  0.00000  0.00000  0.00000  0.00000
2268 259280.000   4403097.5982    668398.2445   4550495.8366   6  11   0.7323   0.2665   0.7292   0.1536   0.3469   0.5915   0.00    0.0   -0.02011    0.00308   -0.01622   0.00000  0.00000  0.00000  0.00000  0.00000  0.00000
2268 259281.000   4403097.5774    668398.2425   4550495.8189   6  11   0.7265   0.2638   0.7230   0.1530   0.3437   0.5871   0.00    0.0    0.00617   -0.00481   -0.01864   0.00000  0.00000  0.00000  0.00000  0.00000  0.00000
2268 259282.000   4403097.5802    668398.2413   4550495.8200   6  11   0.7209   0.2612   0.7169   0.1524   0.3406   0.5829   0.00    0.0    0.01069   -0.01101    0.01094   0.00000  0.00000  0.00000  0.00000  0.00000  0.00000
2268 259283.000   4403097.5781    668398.2393   4550495.8100   6  11   0.7154   0.2587   0.7111   0.1518   0.3375   0.5788   0.00    0.0    0.02829   -0.01400   -0.00429   0.00000  0.00000  0.00000  0.00000  0.00000  0.00000
2268 259284.000   4403097.5870    668398.2376   4550495.8041   6  11   0.7100   0.2563   0.7053   0.1512   0.3346   0.5747   0.00    0.0   -0.02118   -0.01155   -0.00804   0.00000  0.00000  0.00000  0.00000  0.00000  0.00000
2268 259285.000   4403097.6089    668398.2379   4550495.8019   6  11   0.7049   0.2539   0.6998   0.1506   0.3317   0.5708   0.00    0.0    0.03770   -0.00270    0.01484   0.00000  0.00000  0.00000  0.00000  0.00000  0.00000
2268 259286.000   4403097.6283    668398.2437   4550495.8137   6  11   0.6998   0.2516   0.6944   0.1500   0.3290   0.5670   0.00    0.0   -0.02556   -0.00031   -0.02323   0.00000  0.00000  0.00000  0.00000  0.00000  0.00000
2268 259287.000   4403097.6431    668398.2454   4550495.8163   6  11   0.6949   0.2494   0.6891   0.1495   0.3262   0.5633   0.00    0.0   -0.01572   -0.00458   -0.03229   0.00000  0.00000  0.00000  0.00000  0.00000  0.00000
2268 259288.000   4403097.6486    668398.2484   4550495.8136   6  11   0.6901   0.2472   0.6840   0.1489   0.3236   0.5596   0.00    0.0    0.02541   -0.01168   -0.02806   0.00000  0.00000  0.00000  0.00000  0.00000  0.00000
2268 259289.000   4403097.6518    668398.2447   4550495.8030   6  11   0.6854   0.2451   0.6790   0.1484   0.3211   0.5561   0.00    0.0   -0.01802    0.01670    0.02839   0.00000  0.00000  0.00000  0.00000  0.00000  0.00000
2268 259290.000   4403097.6618    668398.2395   4550495.7980   6  11   0.6808   0.2430   0.6741   0.1478   0.3186   0.5526   0.00    0.0    0.00420   -0.00488   -0.02324   0.00000  0.00000  0.00000  0.00000  0.00000  0.00000
2268 259291.000   4403097.6932    668398.2329   4550495.8047   6  11   0.6763   0.2410   0.6694   0.1473   0.3162   0.5493   0.00    0.0   -0.00065    0.01918    0.00825   0.00000  0.00000  0.00000  0.00000  0.00000  0.00000
2268 259292.000   4403097.7272    668398.2290   4550495.8215   6  11   0.6720   0.2390   0.6648   0.1468   0.3138   0.5460   0.00    0.0    0.02056    0.00155    0.03633   0.00000  0.00000  0.00000  0.00000  0.00000  0.00000
2268 259293.000   4403097.7467    668398.2246   4550495.8286   6  11   0.6677   0.2371   0.6603   0.1463   0.3115   0.5428   0.00    0.0    0.01441   -0.00094    0.02005   0.00000  0.00000  0.00000  0.00000  0.00000  0.00000
2268 259294.000   4403097.7637    668398.2275   4550495.8525   6  11   0.6636   0.2353   0.6559   0.1458   0.3092   0.5396   0.00    0.0    0.04711   -0.01447    0.03353   0.00000  0.00000  0.00000  0.00000  0.00000  0.00000
2268 259295.000   4403097.7747    668398.2304   4550495.8711   6  11   0.6595   0.2334   0.6516   0.1453   0.3071   0.5366   0.00    0.0    0.04712   -0.01944   -0.03522   0.00000  0.00000  0.00000  0.00000  0.00000  0.00000
2268 259296.000   4403097.7743    668398.2346   4550495.8871   6  11   0.6556   0.2317   0.6474   0.1448   0.3049   0.5336   0.00    0.0    0.02438   -0.02090    0.01447   0.00000  0.00000  0.00000  0.00000  0.00000  0.00000
2268 259297.000   4403097.7764    668398.2371   4550495.9000   6  11   0.6517   0.2299   0.6433   0.1444   0.3028   0.5306   0.00    0.0    0.03247   -0.00346   -0.00446   0.00000  0.00000  0.00000  0.00000  0.00000  0.00000
2268 259298.000   4403097.7768    668398.2428   4550495.9106   6  11   0.6479   0.2282   0.6393   0.1439   0.3008   0.5278   0.00    0.0    0.00821   -0.00911   -0.00434   0.00000  0.00000  0.00000  0.00000  0.00000  0.00000
2268 259299.000   4403097.7718    668398.2450   4550495.9064   6  11   0.6442   0.2266   0.6353   0.1435   0.2988   0.5250   0.00    0.0    0.00678   -0.00264   -0.00005   0.00000  0.00000  0.00000  0.00000  0.00000  0.00000
2268 259300.000   4403097.7674    668398.2444   4550495.8937   6  11   0.6406   0.2249   0.6315   0.1430   0.2969   0.5222   0.00    0.0   -0.01829   -0.00930   -0.03322   0.00000  0.00000  0.00000  0.00000  0.00000  0.00000
2268 259301.000   4403097.7623    668398.2369   4550495.8702   6  11   0.6370   0.2234   0.6278   0.1426   0.2950   0.5196   0.00    0.0    0.01578   -0.00526   -0.02071   0.00000  0.00000  0.00000  0.00000  0.00000  0.00000
2268 259302.000   4403097.7587    668398.2324   4550495.8424   6  11   0.6335   0.2218   0.6241   0.1422   0.2931   0.5169   0.00    0.0   -0.00285   -0.01970   -0.03116   0.00000  0.00000  0.00000  0.00000  0.00000  0.00000
2268 259303.000   4403097.7310    668398.2250   4550495.7978   6  11   0.6301   0.2203   0.6205   0.1418   0.2913   0.5144   0.00    0.0    0.03020    0.00222    0.03211   0.00000  0.00000  0.00000  0.00000  0.00000  0.00000
2268 259304.000   4403097.6955    668398.2245   4550495.7638   6  11   0.6268   0.2188   0.6170   0.1414   0.2895   0.5118   0.00    0.0   -0.01500   -0.00689   -0.01976   0.00000  0.00000  0.00000  0.00000  0.00000  0.00000
2268 259305.000   4403097.6699    668398.2264   4550495.7478   6  11   0.6235   0.2174   0.6136   0.1410   0.2878   0.5094   0.00    0.0   -0.00562    0.01264    0.02579   0.00000  0.00000  0.00000  0.00000  0.00000  0.00000
2268 259306.000   4403097.6507    668398.2284   4550495.7344   6  11   0.6203   0.2159   0.6102   0.1406   0.2861   0.5070   0.00    0.0    0.01557   -0.01754   -0.01002   0.00000  0.00000  0.00000  0.00000  0.00000  0.00000
2268 259307.000   4403097.6531    668398.2264   4550495.7265   6  11   0.6172   0.2146   0.6069   0.1402   0.2844   0.5046   0.00    0.0    0.00779   -0.01345   -0.05011   0.00000  0.00000  0.00000  0.00000  0.00000  0.00000
2268 259308.000   4403097.6550    668398.2220   4550495.7185   6  11   0.6141   0.2132   0.6036   0.1398   0.2827   0.5023   0.00    0.0    0.01236    0.01012   -0.00240   0.00000  0.00000  0.00000  0.00000  0.00000  0.00000
2268 259309.000   4403097.6718    668398.2184   4550495.7249   6  11   0.6111   0.2118   0.6005   0.1395   0.2811   0.5000   0.00    0.0   -0.00189   -0.00765   -0.00449   0.00000  0.00000  0.00000  0.00000  0.00000  0.00000
2268 259310.000   4403097.6926    668398.2180   4550495.7444   6  11   0.6081   0.2105   0.5974   0.1391   0.2796   0.4977   0.00    0.0    0.00588    0.00876    0.02672   0.00000  0.00000  0.00000  0.00000  0.00000  0.00000
2268 259311.000   4403097.7195    668398.2186   4550495.7660   6  11   0.6052   0.2092   0.5943   0.1388   0.2780   0.4956   0.00    0.0    0.00246   -0.00401    0.01146   0.00000  0.00000  0.00000  0.00000  0.00000  0.00000
2268 259312.000   4403097.7531    668398.2194   4550495.7952   6  11   0.6024   0.2080   0.5913   0.1384   0.2765   0.4934   0.00    0.0    0.00326   -0.00166   -0.00624   0.00000  0.00000  0.00000  0.00000  0.00000  0.00000
2268 259313.000   4403097.7865    668398.2220   4550495.8234   6  11   0.5996   0.2067   0.5884   0.1381   0.2750   0.4913   0.00    0.0   -0.01119   -0.01160   -0.01574   0.00000  0.00000  0.00000  0.00000  0.00000  0.00000
2268 259314.000   4403097.8134    668398.2280   4550495.8490   6  11   0.5968   0.2055   0.5855   0.1377   0.2736   0.4892   0.00    0.0    0.02013   -0.00478    0.03657   0.00000  0.00000  0.00000  0.00000  0.00000  0.00000
2268 259315.000   4403097.8309    668398.2331   4550495.8599   6  11   0.5941   0.2043   0.5827   0.1374   0.2722   0.4872   0.00    0.0   -0.01485    0.00386    0.00724   0.00000  0.00000  0.00000  0.00000  0.00000  0.00000
2268 259316.000   4403097.8540    668398.2399   4550495.8744   6  11   0.5914   0.2032   0.5799   0.1371   0.2708   0.4852   0.00    0.0    0.00072   -0.01230   -0.00593   0.00000  0.00000  0.00000  0.00000  0.00000  0.00000
2268 259317.000   4403097.8738    668398.2430   4550495.8851   6  11   0.5888   0.2020   0.5771   0.1367   0.2694   0.4832   0.00    0.0   -0.00082   -0.00215    0.01209   0.00000  0.00000  0.00000  0.00000  0.00000  0.00000
2268 259318.000   4403097.8895    668398.2472   4550495.8947   6  11   0.5863   0.2009   0.5745   0.1364   0.2680   0.4813   0.00    0.0    0.02645   -0.02144    0.00456   0.00000  0.00000  0.00000  0.00000  0.00000  0.00000
2268 259319.000   4403097.9052    668398.2517   4550495.9099   6  11   0.5837   0.1998   0.5718   0.1361   0.2667   0.4794   0.00    0.0    0.01440    0.00474    0.00316   0.00000  0.00000  0.00000  0.00000  0.00000  0.00000
2268 259320.000   4403097.9069    668398.2543   4550495.9192   6  11   0.5813   0.1987   0.5692   0.1358   0.2654   0.4775   0.00    0.0    0.02053   -0.02368   -0.05693   0.00000  0.00000  0.00000  0.00000  0.00000  0.00000
2268 259321.000   4403097.9031    668398.2565   4550495.9174   6  11   0.5788   0.1976   0.5667   0.1355   0.2641   0.4756   0.00    0.0    0.00959   -0.00233   -0.00898   0.00000  0.00000  0.00000  0.00000  0.00000  0.00000
2268 259322.000   4403097.8942    668398.2554   4550495.9083   6  11   0.5764   0.1966   0.5642   0.1352   0.2629   0.4738   0.00    0.0   -0.00575    0.00058   -0.00463   0.00000  0.00000  0.00000  0.00000  0.00000  0.00000
2268 259323.000   4403097.8809    668398.2502   4550495.8932   6  11   0.5741   0.1955   0.5617   0.1349   0.2616   0.4721   0.00    0.0   -0.01347    0.00809    0.03067   0.00000  0.00000  0.00000  0.00000  0.00000  0.00000
2268 259324.000   4403097.8786    668398.2453   4550495.8899   6  11   0.5717   0.1945   0.5593   0.1346   0.2604   0.4703   0.00    0.0    0.00737   -0.00235    0.00385   0.00000  0.00000  0.00000  0.00000  0.00000  0.00000
2268 259325.000   4403097.8857    668398.2409   4550495.8939   6  11   0.5694   0.1935   0.5569   0.1343   0.2592   0.4686   0.00    0.0   -0.00010    0.00893   -0.01205   0.00000  0.00000  0.00000  0.00000  0.00000  0.00000
2268 259326.000   4403097.8943    668398.2398   4550495.9030   6  11   0.5672   0.1925   0.5545   0.1341   0.2581   0.4669   0.00    0.0    0.00807   -0.00966    0.00204   0.00000  0.00000  0.00000  0.00000  0.00000  0.00000
2268 259327.000   4403097.9100    668398.2407   4550495.9225   6  11   0.5650   0.1915   0.5522   0.1338   0.2569   0.4652   0.00    0.0   -0.01116    0.01042    0.02996   0.00000  0.00000  0.00000  0.00000  0.00000  0.00000
2268 259328.000   4403097.9358    668398.2417   4550495.9443   6  11   0.5628   0.1906   0.5500   0.1335   0.2558   0.4636   0.00    0.0   -0.02271    0.00234    0.01063   0.00000  0.00000  0.00000  0.00000  0.00000  0.00000
2268 259329.000   4403097.9626    668398.2477   4550495.9729   6  11   0.5607   0.1896   0.5477   0.1332   0.2546   0.4619   0.00    0.0   -0.03071    0.00150    0.00715   0.00000  0.00000  0.00000  0.00000  0.00000  0.00000
2268 259330.000   4403097.9909    668398.2515   4550495.9958   6  11   0.5585   0.1887   0.5455   0.1330   0.2535   0.4603   0.00    0.0   -0.01424   -0.02640   -0.03313   0.00000  0.00000  0.00000  0.00000  0.00000  0.00000
2268 259331.000   4403098.0080    668398.2567   4550496.0168   6  11   0.5564   0.1878   0.5433   0.1327   0.2524   0.4588   0.00    0.0    0.02032    0.00450    0.02721   0.00000  0.00000  0.00000  0.00000  0.00000  0.00000
2268 259332.000   4403098.0198    668398.2612   4550496.0321   6  11   0.5544   0.1869   0.5412   0.1324   0.2514   0.4572   0.00    0.0    0.00602   -0.00257   -0.02121   0.00000  0.00000  0.00000  0.00000  0.00000  0.00000
2268 259333.000   4403098.0210    668398.2647   4550496.0322   6  11   0.5524   0.1860   0.5391   0.1322   0.2503   0.4557   0.00    0.0    0.00984    0.00784    0.06641   0.00000  0.00000  0.00000  0.00000  0.00000  0.00000
2268 259334.000   4403098.0154    668398.2650   4550496.0257   6  11   0.5504   0.1852   0.5370   0.1319   0.2493   0.4542   0.00    0.0    0.00342    0.00642    0.00800   0.00000  0.00000  0.00000  0.00000  0.00000  0.00000
2268 259335.000   4403098.0159    668398.2662   4550496.0232   6  11   0.5484   0.1843   0.5350   0.1317   0.2483   0.4527   0.00    0.0   -0.02645    0.00863    0.01411   0.00000  0.00000  0.00000  0.00000  0.00000  0.00000
2268 259336.000   4403098.0105    668398.2657   4550496.0137   6  11   0.5465   0.1835   0.5330   0.1314   0.2473   0.4512   0.00    0.0    0.01758   -0.00604   -0.01625   0.00000  0.00000  0.00000  0.00000  0.00000  0.00000
2268 259337.000   4403098.0008    668398.2692   4550496.0117   6  11   0.5446   0.1826   0.5310   0.1312   0.2463   0.4498   0.00    0.0   -0.00234    0.01869    0.01635   0.00000  0.00000  0.00000  0.00000  0.00000  0.00000
2268 259338.000   4403097.9969    668398.2704   4550496.0066   6  11   0.5427   0.1818   0.5290   0.1309   0.2453   0.4484   0.00    0.0   -0.00897   -0.00952   -0.00897   0.00000  0.00000  0.00000  0.00000  0.00000  0.00000
2268 259339.000   4403097.9836    668398.2744   4550496.0048   6  11   0.5408   0.1810   0.5271   0.1307   0.2443   0.4470   0.00    0.0   -0.00253   -0.00962   -0.00513   0.00000  0.00000  0.00000  0.00000  0.00000  0.00000
2268 259340.000   4403097.9727    668398.2794   4550496.0045   6  11   0.5390   0.1802   0.5252   0.1305   0.2434   0.4456   0.00    0.0    0.01132    0.00889    0.01766   0.00000  0.00000  0.00000  0.00000  0.00000  0.00000
2268 259341.000   4403097.9636    668398.2844   4550496.0094   6  11   0.5372   0.1794   0.5233   0.1302   0.2424   0.4442   0.00    0.0    0.00356   -0.00942    0.00376   0.00000  0.00000  0.00000  0.00000  0.00000  0.00000
2268 259342.000   4403097.9570    668398.2901   4550496.0176   6  11   0.5354   0.1786   0.5214   0.1300   0.2415   0.4429   0.00    0.0    0.04596    0.00783    0.02881   0.00000  0.00000  0.00000  0.00000  0.00000  0.00000
2268 259343.000   4403097.9569    668398.2947   4550496.0282   6  11   0.5336   0.1779   0.5196   0.1298   0.2406   0.4415   0.00    0.0    0.01956   -0.01589   -0.01795   0.00000  0.00000  0.00000  0.00000  0.00000  0.00000
2268 259344.000   4403097.9539    668398.2982   4550496.0407   6  11   0.5319   0.1771   0.5178   0.1295   0.2397   0.4402   0.00    0.0    0.00924   -0.01595   -0.02400   0.00000  0.00000  0.00000  0.00000  0.00000  0.00000
2268 259345.000   4403097.9497    668398.2985   4550496.0486   6  11   0.5301   0.1764   0.5160   0.1293   0.2388   0.4389   0.00    0.0    0.01508   -0.00921    0.00590   0.00000  0.00000  0.00000  0.00000  0.00000  0.00000
2268 259346.000   4403097.9400    668398.2991   4550496.0558   6  11   0.5284   0.1756   0.5143   0.1291   0.2380   0.4376   0.00    0.0    0.03703   -0.01563    0.01681   0.00000  0.00000  0.00000  0.00000  0.00000  0.00000
2268 259347.000   4403097.9323    668398.2963   4550496.0579   6  11   0.5268   0.1749   0.5125   0.1289   0.2371   0.4364   0.00    0.0    0.00644   -0.00360   -0.00702   0.00000  0.00000  0.00000  0.00000  0.00000  0.00000
2268 259348.000   4403097.9330    668398.2951   4550496.0686   6  11   0.5251   0.1742   0.5108   0.1287   0.2362   0.4351   0.00    0.0    0.00560   -0.00555   -0.02481   0.00000  0.00000  0.00000  0.00000  0.00000  0.00000
2268 259349.000   4403097.9426    668398.2950   4550496.0867   6  11   0.5235   0.1735   0.5091   0.1284   0.2354   0.4339   0.00    0.0   -0.00998    0.01527    0.01864   0.00000  0.00000  0.00000  0.00000  0.00000  0.00000
2268 259350.000   4403097.9614    668398.2953   4550496.1114   6  11   0.5219   0.1728   0.5075   0.1282   0.2346   0.4327   0.00    0.0    0.02088   -0.00938   -0.01300   0.00000  0.00000  0.00000  0.00000  0.00000  0.00000
2268 259351.000   4403097.9716    668398.2972   4550496.1309   6  11   0.5203   0.1721   0.5058   0.1280   0.2338   0.4315   0.00    0.0    0.00488   -0.00696   -0.00600   0.00000  0.00000  0.00000  0.00000  0.00000  0.00000
2268 259352.000   4403097.9860    668398.3001   4550496.1527   6  11   0.5187   0.1714   0.5042   0.1278   0.2329   0.4303   0.00    0.0   -0.01075    0.01003    0.00001   0.00000  0.00000  0.00000  0.00000  0.00000  0.00000
2268 259353.000   4403097.9967    668398.3031   4550496.1677   6  11   0.5171   0.1708   0.5026   0.1276   0.2322   0.4291   0.00    0.0   -0.03266   -0.00275   -0.05291   0.00000  0.00000  0.00000  0.00000  0.00000  0.00000
2268 259354.000   4403097.9936    668398.3053   4550496.1716   6  11   0.5156   0.1701   0.5010   0.1274   0.2314   0.4279   0.00    0.0   -0.01972   -0.01256   -0.01750   0.00000  0.00000  0.00000  0.00000  0.00000  0.00000
2268 259355.000   4403097.9913    668398.3069   4550496.1743   6  11   0.5141   0.1694   0.4994   0.1272   0.2306   0.4268   0.00    0.0   -0.01296   -0.00090    0.00235   0.00000  0.00000  0.00000  0.00000  0.00000  0.00000
2268 259356.000   4403097.9922    668398.3086   4550496.1755   6  11   0.5126   0.1688   0.4978   0.1270   0.2298   0.4256   0.00    0.0    0.00766   -0.02670   -0.03077   0.00000  0.00000  0.00000  0.00000  0.00000  0.00000
2268 259357.000   4403097.9998    668398.3121   4550496.1869   6  11   0.5111   0.1681   0.4963   0.1268   0.2291   0.4245   0.00    0.0   -0.00574    0.01006    0.00969   0.00000  0.00000  0.00000  0.00000  0.00000  0.00000
2268 259358.000   4403098.0011    668398.3135   4550496.1940   6  11   0.5096   0.1675   0.4948   0.1266   0.2283   0.4234   0.00    0.0    0.01252   -0.00908   -0.02512   0.00000  0.00000  0.00000  0.00000  0.00000  0.00000
2268 259359.000   4403098.0081    668398.3136   4550496.1973   6  11   0.5082   0.1669   0.4933   0.1264   0.2276   0.4223   0.00    0.0    0.02301   -0.00730   -0.00446   0.00000  0.00000  0.00000  0.00000  0.00000  0.00000
2268 259360.000   4403098.0125    668398.3161   4550496.2071   6  11   0.5068   0.1663   0.4918   0.1262   0.2268   0.4212   0.00    0.0    0.02343    0.00159    0.02721   0.00000  0.00000  0.00000  0.00000  0.00000  0.00000
2268 259361.000   4403098.0210    668398.3172   4550496.2224   6  11   0.5053   0.1657   0.4904   0.1260   0.2261   0.4201   0.00    0.0    0.01557   -0.00853   -0.02512   0.00000  0.00000  0.00000  0.00000  0.00000  0.00000
2268 259362.000   4403098.0286    668398.3174   4550496.2341   6  11   0.5039   0.1651   0.4889   0.1258   0.2254   0.4191   0.00    0.0    0.02387    0.00547    0.00580   0.00000  0.00000  0.00000  0.00000  0.00000  0.00000
2268 259363.000   4403098.0389    668398.3191   4550496.2495   6  11   0.5025   0.1645   0.4875   0.1256   0.2247   0.4180   0.00    0.0    0.00662    0.00607    0.01327   0.00000  0.00000  0.00000  0.00000  0.00000  0.00000
2268 259364.000   4403098.0512    668398.3183   4550496.2605   6  11   0.5012   0.1639   0.4861   0.1255   0.2240   0.4170   0.00    0.0   -0.01269   -0.00659   -0.00084   0.00000  0.00000  0.00000  0.00000  0.00000  0.00000
2268 259365.000   4403098.0679    668398.3171   4550496.2700   6  11   0.4998   0.1633   0.4847   0.1253   0.2233   0.4160   0.00    0.0    0.01806    0.02048    0.02349   0.00000  0.00000  0.00000  0.00000  0.00000  0.00000
2268 259366.000   4403098.0884    668398.3157   4550496.2834   6  11   0.4985   0.1627   0.4833   0.1251   0.2226   0.4149   0.00    0.0    0.05469   -0.01737    0.00344   0.00000  0.00000  0.00000  0.00000  0.00000  0.00000
2268 259367.000   4403098.1140    668398.3164   4550496.3054   6  11   0.4971   0.1622   0.4819   0.1249   0.2219   0.4139   0.00    0.0   -0.03242    0.00694   -0.01249   0.00000  0.00000  0.00000  0.00000  0.00000  0.00000
2268 259368.000   4403098.1345    668398.3178   4550496.3262   6  11   0.4958   0.1616   0.4805   0.1247   0.2213   0.4129   0.00    0.0    0.03570    0.01475    0.01019   0.00000  0.00000  0.00000  0.00000  0.00000  0.00000
2268 259369.000   4403098.1485    668398.3164   4550496.3409   6  11   0.4945   0.1610   0.4792   0.1245   0.2206   0.4120   0.00    0.0   -0.04712   -0.00194   -0.01782   0.00000  0.00000  0.00000  0.00000  0.00000  0.00000
2268 259370.000   4403098.1679    668398.3147   4550496.3529   6  11   0.4932   0.1605   0.4779   0.1244   0.2199   0.4110   0.00    0.0    0.00000   -0.00943   -0.01618   0.00000  0.00000  0.00000  0.00000  0.00000  0.00000
2268 259371.000   4403098.1778    668398.3164   4550496.3654   6  11   0.4920   0.1599   0.4766   0.1242   0.2193   0.4100   0.00    0.0    0.00119   -0.01874    0.00060   0.00000  0.00000  0.00000  0.00000  0.00000  0.00000
2268 259372.000   4403098.1839    668398.3215   4550496.3754   6  11   0.4907   0.1594   0.4753   0.1240   0.2187   0.4090   0.00    0.0    0.03479   -0.00846   -0.00731   0.00000  0.00000  0.00000  0.00000  0.00000  0.00000
2268 259373.000   4403098.1908    668398.3298   4550496.3961   6  11   0.4894   0.1589   0.4740   0.1238   0.2180   0.4081   0.00    0.0    0.00461   -0.00317    0.01676   0.00000  0.00000  0.00000  0.00000  0.00000  0.00000
2268 259374.000   4403098.1958    668398.3367   4550496.4062   6  11   0.4882   0.1583   0.4727   0.1237   0.2174   0.4072   0.00    0.0    0.01308   -0.01090   -0.01161   0.00000  0.00000  0.00000  0.00000  0.00000  0.00000
2268 259375.000   4403098.1985    668398.3416   4550496.4106   6  11   0.4870   0.1578   0.4715   0.1235   0.2168   0.4062   0.00    0.0    0.03225   -0.01568    0.03466   0.00000  0.00000  0.00000  0.00000  0.00000  0.00000
2268 259376.000   4403098.2060    668398.3452   4550496.4148   6  11   0.4858   0.1573   0.4702   0.1233   0.2162   0.4053   0.00    0.0    0.00813   -0.00939   -0.01842   0.00000  0.00000  0.00000  0.00000  0.00000  0.00000
2268 259377.000   4403098.2137    668398.3483   4550496.4147   6  11   0.4846   0.1568   0.4690   0.1232   0.2156   0.4044   0.00    0.0   -0.02266   -0.02093   -0.03700   0.00000  0.00000  0.00000  0.00000  0.00000  0.00000
2268 259378.000   4403098.2145    668398.3470   4550496.4055   6  11   0.4834   0.1563   0.4677   0.1230   0.2150   0.4035   0.00    0.0    0.03971   -0.00844   -0.00592   0.00000  0.00000  0.00000  0.00000  0.00000  0.00000
2268 259379.000   4403098.2195    668398.3446   4550496.4006   6  11   0.4822   0.1558   0.4665   0.1228   0.2144   0.4026   0.00    0.0    0.01315   -0.01311   -0.00255   0.00000  0.00000  0.00000  0.00000  0.00000  0.00000
2268 259380.000   4403098.2255    668398.3434   4550496.3967   6  11   0.4810   0.1553   0.4653   0.1227   0.2138   0.4017   0.00    0.0    0.00024    0.01143    0.05175   0.00000  0.00000  0.00000  0.00000  0.00000  0.00000
2268 259381.000   4403098.2375    668398.3417   4550496.3982   6  11   0.4799   0.1548   0.4642   0.1225   0.2132   0.4008   0.00    0.0   -0.05730    0.01167   -0.02655   0.00000  0.00000  0.00000  0.00000  0.00000  0.00000
2268 259382.000   4403098.2548    668398.3428   4550496.4042   6  11   0.4787   0.1543   0.4630   0.1223   0.2126   0.4000   0.00    0.0   -0.01655   -0.00432    0.00852   0.00000  0.00000  0.00000  0.00000  0.00000  0.00000
2268 259383.000   4403098.2615    668398.3434   4550496.4041   6  11   0.4776   0.1538   0.4618   0.1222   0.2120   0.3991   0.00    0.0    0.02521    0.01175    0.00240   0.00000  0.00000  0.00000  0.00000  0.00000  0.00000
2268 259384.000   4403098.2696    668398.3416   4550496.4048   6  11   0.4765   0.1534   0.4607   0.1220   0.2115   0.3982   0.00    0.0    0.02559    0.00810    0.03594   0.00000  0.00000  0.00000  0.00000  0.00000  0.00000
2268 259385.000   4403098.2761    668398.3427   4550496.4139   6  11   0.4754   0.1529   0.4595   0.1219   0.2109   0.3974   0.00    0.0    0.01832   -0.00427    0.00592   0.00000  0.00000  0.00000  0.00000  0.00000  0.00000
2268 259386.000   4403098.2904    668398.3431   4550496.4276   6  11   0.4743   0.1524   0.4584   0.1217   0.2104   0.3966   0.00    0.0    0.03775    0.00118    0.00168   0.00000  0.00000  0.00000  0.00000  0.00000  0.00000
2268 259387.000   4403098.3076    668398.3450   4550496.4443   6  11   0.4732   0.1520   0.4573   0.1215   0.2098   0.3957   0.00    0.0   -0.00123    0.01288    0.01260   0.00000  0.00000  0.00000  0.00000  0.00000  0.00000
2268 259388.000   4403098.3241    668398.3461   4550496.4629   6  11   0.4721   0.1515   0.4562   0.1214   0.2093   0.3949   0.00    0.0   -0.00960    0.01197    0.01004   0.00000  0.00000  0.00000  0.00000  0.00000  0.00000
2268 259389.000   4403098.3309    668398.3456   4550496.4733   6  11   0.4710   0.1511   0.4551   0.1212   0.2087   0.3941   0.00    0.0    0.04014    0.01217    0.02508   0.00000  0.00000  0.00000  0.00000  0.00000  0.00000
2268 259390.000   4403098.3314    668398.3439   4550496.4757   6  11   0.4700   0.1506   0.4540   0.1211   0.2082   0.3933   0.00    0.0    0.04859   -0.02251   -0.02378   0.00000  0.00000  0.00000  0.00000  0.00000  0.00000
2268 259391.000   4403098.3336    668398.3390   4550496.4733   6  11   0.4689   0.1502   0.4529   0.1209   0.2077   0.3925   0.00    0.0   -0.00236   -0.00085   -0.00086   0.00000  0.00000  0.00000  0.00000  0.00000  0.00000
2268 259392.000   4403098.3392    668398.3374   4550496.4791   6  11   0.4679   0.1497   0.4518   0.1208   0.2071   0.3917   0.00    0.0    0.00488   -0.00928   -0.03167   0.00000  0.00000  0.00000  0.00000  0.00000  0.00000
2268 259393.000   4403098.3486    668398.3351   4550496.4841   6  11   0.4668   0.1493   0.4508   0.1206   0.2066   0.3909   0.00    0.0    0.02803   -0.02542   -0.02447   0.00000  0.00000  0.00000  0.00000  0.00000  0.00000
2268 259394.000   4403098.3639    668398.3332   4550496.4926   6  11   0.4658   0.1489   0.4497   0.1205   0.2061   0.3901   0.00    0.0   -0.01076   -0.00341   -0.00177   0.00000  0.00000  0.00000  0.00000  0.00000  0.00000
2268 259395.000   4403098.3827    668398.3361   4550496.5060   6  11   0.4648   0.1484   0.4487   0.1203   0.2056   0.3893   0.00    0.0    0.05136    0.00531    0.03447   0.00000  0.00000  0.00000  0.00000  0.00000  0.00000
2268 259396.000   4403098.3993    668398.3380   4550496.5150   6  11   0.4638   0.1480   0.4476   0.1202   0.2051   0.3886   0.00    0.0   -0.00396   -0.01005   -0.02568   0.00000  0.00000  0.00000  0.00000  0.00000  0.00000
2268 259397.000   4403098.4178    668398.3386   4550496.5231   6  11   0.4628   0.1476   0.4466   0.1200   0.2046   0.3878   0.00    0.0    0.00684    0.00068    0.00026   0.00000  0.00000  0.00000  0.00000  0.00000  0.00000
2268 259398.000   4403098.4391    668398.3390   4550496.5306   6  11   0.4618   0.1472   0.4456   0.1199   0.2041   0.3870   0.00    0.0    0.04808   -0.00148    0.00232   0.00000  0.00000  0.00000  0.00000  0.00000  0.00000
2268 259399.000   4403098.4555    668398.3394   4550496.5392   6  11   0.4608   0.1468   0.4446   0.1197   0.2036   0.3863   0.00    0.0    0.01576   -0.01073   -0.01962   0.00000  0.00000  0.00000  0.00000  0.00000  0.00000
2268 259400.000   4403098.4651    668398.3367   4550496.5363   6  11   0.4598   0.1464   0.4436   0.1196   0.2031   0.3855   0.00    0.0    0.01126    0.00330   -0.01193   0.00000  0.00000  0.00000  0.00000  0.00000  0.00000
2268 259401.000   4403098.4774    668398.3346   4550496.5348   6  11   0.4589   0.1460   0.4426   0.1195   0.2026   0.3848   0.00    0.0    0.00882   -0.02773   -0.02352   0.00000  0.00000  0.00000  0.00000  0.00000  0.00000
2268 259402.000   4403098.4802    668398.3348   4550496.5329   6  11   0.4579   0.1456   0.4416   0.1193   0.2022   0.3841   0.00    0.0    0.00781   -0.00291    0.00089   0.00000  0.00000  0.00000  0.00000  0.00000  0.00000
2268 259403.000   4403098.4753    668398.3338   4550496.5280   6  11   0.4570   0.1452   0.4406   0.1192   0.2017   0.3833   0.00    0.0   -0.01054   -0.00845   -0.03300   0.00000  0.00000  0.00000  0.00000  0.00000  0.00000
2268 259404.000   4403098.4685    668398.3347   4550496.5246   6  11   0.4560   0.1448   0.4397   0.1190   0.2012   0.3826   0.00    0.0    0.01662   -0.00278   -0.00108   0.00000  0.00000  0.00000  0.00000  0.00000  0.00000
2268 259405.000   4403098.4624    668398.3348   4550496.5209   6  11   0.4551   0.1444   0.4387   0.1189   0.2007   0.3819   0.00    0.0    0.02333   -0.00235    0.01514   0.00000  0.00000  0.00000  0.00000  0.00000  0.00000
2268 259406.000   4403098.4612    668398.3379   4550496.5254   6  11   0.4542   0.1440   0.4378   0.1188   0.2003   0.3812   0.00    0.0    0.01055    0.00048   -0.01691   0.00000  0.00000  0.00000  0.00000  0.00000  0.00000
2268 259407.000   4403098.4657    668398.3408   4550496.5363   6  11   0.4532   0.1436   0.4368   0.1186   0.1998   0.3805   0.00    0.0   -0.00030   -0.00874   -0.02202   0.00000  0.00000  0.00000  0.00000  0.00000  0.00000
2268 259408.000   4403098.4692    668398.3432   4550496.5465   6  11   0.4523   0.1432   0.4359   0.1185   0.1994   0.3798   0.00    0.0   -0.00351    0.00508    0.00196   0.00000  0.00000  0.00000  0.00000  0.00000  0.00000
2268 259409.000   4403098.4739    668398.3447   4550496.5517   6  11   0.4514   0.1428   0.4350   0.1183   0.1989   0.3791   0.00    0.0    0.01948   -0.00076    0.00862   0.00000  0.00000  0.00000  0.00000  0.00000  0.00000
2268 259410.000   4403098.4830    668398.3465   4550496.5593   6  11   0.4505   0.1425   0.4340   0.1182   0.1985   0.3784   0.00    0.0    0.01036    0.00448    0.00295   0.00000  0.00000  0.00000  0.00000  0.00000  0.00000
2268 259411.000   4403098.4853    668398.3471   4550496.5640   6  11   0.4496   0.1421   0.4331   0.1181   0.1980   0.3777   0.00    0.0    0.04032   -0.00313   -0.00220   0.00000  0.00000  0.00000  0.00000  0.00000  0.00000
2268 259412.000   4403098.4814    668398.3473   4550496.5653   6  11   0.4487   0.1417   0.4322   0.1179   0.1976   0.3770   0.00    0.0    0.01638    0.00169    0.04218   0.00000  0.00000  0.00000  0.00000  0.00000  0.00000
2268 259413.000   4403098.4811    668398.3467   4550496.5672   6  11   0.4479   0.1414   0.4313   0.1178   0.1971   0.3764   0.00    0.0    0.01271   -0.02657   -0.03864   0.00000  0.00000  0.00000  0.00000  0.00000  0.00000
2268 259414.000   4403098.4845    668398.3472   4550496.5715   6  11   0.4470   0.1410   0.4304   0.1177   0.1967   0.3757   0.00    0.0    0.02074   -0.00524   -0.02821   0.00000  0.00000  0.00000  0.00000  0.00000  0.00000
2268 259415.000   4403098.4936    668398.3485   4550496.5836   6  11   0.4461   0.1406   0.4295   0.1175   0.1963   0.3750   0.00    0.0   -0.01810   -0.02507   -0.06120   0.00000  0.00000  0.00000  0.00000  0.00000  0.00000
2268 259416.000   4403098.5057    668398.3490   4550496.5924   6  11   0.4453   0.1403   0.4287   0.1174   0.1958   0.3744   0.00    0.0   -0.02536    0.01490    0.01472   0.00000  0.00000  0.00000  0.00000  0.00000  0.00000
2268 259417.000   4403098.5171    668398.3489   4550496.6002   6  11   0.4444   0.1399   0.4278   0.1173   0.1954   0.3737   0.00    0.0   -0.01144    0.00450    0.04704   0.00000  0.00000  0.00000  0.00000  0.00000  0.00000
2268 259418.000   4403098.5230    668398.3490   4550496.6075   6  11   0.4436   0.1396   0.4269   0.1171   0.1950   0.3731   0.00    0.0    0.00219    0.00380    0.01591   0.00000  0.00000  0.00000  0.00000  0.00000  0.00000
2268 259419.000   4403098.5233    668398.3468   4550496.6040   6  11   0.4427   0.1392   0.4261   0.1170   0.1946   0.3724   0.00    0.0   -0.02580    0.00429    0.00159   0.00000  0.00000  0.00000  0.00000  0.00000  0.00000
2268 259420.000   4403098.5162    668398.3457   4550496.5967   6  11   0.4419   0.1389   0.4252   0.1169   0.1942   0.3718   0.00    0.0    0.00151   -0.01039    0.02659   0.00000  0.00000  0.00000  0.00000  0.00000  0.00000
2268 259421.000   4403098.5114    668398.3422   4550496.5881   6  11   0.4411   0.1385   0.4244   0.1168   0.1938   0.3712   0.00    0.0   -0.02294   -0.01165   -0.01972   0.00000  0.00000  0.00000  0.00000  0.00000  0.00000
2268 259422.000   4403098.5023    668398.3382   4550496.5761   6  11   0.4402   0.1382   0.4235   0.1166   0.1934   0.3705   0.00    0.0    0.01599   -0.01572   -0.00884   0.00000  0.00000  0.00000  0.00000  0.00000  0.00000
2268 259423.000   4403098.4987    668398.3347   4550496.5711   6  11   0.4394   0.1379   0.4227   0.1165   0.1930   0.3699   0.00    0.0   -0.01059   -0.01032   -0.03181   0.00000  0.00000  0.00000  0.00000  0.00000  0.00000
2268 259424.000   4403098.4880    668398.3323   4550496.5668   6  11   0.4386   0.1375   0.4219   0.1164   0.1926   0.3693   0.00    0.0    0.02540    0.00733    0.01041   0.00000  0.00000  0.00000  0.00000  0.00000  0.00000
2268 259425.000   4403098.4839    668398.3306   4550496.5649   6  11   0.4378   0.1372   0.4211   0.1163   0.1922   0.3687   0.00    0.0   -0.00887   -0.01035   -0.02861   0.00000  0.00000  0.00000  0.00000  0.00000  0.00000
2268 259426.000   4403098.4784    668398.3264   4550496.5600   6  11   0.4370   0.1369   0.4203   0.1161   0.1918   0.3680   0.00    0.0    0.02819   -0.00787    0.01948   0.00000  0.00000  0.00000  0.00000  0.00000  0.00000
2268 259427.000   4403098.4804    668398.3220   4550496.5561   6  11   0.4362   0.1365   0.4194   0.1160   0.1914   0.3674   0.00    0.0   -0.00984    0.01688   -0.00577   0.00000  0.00000  0.00000  0.00000  0.00000  0.00000
2268 259428.000   4403098.4809    668398.3204   4550496.5551   6  11   0.4354   0.1362   0.4186   0.1159   0.1910   0.3668   0.00    0.0    0.02877   -0.02145   -0.02993   0.00000  0.00000  0.00000  0.00000  0.00000  0.00000
2268 259429.000   4403098.4855    668398.3194   4550496.5586   6  11   0.4346   0.1359   0.4178   0.1158   0.1906   0.3662   0.00    0.0    0.00471    0.00675    0.00546   0.00000  0.00000  0.00000  0.00000  0.00000  0.00000
2268 259430.000   4403098.4870    668398.3199   4550496.5632   6  11   0.4339   0.1356   0.4171   0.1156   0.1902   0.3656   0.00    0.0    0.01545    0.00587    0.02242   0.00000  0.00000  0.00000  0.00000  0.00000  0.00000
2268 259431.000   4403098.4936    668398.3225   4550496.5711   6  11   0.4331   0.1353   0.4163   0.1155   0.1898   0.3650   0.00    0.0    0.01397    0.00772    0.00420   0.00000  0.00000  0.00000  0.00000  0.00000  0.00000
2268 259432.000   4403098.4972    668398.3242   4550496.5809   6  11   0.4323   0.1349   0.4155   0.1154   0.1894   0.3644   0.00    0.0   -0.02584    0.01580   -0.03076   0.00000  0.00000  0.00000  0.00000  0.00000  0.00000
2268 259433.000   4403098.4958    668398.3244   4550496.5816   6  11   0.4316   0.1346   0.4147   0.1153   0.1891   0.3639   0.00    0.0    0.02281    0.00545    0.02550   0.00000  0.00000  0.00000  0.00000  0.00000  0.00000
2268 259434.000   4403098.5004    668398.3249   4550496.5852   6  11   0.4308   0.1343   0.4139   0.1152   0.1887   0.3633   0.00    0.0    0.02601   -0.01475   -0.02016   0.00000  0.00000  0.00000  0.00000  0.00000  0.00000
2268 259435.000   4403098.4987    668398.3264   4550496.5858   6  11   0.4301   0.1340   0.4132   0.1151   0.1883   0.3627   0.00    0.0   -0.00704   -0.02031   -0.05607   0.00000  0.00000  0.00000  0.00000  0.00000  0.00000
2268 259436.000   4403098.4978    668398.3279   4550496.5886   6  11   0.4293   0.1337   0.4124   0.1149   0.1880   0.3621   0.00    0.0    0.03047    0.01507    0.02999   0.00000  0.00000  0.00000  0.00000  0.00000  0.00000
2268 259437.000   4403098.5028    668398.3304   4550496.5976   6  11   0.4286   0.1334   0.4117   0.1148   0.1876   0.3615   0.00    0.0    0.00833   -0.03027   -0.03289   0.00000  0.00000  0.00000  0.00000  0.00000  0.00000
2268 259438.000   4403098.5133    668398.3322   4550496.6071   6  11   0.4278   0.1331   0.4109   0.1147   0.1872   0.3610   0.00    0.0   -0.00837    0.00016    0.00019   0.00000  0.00000  0.00000  0.00000  0.00000  0.00000
2268 259439.000   4403098.5214    668398.3329   4550496.6116   6  11   0.4271   0.1328   0.4102   0.1146   0.1869   0.3604   0.00    0.0   -0.00221    0.02149    0.00634   0.00000  0.00000  0.00000  0.00000  0.00000  0.00000
2268 259440.000   4403098.5309    668398.3347   4550496.6164   6  11   0.4264   0.1325   0.4094   0.1145   0.1865   0.3599   0.00    0.0   -0.01229    0.01500    0.01779   0.00000  0.00000  0.00000  0.00000  0.00000  0.00000
2268 259441.000   4403098.5421    668398.3352   4550496.6211   6  11   0.4257   0.1322   0.4087   0.1144   0.1862   0.3593   0.00    0.0   -0.01934    0.01188    0.00240   0.00000  0.00000  0.00000  0.00000  0.00000  0.00000
2268 259442.000   4403098.5494    668398.3342   4550496.6234   6  11   0.4250   0.1319   0.4080   0.1142   0.1858   0.3587   0.00    0.0   -0.00479    0.00413   -0.01707   0.00000  0.00000  0.00000  0.00000  0.00000  0.00000
2268 259443.000   4403098.5566    668398.3319   4550496.6255   6  11   0.4242   0.1316   0.4073   0.1141   0.1855   0.3582   0.00    0.0    0.02973   -0.00496    0.00308   0.00000  0.00000  0.00000  0.00000  0.00000  0.00000
2268 259444.000   4403098.5630    668398.3305   4550496.6262   6  11   0.4235   0.1313   0.4065   0.1140   0.1851   0.3576   0.00    0.0   -0.00256   -0.00419   -0.05930   0.00000  0.00000  0.00000  0.00000  0.00000  0.00000
2268 259445.000   4403098.5659    668398.3294   4550496.6276   6  11   0.4228   0.1311   0.4058   0.1139   0.1848   0.3571   0.00    0.0   -0.00622   -0.00181    0.02099   0.00000  0.00000  0.00000  0.00000  0.00000  0.00000
2268 259446.000   4403098.5672    668398.3286   4550496.6298   6  11   0.4221   0.1308   0.4051   0.1138   0.1844   0.3566   0.00    0.0   -0.00146   -0.00651    0.00066   0.00000  0.00000  0.00000  0.00000  0.00000  0.00000
2268 259447.000   4403098.5689    668398.3296   4550496.6359   6  11   0.4214   0.1305   0.4044   0.1137   0.1841   0.3560   0.00    0.0    0.01963    0.00231   -0.00437   0.00000  0.00000  0.00000  0.00000  0.00000  0.00000
2268 259448.000   4403098.5666    668398.3316   4550496.6391   6  11   0.4207   0.1302   0.4037   0.1136   0.1837   0.3555   0.00    0.0   -0.01228   -0.01421   -0.01242   0.00000  0.00000  0.00000  0.00000  0.00000  0.00000
2268 259449.000   4403098.5656    668398.3337   4550496.6414   6  11   0.4201   0.1299   0.4030   0.1135   0.1834   0.3550   0.00    0.0    0.04766    0.00006    0.03488   0.00000  0.00000  0.00000  0.00000  0.00000  0.00000
2268 259450.000   4403098.5676    668398.3360   4550496.6454   6  11   0.4194   0.1297   0.4023   0.1133   0.1831   0.3544   0.00    0.0    0.00914   -0.01461   -0.01560   0.00000  0.00000  0.00000  0.00000  0.00000  0.00000
2268 259451.000   4403098.5719    668398.3375   4550496.6484   6  11   0.4187   0.1294   0.4016   0.1132   0.1827   0.3539   0.00    0.0    0.02125    0.01440    0.04818   0.00000  0.00000  0.00000  0.00000  0.00000  0.00000
2268 259452.000   4403098.5788    668398.3395   4550496.6518   6  11   0.4180   0.1291   0.4009   0.1131   0.1824   0.3534   0.00    0.0    0.00613    0.00904    0.00126   0.00000  0.00000  0.00000  0.00000  0.00000  0.00000
2268 259453.000   4403098.5852    668398.3399   4550496.6538   6  11   0.4174   0.1288   0.4003   0.1130   0.1821   0.3529   0.00    0.0    0.02799    0.02298    0.07484   0.00000  0.00000  0.00000  0.00000  0.00000  0.00000
2268 259454.000   4403098.5880    668398.3411   4550496.6555   6  11   0.4167   0.1286   0.3996   0.1129   0.1818   0.3524   0.00    0.0   -0.00047    0.00765    0.01413   0.00000  0.00000  0.00000  0.00000  0.00000  0.00000
2268 259455.000   4403098.5926    668398.3431   4550496.6603   6  11   0.4160   0.1283   0.3989   0.1128   0.1814   0.3519   0.00    0.0   -0.00511   -0.00832   -0.02280   0.00000  0.00000  0.00000  0.00000  0.00000  0.00000
2268 259456.000   4403098.5958    668398.3426   4550496.6644   6  11   0.4154   0.1280   0.3983   0.1127   0.1811   0.3513   0.00    0.0    0.02898   -0.01615    0.01459   0.00000  0.00000  0.00000  0.00000  0.00000  0.00000
2268 259457.000   4403098.6025    668398.3423   4550496.6713   6  11   0.4147   0.1278   0.3976   0.1126   0.1808   0.3508   0.00    0.0    0.04132   -0.00996    0.01648   0.00000  0.00000  0.00000  0.00000  0.00000  0.00000
2268 259458.000   4403098.6104    668398.3446   4550496.6846   6  11   0.4141   0.1275   0.3969   0.1125   0.1805   0.3503   0.00    0.0   -0.00769    0.01135    0.03029   0.00000  0.00000  0.00000  0.00000  0.00000  0.00000
2268 259459.000   4403098.6157    668398.3459   4550496.6926   6  11   0.4134   0.1272   0.3963   0.1124   0.1802   0.3498   0.00    0.0    0.02317   -0.00032    0.01527   0.00000  0.00000  0.00000  0.00000  0.00000  0.00000
2268 259460.000   4403098.6191    668398.3462   4550496.6972   6  11   0.4128   0.1270   0.3956   0.1123   0.1799   0.3493   0.00    0.0   -0.00510   -0.00775   -0.00528   0.00000  0.00000  0.00000  0.00000  0.00000  0.00000
2268 259461.000   4403098.6179    668398.3461   4550496.6951   6  11   0.4122   0.1267   0.3950   0.1122   0.1795   0.3488   0.00    0.0    0.00993   -0.03592   -0.05440   0.00000  0.00000  0.00000  0.00000  0.00000  0.00000
2268 259462.000   4403098.6109    668398.3440   4550496.6866   6  11   0.4115   0.1265   0.3943   0.1121   0.1792   0.3484   0.00    0.0   -0.01384   -0.01569   -0.00053   0.00000  0.00000  0.00000  0.00000  0.00000  0.00000
2268 259463.000   4403098.6078    668398.3409   4550496.6783   6  11   0.4109   0.1262   0.3937   0.1120   0.1789   0.3479   0.00    0.0    0.06247   -0.02468    0.00541   0.00000  0.00000  0.00000  0.00000  0.00000  0.00000
2268 259464.000   4403098.6056    668398.3383   4550496.6704   6  11   0.4103   0.1260   0.3931   0.1119   0.1786   0.3474   0.00    0.0    0.01756   -0.01425   -0.01539   0.00000  0.00000  0.00000  0.00000  0.00000  0.00000
2268 259465.000   4403098.6118    668398.3363   4550496.6699   6  11   0.4096   0.1257   0.3924   0.1118   0.1783   0.3469   0.00    0.0    0.01838   -0.00750   -0.00788   0.00000  0.00000  0.00000  0.00000  0.00000  0.00000
2268 259466.000   4403098.6190    668398.3359   4550496.6742   6  11   0.4090   0.1255   0.3918   0.1117   0.1780   0.3464   0.00    0.0    0.00245   -0.00669   -0.04092   0.00000  0.00000  0.00000  0.00000  0.00000  0.00000
2268 259467.000   4403098.6285    668398.3360   4550496.6807   6  11   0.4084   0.1252   0.3912   0.1116   0.1777   0.3459   0.00    0.0   -0.00559    0.02509    0.05473   0.00000  0.00000  0.00000  0.00000  0.00000  0.00000
2268 259468.000   4403098.6381    668398.3360   4550496.6874   6  11   0.4078   0.1250   0.3906   0.1114   0.1774   0.3455   0.00    0.0   -0.04687    0.00222   -0.02590   0.00000  0.00000  0.00000  0.00000  0.00000  0.00000
2268 259469.000   4403098.6439    668398.3366   4550496.6932   6  11   0.4072   0.1247   0.3899   0.1113   0.1771   0.3450   0.00    0.0    0.00216   -0.01369   -0.00418   0.00000  0.00000  0.00000  0.00000  0.00000  0.00000
2268 259470.000   4403098.6503    668398.3368   4550496.6980   6  11   0.4066   0.1245   0.3893   0.1112   0.1768   0.3445   0.00    0.0    0.00437   -0.00208   -0.01793   0.00000  0.00000  0.00000  0.00000  0.00000  0.00000
2268 259471.000   4403098.6571    668398.3395   4550496.7079   6  11   0.4060   0.1242   0.3887   0.1111   0.1765   0.3441   0.00    0.0   -0.02016    0.00092   -0.01278   0.00000  0.00000  0.00000  0.00000  0.00000  0.00000
2268 259472.000   4403098.6666    668398.3410   4550496.7173   6  11   0.4054   0.1240   0.3881   0.1110   0.1762   0.3436   0.00    0.0   -0.00486    0.02313    0.05265   0.00000  0.00000  0.00000  0.00000  0.00000  0.00000
2268 259473.000   4403098.6781    668398.3444   4550496.7333   6  11   0.4048   0.1238   0.3875   0.1109   0.1760   0.3431   0.00    0.0   -0.01502    0.00789    0.01647   0.00000  0.00000  0.00000  0.00000  0.00000  0.00000
2268 259474.000   4403098.6909    668398.3485   4550496.7519   6  11   0.4042   0.1235   0.3869   0.1108   0.1757   0.3427   0.00    0.0    0.00748   -0.00484    0.01574   0.00000  0.00000  0.00000  0.00000  0.00000  0.00000
2268 259475.000   4403098.7019    668398.3528   4550496.7691   6  11   0.4036   0.1233   0.3863   0.1108   0.1754   0.3422   0.00    0.0    0.02097    0.00593    0.02847   0.00000  0.00000  0.00000  0.00000  0.00000  0.00000
2268 259476.000   4403098.7107    668398.3575   4550496.7826   6  11   0.4030   0.1231   0.3857   0.1107   0.1751   0.3418   0.00    0.0    0.03375    0.02112    0.04342   0.00000  0.00000  0.00000  0.00000  0.00000  0.00000
2268 259477.000   4403098.7166    668398.3606   4550496.7936   6  11   0.4025   0.1228   0.3851   0.1106   0.1748   0.3413   0.00    0.0    0.01822    0.00733    0.02022   0.00000  0.00000  0.00000  0.00000  0.00000  0.00000
2268 259478.000   4403098.7232    668398.3633   4550496.8026   6  11   0.4019   0.1226   0.3845   0.1105   0.1745   0.3408   0.00    0.0    0.05190   -0.02685   -0.00952   0.00000  0.00000  0.00000  0.00000  0.00000  0.00000
2268 259479.000   4403098.7297    668398.3648   4550496.8099   6  11   0.4013   0.1224   0.3840   0.1104   0.1743   0.3404   0.00    0.0    0.01719   -0.00364   -0.00166   0.00000  0.00000  0.00000  0.00000  0.00000  0.00000
2268 259480.000   4403098.7360    668398.3663   4550496.8162   6  11   0.4007   0.1221   0.3834   0.1103   0.1740   0.3400   0.00    0.0    0.02101   -0.00609   -0.02071   0.00000  0.00000  0.00000  0.00000  0.00000  0.00000
2268 259481.000   4403098.7393    668398.3679   4550496.8220   6  11   0.4002   0.1219   0.3828   0.1102   0.1737   0.3395   0.00    0.0   -0.01592   -0.00791   -0.00085   0.00000  0.00000  0.00000  0.00000  0.00000  0.00000
2268 259482.000   4403098.7408    668398.3693   4550496.8259   6  11   0.3996   0.1217   0.3822   0.1101   0.1734   0.3391   0.00    0.0    0.03356   -0.01741   -0.01821   0.00000  0.00000  0.00000  0.00000  0.00000  0.00000
2268 259483.000   4403098.7442    668398.3712   4550496.8307   6  11   0.3990   0.1215   0.3817   0.1100   0.1732   0.3386   0.00    0.0    0.02705   -0.00711    0.01034   0.00000  0.00000  0.00000  0.00000  0.00000  0.00000
2268 259484.000   4403098.7466    668398.3727   4550496.8344   6  11   0.3985   0.1212   0.3811   0.1099   0.1729   0.3382   0.00    0.0    0.01467   -0.00594   -0.00580   0.00000  0.00000  0.00000  0.00000  0.00000  0.00000
2268 259485.000   4403098.7568    668398.3745   4550496.8420   6  11   0.3979   0.1210   0.3805   0.1098   0.1726   0.3378   0.00    0.0   -0.02528   -0.00398    0.00928   0.00000  0.00000  0.00000  0.00000  0.00000  0.00000
2268 259486.000   4403098.7608    668398.3770   4550496.8444   6  11   0.3974   0.1208   0.3800   0.1097   0.1723   0.3373   0.00    0.0    0.03934   -0.01482   -0.00921   0.00000  0.00000  0.00000  0.00000  0.00000  0.00000
2268 259487.000   4403098.7645    668398.3802   4550496.8485   6  11   0.3968   0.1206   0.3794   0.1096   0.1721   0.3369   0.00    0.0   -0.03003   -0.00231   -0.03564   0.00000  0.00000  0.00000  0.00000  0.00000  0.00000
2268 259488.000   4403098.7712    668398.3841   4550496.8591   6  11   0.3963   0.1204   0.3789   0.1095   0.1718   0.3365   0.00    0.0    0.01675    0.00591   -0.00672   0.00000  0.00000  0.00000  0.00000  0.00000  0.00000
2268 259489.000   4403098.7787    668398.3875   4550496.8690   6  11   0.3957   0.1201   0.3783   0.1094   0.1715   0.3360   0.00    0.0   -0.01150   -0.00508   -0.03315   0.00000  0.00000  0.00000  0.00000  0.00000  0.00000
2268 259490.000   4403098.7881    668398.3902   4550496.8783   6  11   0.3952   0.1199   0.3778   0.1093   0.1713   0.3356   0.00    0.0    0.00966   -0.00242    0.01523   0.00000  0.00000  0.00000  0.00000  0.00000  0.00000
2268 259491.000   4403098.7958    668398.3928   4550496.8862   6  11   0.3946   0.1197   0.3772   0.1092   0.1710   0.3352   0.00    0.0    0.00476   -0.01142   -0.00332   0.00000  0.00000  0.00000  0.00000  0.00000  0.00000
2268 259492.000   4403098.8027    668398.3936   4550496.8902   6  11   0.3941   0.1195   0.3767   0.1091   0.1708   0.3348   0.00    0.0    0.01442   -0.01579   -0.02159   0.00000  0.00000  0.00000  0.00000  0.00000  0.00000
