% program   : GINav v0.1.0
% obs start : 2023/06/28 00:00:20.0
% obs end   : 2023/06/28 00:25:20.0
% mode      : SPP
% system    : GPS GALILEO 
% nfreqs    : 2
% elev mask : 10.0 deg
% ephemeris : broadcast
% ionos opt : off
% trops opt : off
%
%  GPST              x-ecef(m)      y-ecef(m)      z-ecef(m)   Q  ns   sdx(m)   sdy(m)   sdz(m)  sdxy(m)  sdyz(m)  sdzx(m) age(s)  ratio    vx(m/s)    vy(m/s)    vz(m/s)      sdvx     sdvy     sdvz    sdvxy    sdvyz    sdvzx
2268 259220.023   6378136.8625        -0.1611         0.0290   5   9   6.8736   2.6958   2.0560  -0.9624  -1.4258  -1.9907   0.00    0.0   -0.01685   -0.01450   -0.01521   0.00000  0.00000  0.00000  0.00000  0.00000  0.00000
2268 259221.023   6378136.5009         0.0581         0.0627   5   9   6.8749   2.6954   2.0562  -0.9606  -1.4255  -1.9925   0.00    0.0   -0.03087   -0.01570    0.01159   0.00000  0.00000  0.00000  0.00000  0.00000  0.00000
2268 259222.023   6378135.9068        -0.0305         0.0536   5  11   6.8228   2.6945   2.0543  -0.9368  -1.4267  -1.9747   0.00    0.0   -0.06569    0.04395   -0.02722   0.00000  0.00000  0.00000  0.00000  0.00000  0.00000
2268 259223.023   6378135.4925        -0.1776         0.0112   5  11   6.8240   2.6941   2.0545  -0.9350  -1.4264  -1.9764   0.00    0.0   -0.01733   -0.01561    0.00963   0.00000  0.00000  0.00000  0.00000  0.00000  0.00000
2268 259224.023   6378136.4225        -0.3176        -0.0043   5  11   6.8253   2.6937   2.0548  -0.9332  -1.4261  -1.9782   0.00    0.0   -0.00387    0.03978    0.02229   0.00000  0.00000  0.00000  0.00000  0.00000  0.00000
2268 259225.023   6378136.7037        -0.0287         0.1541   5  12   6.7880   2.6912   2.0511  -0.8886  -1.4305  -1.9566   0.00    0.0    0.00946    0.02743    0.03973   0.00000  0.00000  0.00000  0.00000  0.00000  0.00000
2268 259226.023   6378136.8604         0.1003         0.0655   5  12   6.7892   2.6908   2.0513  -0.8867  -1.4302  -1.9583   0.00    0.0    0.01776   -0.03633    0.01489   0.00000  0.00000  0.00000  0.00000  0.00000  0.00000
2268 259227.023   6378137.1497         0.0479        -0.1462   5  12   6.7904   2.6904   2.0516  -0.8848  -1.4299  -1.9600   0.00    0.0   -0.04000   -0.01751   -0.00729   0.00000  0.00000  0.00000  0.00000  0.00000  0.00000
2268 259228.023   6378136.2901        -0.1532         0.1585   5  14   6.7887   2.6849   2.0465  -0.8641  -1.4298  -1.9609   0.00    0.0    0.04427    0.02563   -0.00276   0.00000  0.00000  0.00000  0.00000  0.00000  0.00000
2268 259229.023   6378136.6835        -0.1470         0.1946   5  14   6.7899   2.6845   2.0467  -0.8621  -1.4295  -1.9626   0.00    0.0   -0.04396   -0.00487   -0.02005   0.00000  0.00000  0.00000  0.00000  0.00000  0.00000
2268 259230.023   6378136.5623        -0.5574         0.3608   5  14   6.7912   2.6842   2.0470  -0.8602  -1.4292  -1.9643   0.00    0.0    0.01837   -0.00814    0.02575   0.00000  0.00000  0.00000  0.00000  0.00000  0.00000
2268 259231.023   6378136.9595        -0.3517         0.2205   5  14   6.7924   2.6838   2.0472  -0.8582  -1.4289  -1.9660   0.00    0.0   -0.06015    0.01949   -0.02362   0.00000  0.00000  0.00000  0.00000  0.00000  0.00000
2268 259232.023   6378136.0539        -0.3826         0.2717   5  14   6.7936   2.6834   2.0474  -0.8562  -1.4286  -1.9676   0.00    0.0   -0.01510   -0.01250    0.00982   0.00000  0.00000  0.00000  0.00000  0.00000  0.00000
2268 259233.023   6378137.0876        -0.3468         0.0901   5  14   6.7948   2.6830   2.0476  -0.8543  -1.4284  -1.9693   0.00    0.0    0.00757   -0.03275    0.00589   0.00000  0.00000  0.00000  0.00000  0.00000  0.00000
2268 259234.023   6378137.0809        -0.0031         0.1489   5  15   6.7857   2.6705   2.0448  -0.9065  -1.4180  -1.9603   0.00    0.0    0.03505   -0.00150   -0.00423   0.00000  0.00000  0.00000  0.00000  0.00000  0.00000
2268 259235.023   6378137.4284        -0.0111         0.2429   5  15   6.7869   2.6702   2.0450  -0.9047  -1.4177  -1.9620   0.00    0.0   -0.02981   -0.00434   -0.00384   0.00000  0.00000  0.00000  0.00000  0.00000  0.00000
2268 259236.023   6378137.4541         0.2506         0.1324   5  15   6.7881   2.6698   2.0452  -0.9028  -1.4175  -1.9637   0.00    0.0    0.05158    0.01011    0.02220   0.00000  0.00000  0.00000  0.00000  0.00000  0.00000
2268 259237.023   6378136.9859         0.2022         0.2028   5  15   6.7893   2.6694   2.0454  -0.9010  -1.4172  -1.9653   0.00    0.0    0.00824   -0.01790    0.01092   0.00000  0.00000  0.00000  0.00000  0.00000  0.00000
2268 259238.023   6378137.4838        -0.1506         0.3006   5  15   6.7906   2.6690   2.0457  -0.8992  -1.4169  -1.9670   0.00    0.0   -0.01515    0.04158   -0.00798   0.00000  0.00000  0.00000  0.00000  0.00000  0.00000
2268 259239.023   6378137.8634        -0.5954         0.1619   5  15   6.7918   2.6686   2.0459  -0.8973  -1.4166  -1.9687   0.00    0.0    0.01480   -0.00056    0.00667   0.00000  0.00000  0.00000  0.00000  0.00000  0.00000
2268 259240.023   6378138.2301        -0.6274         0.2347   5  15   6.7930   2.6682   2.0461  -0.8955  -1.4163  -1.9704   0.00    0.0   -0.00455    0.01159   -0.01405   0.00000  0.00000  0.00000  0.00000  0.00000  0.00000
2268 259241.023   6378137.8546        -0.4620         0.2321   5  15   6.7942   2.6679   2.0463  -0.8936  -1.4160  -1.9721   0.00    0.0    0.02312    0.00933   -0.00386   0.00000  0.00000  0.00000  0.00000  0.00000  0.00000
2268 259242.023   6378136.8897        -0.6591         0.3324   5  15   6.7954   2.6675   2.0466  -0.8917  -1.4157  -1.9738   0.00    0.0   -0.01042   -0.01065   -0.01605   0.00000  0.00000  0.00000  0.00000  0.00000  0.00000
2268 259243.023   6378137.8759        -0.3696         0.0972   5  15   6.7966   2.6671   2.0468  -0.8899  -1.4154  -1.9755   0.00    0.0    0.02488   -0.00193    0.02001   0.00000  0.00000  0.00000  0.00000  0.00000  0.00000
2268 259244.023   6378137.1141        -0.4298         0.2994   5  15   6.7979   2.6667   2.0470  -0.8880  -1.4152  -1.9771   0.00    0.0    0.02666   -0.00393    0.00050   0.00000  0.00000  0.00000  0.00000  0.00000  0.00000
2268 259245.023   6378137.1091        -0.4583         0.3339   5  15   6.7991   2.6663   2.0473  -0.8862  -1.4149  -1.9788   0.00    0.0   -0.00836   -0.00663    0.00812   0.00000  0.00000  0.00000  0.00000  0.00000  0.00000
2268 259246.023   6378137.0799        -0.3045         0.5691   5  15   6.8003   2.6660   2.0475  -0.8843  -1.4146  -1.9805   0.00    0.0   -0.01638   -0.01007   -0.01530   0.00000  0.00000  0.00000  0.00000  0.00000  0.00000
2268 259247.023   6378136.9017        -0.0568         0.4005   5  15   6.8015   2.6656   2.0477  -0.8824  -1.4143  -1.9822   0.00    0.0   -0.00370   -0.00643   -0.01107   0.00000  0.00000  0.00000  0.00000  0.00000  0.00000
2268 259248.023   6378136.9429        -0.0544         0.5883   5  15   6.8028   2.6652   2.0479  -0.8805  -1.4140  -1.9839   0.00    0.0   -0.00438   -0.00892   -0.00269   0.00000  0.00000  0.00000  0.00000  0.00000  0.00000
2268 259249.023   6378136.9638         0.1835         0.1457   5  15   6.8040   2.6648   2.0482  -0.8786  -1.4137  -1.9856   0.00    0.0    0.00295   -0.01719    0.00991   0.00000  0.00000  0.00000  0.00000  0.00000  0.00000
2268 259250.023   6378137.4258        -0.0180         0.2332   5  15   6.8052   2.6644   2.0484  -0.8768  -1.4134  -1.9872   0.00    0.0    0.06163    0.00168    0.02309   0.00000  0.00000  0.00000  0.00000  0.00000  0.00000
2268 259251.023   6378137.7385        -0.1071         0.2859   5  15   6.8064   2.6640   2.0486  -0.8749  -1.4132  -1.9889   0.00    0.0   -0.01030    0.00856   -0.00845   0.00000  0.00000  0.00000  0.00000  0.00000  0.00000
2268 259252.023   6378137.2219        -0.1152         0.3740   5  15   6.8076   2.6637   2.0489  -0.8730  -1.4129  -1.9906   0.00    0.0   -0.00694   -0.00075   -0.00194   0.00000  0.00000  0.00000  0.00000  0.00000  0.00000
2268 259253.023   6378137.2987         0.1376         0.4325   5  15   6.8089   2.6633   2.0491  -0.8711  -1.4126  -1.9923   0.00    0.0    0.01502   -0.00187    0.01212   0.00000  0.00000  0.00000  0.00000  0.00000  0.00000
2268 259254.023   6378137.2647        -0.0677         0.3052   5  15   6.8101   2.6629   2.0493  -0.8692  -1.4123  -1.9940   0.00    0.0    0.03892   -0.01344    0.01673   0.00000  0.00000  0.00000  0.00000  0.00000  0.00000
2268 259255.023   6378137.7734         0.0801         0.3154   5  15   6.8113   2.6625   2.0496  -0.8673  -1.4120  -1.9957   0.00    0.0    0.08523    0.00328   -0.00429   0.00000  0.00000  0.00000  0.00000  0.00000  0.00000
2268 259256.023   6378137.6356         0.0537         0.1925   5  15   6.8125   2.6621   2.0498  -0.8654  -1.4117  -1.9973   0.00    0.0    0.01815   -0.01103   -0.00183   0.00000  0.00000  0.00000  0.00000  0.00000  0.00000
2268 259257.023   6378137.9648        -0.1998         0.0980   5  15   6.8138   2.6618   2.0500  -0.8635  -1.4114  -1.9990   0.00    0.0   -0.01231   -0.00458   -0.00288   0.00000  0.00000  0.00000  0.00000  0.00000  0.00000
2268 259258.023   6378138.5854        -0.3798        -0.0389   5  15   6.8150   2.6614   2.0503  -0.8615  -1.4112  -2.0007   0.00    0.0    0.03418    0.01043   -0.00344   0.00000  0.00000  0.00000  0.00000  0.00000  0.00000
2268 259259.023   6378138.1251        -0.3618         0.2671   5  15   6.8162   2.6610   2.0505  -0.8596  -1.4109  -2.0024   0.00    0.0   -0.00619    0.00328    0.00006   0.00000  0.00000  0.00000  0.00000  0.00000  0.00000
2268 259260.023   6378137.8481        -0.0254         0.1491   5  15   6.8175   2.6606   2.0508  -0.8577  -1.4106  -2.0041   0.00    0.0    0.00551   -0.00596   -0.01029   0.00000  0.00000  0.00000  0.00000  0.00000  0.00000
2268 259261.023   6378137.6401        -0.1145         0.0841   5  15   6.8187   2.6603   2.0510  -0.8558  -1.4103  -2.0057   0.00    0.0    0.00257   -0.01173   -0.00431   0.00000  0.00000  0.00000  0.00000  0.00000  0.00000
2268 259262.023   6378137.1724        -0.1972         0.3131   5  15   6.8199   2.6599   2.0512  -0.8538  -1.4100  -2.0074   0.00    0.0    0.02177   -0.00748   -0.00507   0.00000  0.00000  0.00000  0.00000  0.00000  0.00000
2268 259263.023   6378137.1641        -0.2591         0.3266   5  15   6.8211   2.6595   2.0515  -0.8519  -1.4097  -2.0091   0.00    0.0   -0.01485    0.01133    0.03240   0.00000  0.00000  0.00000  0.00000  0.00000  0.00000
2268 259264.023   6378137.6180         0.0302         0.3344   5  15   6.8224   2.6591   2.0517  -0.8500  -1.4095  -2.0108   0.00    0.0    0.01009    0.01325    0.00391   0.00000  0.00000  0.00000  0.00000  0.00000  0.00000
2268 259265.023   6378137.1727         0.1906         0.2688   5  15   6.8236   2.6587   2.0519  -0.8480  -1.4092  -2.0125   0.00    0.0   -0.06431    0.00696   -0.01654   0.00000  0.00000  0.00000  0.00000  0.00000  0.00000
2268 259266.023   6378136.9669         0.1776         0.2340   5  15   6.8248   2.6584   2.0522  -0.8461  -1.4089  -2.0141   0.00    0.0   -0.02660   -0.00556   -0.01493   0.00000  0.00000  0.00000  0.00000  0.00000  0.00000
2268 259267.023   6378136.9669         0.1116        -0.1624   5  15   6.8261   2.6580   2.0524  -0.8441  -1.4086  -2.0158   0.00    0.0    0.06534    0.02242    0.01320   0.00000  0.00000  0.00000  0.00000  0.00000  0.00000
2268 259268.023   6378135.9653         0.2608        -0.3974   5  15   6.8273   2.6576   2.0527  -0.8422  -1.4083  -2.0175   0.00    0.0   -0.01990   -0.03026   -0.01328   0.00000  0.00000  0.00000  0.00000  0.00000  0.00000
2268 259269.023   6378136.3288        -0.0022        -0.3458   5  15   6.8285   2.6572   2.0529  -0.8402  -1.4081  -2.0192   0.00    0.0   -0.03454    0.00248    0.01443   0.00000  0.00000  0.00000  0.00000  0.00000  0.00000
2268 259270.023   6378137.1273         0.3017        -0.3569   5  15   6.8298   2.6569   2.0531  -0.8383  -1.4078  -2.0209   0.00    0.0   -0.01074   -0.01195   -0.00864   0.00000  0.00000  0.00000  0.00000  0.00000  0.00000
2268 259271.023   6378137.2672         0.1884        -0.3402   5  15   6.8310   2.6565   2.0534  -0.8363  -1.4075  -2.0225   0.00    0.0    0.05134   -0.00535    0.00685   0.00000  0.00000  0.00000  0.00000  0.00000  0.00000
2268 259272.023   6378136.9843        -0.3171        -0.1777   5  15   6.8322   2.6561   2.0536  -0.8343  -1.4072  -2.0242   0.00    0.0   -0.01986    0.00156   -0.01804   0.00000  0.00000  0.00000  0.00000  0.00000  0.00000
2268 259273.023   6378136.9285        -0.5113         0.1919   5  15   6.8335   2.6557   2.0539  -0.8323  -1.4069  -2.0259   0.00    0.0   -0.02395   -0.00123   -0.00319   0.00000  0.00000  0.00000  0.00000  0.00000  0.00000
2268 259274.023   6378137.2090        -0.6093         0.3697   5  15   6.8347   2.6554   2.0541  -0.8304  -1.4067  -2.0276   0.00    0.0    0.02680    0.00664    0.01507   0.00000  0.00000  0.00000  0.00000  0.00000  0.00000
2268 259275.023   6378137.2322        -0.6729         0.4692   5  15   6.8359   2.6550   2.0544  -0.8284  -1.4064  -2.0292   0.00    0.0   -0.01341    0.00808   -0.01227   0.00000  0.00000  0.00000  0.00000  0.00000  0.00000
2268 259276.023   6378136.6229        -0.3387         0.3827   5  15   6.8372   2.6546   2.0546  -0.8264  -1.4061  -2.0309   0.00    0.0   -0.03700    0.02024   -0.02024   0.00000  0.00000  0.00000  0.00000  0.00000  0.00000
2268 259277.023   6378136.5477        -0.4222         0.3325   5  15   6.8384   2.6542   2.0548  -0.8244  -1.4058  -2.0326   0.00    0.0   -0.02997   -0.02072    0.00028   0.00000  0.00000  0.00000  0.00000  0.00000  0.00000
2268 259278.023   6378135.6920        -0.3247        -0.0152   5  15   6.8396   2.6539   2.0551  -0.8224  -1.4055  -2.0343   0.00    0.0   -0.00296    0.00113    0.00990   0.00000  0.00000  0.00000  0.00000  0.00000  0.00000
2268 259279.023   6378135.9270        -0.4290        -0.0884   5  15   6.8409   2.6535   2.0553  -0.8204  -1.4053  -2.0359   0.00    0.0   -0.01671    0.02257   -0.00498   0.00000  0.00000  0.00000  0.00000  0.00000  0.00000
2268 259280.023   6378136.7041        -0.3069        -0.0532   5  15   6.8421   2.6531   2.0556  -0.8184  -1.4050  -2.0376   0.00    0.0   -0.01807   -0.01396    0.01742   0.00000  0.00000  0.00000  0.00000  0.00000  0.00000
2268 259281.023   6378137.2622        -0.4766        -0.0345   5  15   6.8433   2.6527   2.0558  -0.8164  -1.4047  -2.0393   0.00    0.0   -0.03328   -0.01528    0.01817   0.00000  0.00000  0.00000  0.00000  0.00000  0.00000
2268 259282.023   6378137.4623        -0.4602         0.0353   5  15   6.8446   2.6524   2.0561  -0.8144  -1.4044  -2.0410   0.00    0.0    0.02796    0.00637    0.00813   0.00000  0.00000  0.00000  0.00000  0.00000  0.00000
2268 259283.023   6378138.1163        -0.0899        -0.2490   5  15   6.8458   2.6520   2.0563  -0.8123  -1.4041  -2.0426   0.00    0.0   -0.00463   -0.01624   -0.00420   0.00000  0.00000  0.00000  0.00000  0.00000  0.00000
2268 259284.023   6378137.8364        -0.0413        -0.1629   5  15   6.8471   2.6516   2.0566  -0.8103  -1.4039  -2.0443   0.00    0.0   -0.04402   -0.00524    0.01427   0.00000  0.00000  0.00000  0.00000  0.00000  0.00000
2268 259285.023   6378137.7143        -0.0197        -0.1124   5  15   6.8483   2.6512   2.0568  -0.8083  -1.4036  -2.0460   0.00    0.0   -0.01919    0.02759    0.00614   0.00000  0.00000  0.00000  0.00000  0.00000  0.00000
2268 259286.023   6378136.9218         0.0068         0.1238   5  15   6.8495   2.6509   2.0571  -0.8063  -1.4033  -2.0477   0.00    0.0   -0.04548   -0.02796   -0.00758   0.00000  0.00000  0.00000  0.00000  0.00000  0.00000
2268 259287.023   6378137.6093        -0.2522         0.0189   5  15   6.8508   2.6505   2.0573  -0.8042  -1.4030  -2.0493   0.00    0.0   -0.05393   -0.01135   -0.00436   0.00000  0.00000  0.00000  0.00000  0.00000  0.00000
2268 259288.023   6378137.4363        -0.3112         0.2371   5  15   6.8520   2.6501   2.0576  -0.8022  -1.4028  -2.0510   0.00    0.0   -0.02745   -0.00092   -0.00718   0.00000  0.00000  0.00000  0.00000  0.00000  0.00000
2268 259289.023   6378137.1208        -0.2068         0.1870   5  15   6.8533   2.6497   2.0578  -0.8001  -1.4025  -2.0527   0.00    0.0    0.00379    0.00807    0.01082   0.00000  0.00000  0.00000  0.00000  0.00000  0.00000
2268 259290.023   6378137.1251        -0.4125         0.0799   5  15   6.8545   2.6494   2.0581  -0.7981  -1.4022  -2.0544   0.00    0.0    0.01768   -0.02758    0.02003   0.00000  0.00000  0.00000  0.00000  0.00000  0.00000
2268 259291.023   6378138.2291        -0.4482        -0.0996   5  15   6.8558   2.6490   2.0583  -0.7960  -1.4019  -2.0560   0.00    0.0    0.00967   -0.00622   -0.01731   0.00000  0.00000  0.00000  0.00000  0.00000  0.00000
2268 259292.023   6378138.0341        -0.1861        -0.2209   5  15   6.8570   2.6486   2.0586  -0.7940  -1.4016  -2.0577   0.00    0.0   -0.00058    0.00958    0.01502   0.00000  0.00000  0.00000  0.00000  0.00000  0.00000
2268 259293.023   6378137.7941         0.1098        -0.1996   5  15   6.8582   2.6483   2.0588  -0.7919  -1.4014  -2.0594   0.00    0.0    0.01991    0.00464    0.01157   0.00000  0.00000  0.00000  0.00000  0.00000  0.00000
2268 259294.023   6378137.8390         0.4714        -0.3642   5  15   6.8595   2.6479   2.0591  -0.7898  -1.4011  -2.0611   0.00    0.0    0.01901   -0.02992    0.02657   0.00000  0.00000  0.00000  0.00000  0.00000  0.00000
2268 259295.023   6378137.2902         0.3755        -0.0999   5  15   6.8607   2.6475   2.0593  -0.7878  -1.4008  -2.0627   0.00    0.0    0.02346   -0.00030    0.01184   0.00000  0.00000  0.00000  0.00000  0.00000  0.00000
2268 259296.023   6378136.8101         0.1693         0.0448   5  15   6.8620   2.6471   2.0596  -0.7857  -1.4005  -2.0644   0.00    0.0   -0.01215   -0.00489    0.01003   0.00000  0.00000  0.00000  0.00000  0.00000  0.00000
2268 259297.023   6378136.9973        -0.2898         0.1473   5  15   6.8632   2.6468   2.0598  -0.7836  -1.4003  -2.0661   0.00    0.0    0.01746    0.02600   -0.03449   0.00000  0.00000  0.00000  0.00000  0.00000  0.00000
2268 259298.023   6378137.5586        -0.5605         0.3447   5  15   6.8645   2.6464   2.0601  -0.7815  -1.4000  -2.0677   0.00    0.0   -0.02949   -0.02123   -0.00451   0.00000  0.00000  0.00000  0.00000  0.00000  0.00000
2268 259299.023   6378137.0512        -0.5255         0.2978   5  15   6.8657   2.6460   2.0603  -0.7794  -1.3997  -2.0694   0.00    0.0   -0.00404   -0.00646    0.01057   0.00000  0.00000  0.00000  0.00000  0.00000  0.00000
2268 259300.023   6378137.2438        -0.3555         0.2441   5  15   6.8670   2.6457   2.0606  -0.7773  -1.3994  -2.0711   0.00    0.0    0.03000   -0.00452    0.00795   0.00000  0.00000  0.00000  0.00000  0.00000  0.00000
2268 259301.023   6378137.1539        -0.1382         0.3676   5  15   6.8682   2.6453   2.0608  -0.7752  -1.3992  -2.0728   0.00    0.0    0.03670   -0.00340    0.01385   0.00000  0.00000  0.00000  0.00000  0.00000  0.00000
2268 259302.023   6378139.7158         0.6681         0.0555   5  14  13.9588   4.7993   2.1848   6.9329  -2.2044  -3.6208   0.00    0.0    0.00761    0.00919    0.01740   0.00000  0.00000  0.00000  0.00000  0.00000  0.00000
2268 259303.023   6378139.9091         1.3184        -0.0104   5  14  13.9594   4.7994   2.1855   6.9334  -2.2056  -3.6241   0.00    0.0    0.02510   -0.00605    0.04269   0.00000  0.00000  0.00000  0.00000  0.00000  0.00000
2268 259304.023   6378138.0426         0.6055         0.0257   5  14  13.9601   4.7995   2.1862   6.9340  -2.2068  -3.6275   0.00    0.0    0.02091   -0.00918   -0.01976   0.00000  0.00000  0.00000  0.00000  0.00000  0.00000
2268 259305.023   6378138.5477         0.4822         0.0382   5  14  13.9607   4.7996   2.1870   6.9346  -2.2080  -3.6309   0.00    0.0    0.00871   -0.00005   -0.00882   0.00000  0.00000  0.00000  0.00000  0.00000  0.00000
2268 259306.023   6378137.7871         0.4481        -0.0710   5  14  13.9613   4.7997   2.1877   6.9351  -2.2091  -3.6343   0.00    0.0    0.00516    0.03068    0.00892   0.00000  0.00000  0.00000  0.00000  0.00000  0.00000
2268 259307.023   6378137.7423         0.3971        -0.1351   5  14  13.9620   4.7998   2.1884   6.9357  -2.2103  -3.6376   0.00    0.0    0.01174    0.00462   -0.00606   0.00000  0.00000  0.00000  0.00000  0.00000  0.00000
2268 259308.023   6378136.7127         0.0507        -0.2037   5  14  13.9626   4.7999   2.1891   6.9363  -2.2115  -3.6410   0.00    0.0    0.02870    0.00093    0.00292   0.00000  0.00000  0.00000  0.00000  0.00000  0.00000
2268 259309.023   6378137.0235         0.3365        -0.3523   5  14  13.9633   4.8000   2.1899   6.9368  -2.2127  -3.6444   0.00    0.0    0.00360   -0.00107    0.01289   0.00000  0.00000  0.00000  0.00000  0.00000  0.00000
2268 259310.023   6378134.9460        -0.0204        -0.3219   5  14  13.9639   4.8001   2.1906   6.9374  -2.2139  -3.6477   0.00    0.0    0.01033    0.00203    0.00886   0.00000  0.00000  0.00000  0.00000  0.00000  0.00000
2268 259311.023   6378134.5796        -0.0138        -0.0422   5  14  13.9646   4.8002   2.1913   6.9379  -2.2151  -3.6511   0.00    0.0   -0.02008    0.00621   -0.00019   0.00000  0.00000  0.00000  0.00000  0.00000  0.00000
2268 259312.023   6378134.8025        -0.1286        -0.1887   5  14  13.9652   4.8003   2.1920   6.9385  -2.2163  -3.6545   0.00    0.0    0.03144    0.02619   -0.00280   0.00000  0.00000  0.00000  0.00000  0.00000  0.00000
2268 259313.023   6378135.2738        -0.5578         0.1688   5  14  13.9659   4.8004   2.1928   6.9391  -2.2175  -3.6578   0.00    0.0   -0.01810    0.00790   -0.01678   0.00000  0.00000  0.00000  0.00000  0.00000  0.00000
2268 259314.023   6378136.7337        -0.0576         0.1479   5  14  13.9665   4.8005   2.1935   6.9396  -2.2187  -3.6612   0.00    0.0    0.04313    0.00019    0.00744   0.00000  0.00000  0.00000  0.00000  0.00000  0.00000
2268 259315.023   6378136.6546        -0.2096         0.1114   5  14  13.9671   4.8006   2.1942   6.9402  -2.2199  -3.6645   0.00    0.0   -0.04047   -0.00855    0.02563   0.00000  0.00000  0.00000  0.00000  0.00000  0.00000
2268 259316.023   6378138.1721        -0.0924         0.1947   5  14  13.9678   4.8007   2.1950   6.9407  -2.2211  -3.6679   0.00    0.0    0.00285    0.01099    0.00837   0.00000  0.00000  0.00000  0.00000  0.00000  0.00000
2268 259317.023   6378138.3647         0.2795         0.1677   5  14  13.9684   4.8008   2.1957   6.9413  -2.2223  -3.6712   0.00    0.0    0.00328    0.00236   -0.02221   0.00000  0.00000  0.00000  0.00000  0.00000  0.00000
2268 259318.023   6378138.5885         0.0782         0.2308   5  14  13.9691   4.8008   2.1965   6.9418  -2.2235  -3.6745   0.00    0.0   -0.02478    0.00633   -0.00147   0.00000  0.00000  0.00000  0.00000  0.00000  0.00000
2268 259319.023   6378136.4805        -0.3338         0.1968   5  14  13.9697   4.8009   2.1972   6.9424  -2.2247  -3.6779   0.00    0.0    0.09138    0.00143    0.01462   0.00000  0.00000  0.00000  0.00000  0.00000  0.00000
2268 259320.023   6378137.6645         0.3354        -0.0935   5  14  13.9704   4.8010   2.1979   6.9429  -2.2258  -3.6812   0.00    0.0   -0.00832    0.00442   -0.01497   0.00000  0.00000  0.00000  0.00000  0.00000  0.00000
2268 259321.023   6378137.1793        -0.0436        -0.1025   5  14  13.9710   4.8011   2.1987   6.9435  -2.2270  -3.6846   0.00    0.0   -0.00906   -0.00257   -0.00376   0.00000  0.00000  0.00000  0.00000  0.00000  0.00000
2268 259322.023   6378136.7329        -0.8446        -0.0478   5  14  13.9717   4.8012   2.1994   6.9441  -2.2282  -3.6879   0.00    0.0    0.01710   -0.00594    0.01480   0.00000  0.00000  0.00000  0.00000  0.00000  0.00000
2268 259323.023   6378136.3533        -0.8533        -0.0053   5  14  13.9723   4.8013   2.2002   6.9446  -2.2294  -3.6912   0.00    0.0    0.04498    0.01230   -0.00761   0.00000  0.00000  0.00000  0.00000  0.00000  0.00000
2268 259324.023   6378136.2245        -0.8196         0.0676   5  14  13.9730   4.8014   2.2009   6.9452  -2.2306  -3.6945   0.00    0.0   -0.04749    0.00563    0.01282   0.00000  0.00000  0.00000  0.00000  0.00000  0.00000
2268 259325.023   6378136.1747        -0.6667        -0.1664   5  14  13.9736   4.8015   2.2017   6.9457  -2.2318  -3.6979   0.00    0.0    0.04829    0.00735    0.01620   0.00000  0.00000  0.00000  0.00000  0.00000  0.00000
2268 259326.023   6378135.9580        -0.6586        -0.1924   5  14  13.9743   4.8016   2.2024   6.9462  -2.2330  -3.7012   0.00    0.0   -0.02338   -0.00889    0.01866   0.00000  0.00000  0.00000  0.00000  0.00000  0.00000
2268 259327.023   6378136.3906        -0.1717        -0.4142   5  14  13.9749   4.8017   2.2031   6.9468  -2.2342  -3.7045   0.00    0.0    0.00177   -0.01203    0.00873   0.00000  0.00000  0.00000  0.00000  0.00000  0.00000
2268 259328.023   6378135.8194        -0.5554        -0.3442   5  14  13.9756   4.8018   2.2039   6.9473  -2.2353  -3.7078   0.00    0.0   -0.01065   -0.02185   -0.00760   0.00000  0.00000  0.00000  0.00000  0.00000  0.00000
2268 259329.023   6378136.2131        -0.7892        -0.1275   5  14  13.9762   4.8019   2.2046   6.9479  -2.2365  -3.7111   0.00    0.0    0.03865   -0.00857   -0.03743   0.00000  0.00000  0.00000  0.00000  0.00000  0.00000
2268 259330.023   6378135.0893        -1.2249         0.0857   5  14  13.9768   4.8020   2.2054   6.9484  -2.2377  -3.7144   0.00    0.0   -0.00897   -0.01289   -0.01268   0.00000  0.00000  0.00000  0.00000  0.00000  0.00000
2268 259331.023   6378135.8771        -1.0468         0.0687   5  14  13.9775   4.8020   2.2062   6.9490  -2.2389  -3.7178   0.00    0.0   -0.04606    0.00828   -0.02717   0.00000  0.00000  0.00000  0.00000  0.00000  0.00000
2268 259332.023   6378135.7359        -0.9135         0.1675   5  14  13.9781   4.8021   2.2069   6.9495  -2.2401  -3.7211   0.00    0.0    0.00297   -0.03080   -0.00306   0.00000  0.00000  0.00000  0.00000  0.00000  0.00000
2268 259333.023   6378134.9507        -0.7742         0.2463   5  14  13.9788   4.8022   2.2077   6.9501  -2.2413  -3.7244   0.00    0.0   -0.05797    0.00009    0.00010   0.00000  0.00000  0.00000  0.00000  0.00000  0.00000
2268 259334.023   6378135.9185        -0.4924         0.0578   5  14  13.9794   4.8023   2.2084   6.9506  -2.2424  -3.7277   0.00    0.0   -0.01270    0.00448   -0.00444   0.00000  0.00000  0.00000  0.00000  0.00000  0.00000
2268 259335.023   6378137.1116         0.0424        -0.1537   5  14  13.9801   4.8024   2.2092   6.9511  -2.2436  -3.7310   0.00    0.0    0.02428   -0.02031    0.01987   0.00000  0.00000  0.00000  0.00000  0.00000  0.00000
2268 259336.023   6378136.5586         0.3187        -0.1838   5  14  13.9807   4.8025   2.2099   6.9517  -2.2448  -3.7343   0.00    0.0   -0.02710   -0.01545    0.01023   0.00000  0.00000  0.00000  0.00000  0.00000  0.00000
2268 259337.023   6378136.4748        -0.2716         0.2653   5  14  13.9814   4.8026   2.2107   6.9522  -2.2460  -3.7376   0.00    0.0   -0.03162    0.00092   -0.00011   0.00000  0.00000  0.00000  0.00000  0.00000  0.00000
2268 259338.023   6378136.4954         0.1300         0.3259   5  14  13.9821   4.8027   2.2114   6.9528  -2.2472  -3.7409   0.00    0.0   -0.00535    0.00264   -0.02010   0.00000  0.00000  0.00000  0.00000  0.00000  0.00000
2268 259339.023   6378137.7553         0.4501         0.0770   5  14  13.9827   4.8027   2.2122   6.9533  -2.2484  -3.7441   0.00    0.0    0.00074    0.03126    0.00264   0.00000  0.00000  0.00000  0.00000  0.00000  0.00000
2268 259340.023   6378136.7592         0.2696        -0.0118   5  14  13.9834   4.8028   2.2130   6.9538  -2.2495  -3.7474   0.00    0.0    0.00918    0.01776   -0.03587   0.00000  0.00000  0.00000  0.00000  0.00000  0.00000
2268 259341.023   6378136.8799         0.2292         0.0249   5  14  13.9840   4.8029   2.2137   6.9544  -2.2507  -3.7507   0.00    0.0   -0.01400    0.00618    0.00644   0.00000  0.00000  0.00000  0.00000  0.00000  0.00000
2268 259342.023   6378135.3352        -0.0119         0.2528   5  14  13.9847   4.8030   2.2145   6.9549  -2.2519  -3.7540   0.00    0.0   -0.04040   -0.00591    0.00824   0.00000  0.00000  0.00000  0.00000  0.00000  0.00000
2268 259343.023   6378134.9285        -0.2237         0.1084   5  14  13.9853   4.8031   2.2153   6.9554  -2.2531  -3.7573   0.00    0.0    0.02095    0.00712   -0.01733   0.00000  0.00000  0.00000  0.00000  0.00000  0.00000
2268 259344.023   6378135.9515         0.3837         0.1948   5  14  13.9860   4.8032   2.2160   6.9560  -2.2542  -3.7606   0.00    0.0   -0.00100   -0.02918   -0.00615   0.00000  0.00000  0.00000  0.00000  0.00000  0.00000
2268 259345.023   6378136.8204         0.4107         0.3012   5  14  13.9866   4.8032   2.2168   6.9565  -2.2554  -3.7638   0.00    0.0    0.02357   -0.01752    0.01646   0.00000  0.00000  0.00000  0.00000  0.00000  0.00000
2268 259346.023   6378138.6777         0.7096         0.1847   5  14  13.9873   4.8033   2.2176   6.9570  -2.2566  -3.7671   0.00    0.0   -0.01284   -0.00175    0.00340   0.00000  0.00000  0.00000  0.00000  0.00000  0.00000
2268 259347.023   6378138.2934         0.0390         0.3975   5  14  13.9879   4.8034   2.2183   6.9576  -2.2578  -3.7704   0.00    0.0   -0.00915   -0.00594   -0.00540   0.00000  0.00000  0.00000  0.00000  0.00000  0.00000
2268 259348.023   6378138.4112         0.0251         0.0908   5  14  13.9886   4.8035   2.2191   6.9581  -2.2590  -3.7736   0.00    0.0   -0.04307   -0.02887   -0.01175   0.00000  0.00000  0.00000  0.00000  0.00000  0.00000
2268 259349.023   6378137.7601         0.0230         0.0704   5  14  13.9892   4.8036   2.2199   6.9586  -2.2601  -3.7769   0.00    0.0    0.05818    0.00756    0.00078   0.00000  0.00000  0.00000  0.00000  0.00000  0.00000
2268 259350.023   6378137.3680         0.4030         0.2119   5  14  13.9899   4.8037   2.2207   6.9592  -2.2613  -3.7802   0.00    0.0   -0.05143    0.02994   -0.02120   0.00000  0.00000  0.00000  0.00000  0.00000  0.00000
2268 259351.023   6378137.0859         0.5709         0.0152   5  14  13.9905   4.8037   2.2214   6.9597  -2.2625  -3.7834   0.00    0.0   -0.00185    0.00805    0.01001   0.00000  0.00000  0.00000  0.00000  0.00000  0.00000
2268 259352.023   6378136.8751         0.5682         0.0388   5  14  13.9912   4.8038   2.2222   6.9602  -2.2636  -3.7867   0.00    0.0   -0.01355    0.02169   -0.01503   0.00000  0.00000  0.00000  0.00000  0.00000  0.00000
2268 259353.023   6378136.3268        -0.0326        -0.0571   5  14  13.9918   4.8039   2.2230   6.9607  -2.2648  -3.7899   0.00    0.0    0.03988    0.00891   -0.01238   0.00000  0.00000  0.00000  0.00000  0.00000  0.00000
2268 259354.023   6378136.6530        -0.0490        -0.0761   5  14  13.9925   4.8040   2.2238   6.9613  -2.2660  -3.7932   0.00    0.0    0.04194   -0.00951    0.00342   0.00000  0.00000  0.00000  0.00000  0.00000  0.00000
2268 259355.023   6378137.1446         0.2083        -0.3539   5  14  13.9932   4.8040   2.2245   6.9618  -2.2672  -3.7964   0.00    0.0   -0.02110   -0.00223   -0.04043   0.00000  0.00000  0.00000  0.00000  0.00000  0.00000
2268 259356.023   6378135.7134         0.3650        -0.5363   5  14  13.9938   4.8041   2.2253   6.9623  -2.2683  -3.7997   0.00    0.0   -0.03775   -0.00841   -0.02471   0.00000  0.00000  0.00000  0.00000  0.00000  0.00000
2268 259357.023   6378136.7699         0.8763        -0.6006   5  14  13.9945   4.8042   2.2261   6.9628  -2.2695  -3.8029   0.00    0.0    0.04122   -0.00697   -0.00154   0.00000  0.00000  0.00000  0.00000  0.00000  0.00000
2268 259358.023   6378136.4800         0.3500        -0.6785   5  14  13.9951   4.8043   2.2269   6.9634  -2.2707  -3.8062   0.00    0.0    0.01591    0.00825   -0.00519   0.00000  0.00000  0.00000  0.00000  0.00000  0.00000
2268 259359.023   6378137.1001         0.2094        -0.3079   5  14  13.9958   4.8043   2.2277   6.9639  -2.2719  -3.8094   0.00    0.0    0.00922   -0.02118    0.02354   0.00000  0.00000  0.00000  0.00000  0.00000  0.00000
2268 259360.023   6378134.1203        -0.1992        -0.1328   5  14  13.9964   4.8044   2.2284   6.9644  -2.2730  -3.8127   0.00    0.0   -0.00556   -0.00826    0.00491   0.00000  0.00000  0.00000  0.00000  0.00000  0.00000
2268 259361.023   6378132.4226        -0.5988         0.3442   5  14  13.9971   4.8045   2.2292   6.9649  -2.2742  -3.8159   0.00    0.0   -0.05314    0.00572   -0.00050   0.00000  0.00000  0.00000  0.00000  0.00000  0.00000
2268 259362.023   6378132.9352        -0.8408         0.4356   5  14  13.9978   4.8046   2.2300   6.9654  -2.2754  -3.8191   0.00    0.0    0.02117    0.01264    0.02959   0.00000  0.00000  0.00000  0.00000  0.00000  0.00000
2268 259363.023   6378133.7038        -0.6443         0.5839   5  14  13.9984   4.8046   2.2308   6.9660  -2.2765  -3.8224   0.00    0.0   -0.01687   -0.01442   -0.01059   0.00000  0.00000  0.00000  0.00000  0.00000  0.00000
2268 259364.023   6378132.7293        -1.1918         0.8220   5  14  13.9991   4.8047   2.2316   6.9665  -2.2777  -3.8256   0.00    0.0   -0.00814   -0.01865   -0.00251   0.00000  0.00000  0.00000  0.00000  0.00000  0.00000
2268 259365.000   6378136.2334        -0.1231         0.2131   5  21   4.4677   1.9405   1.5392   0.7751   0.2961  -1.6168   0.00    0.0   -0.04628   -0.01714   -0.00858   0.00000  0.00000  0.00000  0.00000  0.00000  0.00000
2268 259366.000   6378136.4733        -0.0814         0.0941   5  21   4.4714   1.9438   1.5403   0.7914   0.2859  -1.6179   0.00    0.0   -0.08124   -0.02471   -0.03074   0.00000  0.00000  0.00000  0.00000  0.00000  0.00000
2268 259367.000   6378136.2085         0.1205         0.0873   5  21   4.4752   1.9471   1.5415   0.8076   0.2751  -1.6190   0.00    0.0   -0.02404   -0.01995   -0.03466   0.00000  0.00000  0.00000  0.00000  0.00000  0.00000
2268 259368.000   6378136.4884         0.0321        -0.1600   5  21   4.4790   1.9505   1.5426   0.8235   0.2639  -1.6202   0.00    0.0    0.04968   -0.03245   -0.00478   0.00000  0.00000  0.00000  0.00000  0.00000  0.00000
2268 259369.000   6378136.4874         0.1890        -0.0747   5  21   4.4829   1.9539   1.5438   0.8392   0.2520  -1.6215   0.00    0.0   -0.01114   -0.01364   -0.01561   0.00000  0.00000  0.00000  0.00000  0.00000  0.00000
2268 259370.000   6378136.5877         0.2111        -0.0902   5  21   4.4867   1.9573   1.5450   0.8548   0.2395  -1.6228   0.00    0.0    0.02007   -0.02648   -0.01821   0.00000  0.00000  0.00000  0.00000  0.00000  0.00000
2268 259371.000   6378136.3115         0.2182         0.0583   5  21   4.4906   1.9608   1.5462   0.8701   0.2261  -1.6241   0.00    0.0   -0.01861   -0.01990   -0.01850   0.00000  0.00000  0.00000  0.00000  0.00000  0.00000
2268 259372.000   6378136.2364         0.1038         0.1765   5  21   4.4945   1.9643   1.5474   0.8852   0.2118  -1.6254   0.00    0.0   -0.01752   -0.02802   -0.01647   0.00000  0.00000  0.00000  0.00000  0.00000  0.00000
2268 259373.000   6378136.3817        -0.1077         0.2157   5  21   4.4984   1.9678   1.5486   0.9002   0.1963  -1.6269   0.00    0.0   -0.00504   -0.03155   -0.01292   0.00000  0.00000  0.00000  0.00000  0.00000  0.00000
2268 259374.000   6378136.2087        -0.1909         0.3036   5  21   4.5023   1.9714   1.5498   0.9150   0.1793  -1.6283   0.00    0.0   -0.02061   -0.05747   -0.01201   0.00000  0.00000  0.00000  0.00000  0.00000  0.00000
2268 259375.000   6378136.6857        -0.0779         0.1512   5  21   4.5063   1.9750   1.5511   0.9297   0.1604  -1.6298   0.00    0.0    0.00427   -0.01868    0.01657   0.00000  0.00000  0.00000  0.00000  0.00000  0.00000
2268 259376.000   6378136.7384        -0.0740         0.1618   5  23   3.4671   1.6840   1.4673  -1.4349   0.7367  -1.0967   0.00    0.0   -0.06366   -0.02450   -0.01069   0.00000  0.00000  0.00000  0.00000  0.00000  0.00000
2268 259377.000   6378136.4179        -0.0067         0.0146   5  23   3.4679   1.6847   1.4682  -1.4330   0.7351  -1.0964   0.00    0.0   -0.01764   -0.03776   -0.01296   0.00000  0.00000  0.00000  0.00000  0.00000  0.00000
2268 259378.000   6378136.5169        -0.1852        -0.2317   5  23   3.4688   1.6855   1.4692  -1.4312   0.7334  -1.0961   0.00    0.0   -0.05992   -0.03132   -0.02691   0.00000  0.00000  0.00000  0.00000  0.00000  0.00000
2268 259379.000   6378136.5660         0.0299        -0.2935   5  23   3.4697   1.6862   1.4702  -1.4294   0.7318  -1.0959   0.00    0.0   -0.03129   -0.05247    0.00971   0.00000  0.00000  0.00000  0.00000  0.00000  0.00000
2268 259380.000   6378136.4407         0.0301        -0.2396   5  23   3.4706   1.6870   1.4712  -1.4276   0.7301  -1.0957   0.00    0.0   -0.07345   -0.02423   -0.01579   0.00000  0.00000  0.00000  0.00000  0.00000  0.00000
2268 259381.000   6378136.7030        -0.0006        -0.1830   5  23   3.4715   1.6877   1.4722  -1.4258   0.7284  -1.0955   0.00    0.0   -0.03325   -0.04627   -0.00766   0.00000  0.00000  0.00000  0.00000  0.00000  0.00000
2268 259382.000   6378137.1771        -0.0575        -0.1592   5  23   3.4725   1.6885   1.4732  -1.4240   0.7267  -1.0954   0.00    0.0   -0.01983   -0.02358   -0.00407   0.00000  0.00000  0.00000  0.00000  0.00000  0.00000
2268 259383.000   6378136.9449         0.1518        -0.1037   5  23   3.4735   1.6893   1.4742  -1.4222   0.7250  -1.0953   0.00    0.0   -0.03711   -0.02528   -0.01087   0.00000  0.00000  0.00000  0.00000  0.00000  0.00000
2268 259384.000   6378137.0427         0.2955        -0.3147   5  23   3.4745   1.6900   1.4752  -1.4204   0.7234  -1.0952   0.00    0.0   -0.10921   -0.03574   -0.02393   0.00000  0.00000  0.00000  0.00000  0.00000  0.00000
2268 259385.000   6378137.0224         0.2068         0.0215   5  23   3.4755   1.6908   1.4762  -1.4186   0.7216  -1.0952   0.00    0.0   -0.02587   -0.03703    0.00615   0.00000  0.00000  0.00000  0.00000  0.00000  0.00000
2268 259386.000   6378137.1713         0.4274         0.0812   5  23   3.4765   1.6916   1.4772  -1.4168   0.7199  -1.0952   0.00    0.0   -0.03609   -0.05105   -0.01568   0.00000  0.00000  0.00000  0.00000  0.00000  0.00000
2268 259387.000   6378137.2845         0.4157         0.0937   5  23   3.4776   1.6924   1.4783  -1.4151   0.7182  -1.0953   0.00    0.0   -0.02671   -0.03513   -0.02771   0.00000  0.00000  0.00000  0.00000  0.00000  0.00000
2268 259388.000   6378137.5575         0.3033        -0.0412   5  24   3.1294   1.6698   1.4632  -1.5570   0.7579  -0.9326   0.00    0.0   -0.03609   -0.03024   -0.01076   0.00000  0.00000  0.00000  0.00000  0.00000  0.00000
2268 259389.000   6378137.4985         0.1875        -0.0433   5  24   3.1299   1.6703   1.4642  -1.5564   0.7566  -0.9323   0.00    0.0   -0.03314   -0.03517   -0.00745   0.00000  0.00000  0.00000  0.00000  0.00000  0.00000
2268 259390.000   6378137.6736         0.1195        -0.0531   5  24   3.1305   1.6708   1.4653  -1.5558   0.7552  -0.9321   0.00    0.0   -0.03915   -0.01892    0.00226   0.00000  0.00000  0.00000  0.00000  0.00000  0.00000
2268 259391.000   6378137.1966         0.1648         0.1952   5  24   3.1310   1.6714   1.4663  -1.5553   0.7539  -0.9319   0.00    0.0   -0.07353   -0.03680    0.00271   0.00000  0.00000  0.00000  0.00000  0.00000  0.00000
2268 259392.000   6378137.1478         0.0780         0.2028   5  24   3.1316   1.6719   1.4673  -1.5547   0.7526  -0.9317   0.00    0.0   -0.02484   -0.03698   -0.00439   0.00000  0.00000  0.00000  0.00000  0.00000  0.00000
2268 259393.000   6378136.6523         0.1536         0.1030   5  24   3.1321   1.6725   1.4684  -1.5542   0.7512  -0.9316   0.00    0.0   -0.02783   -0.06948   -0.00418   0.00000  0.00000  0.00000  0.00000  0.00000  0.00000
2268 259394.000   6378136.4432         0.2873         0.0314   5  24   3.1328   1.6730   1.4694  -1.5536   0.7499  -0.9315   0.00    0.0   -0.06002   -0.03161   -0.01520   0.00000  0.00000  0.00000  0.00000  0.00000  0.00000
2268 259395.000   6378136.6665         0.2144        -0.0898   5  25   3.1333   1.6729   1.4690  -1.5534   0.7465  -0.9322   0.00    0.0   -0.03252   -0.04329   -0.01888   0.00000  0.00000  0.00000  0.00000  0.00000  0.00000
2268 259396.000   6378136.9043         0.1668        -0.1605   5  25   3.1340   1.6735   1.4701  -1.5529   0.7451  -0.9321   0.00    0.0    0.00386   -0.03977    0.00299   0.00000  0.00000  0.00000  0.00000  0.00000  0.00000
2268 259397.000   6378136.9457         0.2713         0.0168   5  25   3.1347   1.6741   1.4711  -1.5524   0.7438  -0.9321   0.00    0.0    0.01282   -0.03479    0.02065   0.00000  0.00000  0.00000  0.00000  0.00000  0.00000
2268 259398.000   6378136.9615         0.0787         0.0722   5  25   3.1354   1.6746   1.4721  -1.5520   0.7424  -0.9322   0.00    0.0    0.02680   -0.03156   -0.02027   0.00000  0.00000  0.00000  0.00000  0.00000  0.00000
2268 259399.000   6378137.1666         0.0330        -0.0969   5  25   3.1361   1.6752   1.4732  -1.5515   0.7410  -0.9322   0.00    0.0   -0.00621   -0.04552   -0.00465   0.00000  0.00000  0.00000  0.00000  0.00000  0.00000
2268 259400.000   6378137.4733        -0.0941        -0.0784   5  25   3.1369   1.6758   1.4743  -1.5510   0.7396  -0.9323   0.00    0.0   -0.04367   -0.03920   -0.02443   0.00000  0.00000  0.00000  0.00000  0.00000  0.00000
2268 259401.000   6378137.3232        -0.0132         0.1062   5  25   3.1376   1.6764   1.4753  -1.5506   0.7383  -0.9325   0.00    0.0   -0.05540   -0.02708   -0.01493   0.00000  0.00000  0.00000  0.00000  0.00000  0.00000
2268 259402.000   6378137.5368        -0.0290        -0.0690   5  25   3.1385   1.6770   1.4764  -1.5501   0.7369  -0.9326   0.00    0.0   -0.04335   -0.02852   -0.01676   0.00000  0.00000  0.00000  0.00000  0.00000  0.00000
2268 259403.000   6378137.2419         0.0667         0.0099   5  25   3.1393   1.6776   1.4775  -1.5497   0.7355  -0.9328   0.00    0.0   -0.01948   -0.02514   -0.00305   0.00000  0.00000  0.00000  0.00000  0.00000  0.00000
2268 259404.000   6378137.1591         0.1232         0.0036   5  25   3.1402   1.6782   1.4785  -1.5493   0.7341  -0.9331   0.00    0.0   -0.06031   -0.02634    0.00891   0.00000  0.00000  0.00000  0.00000  0.00000  0.00000
2268 259405.000   6378137.2918         0.1678        -0.0839   5  25   3.1411   1.6788   1.4796  -1.5489   0.7327  -0.9333   0.00    0.0   -0.05623   -0.02887   -0.02425   0.00000  0.00000  0.00000  0.00000  0.00000  0.00000
2268 259406.000   6378137.0436         0.2639         0.0785   5  25   3.1420   1.6794   1.4807  -1.5485   0.7313  -0.9336   0.00    0.0   -0.01986   -0.03675   -0.00387   0.00000  0.00000  0.00000  0.00000  0.00000  0.00000
2268 259407.000   6378137.1457         0.1983         0.0474   5  25   3.1429   1.6801   1.4817  -1.5481   0.7299  -0.9340   0.00    0.0   -0.02222   -0.03181   -0.01668   0.00000  0.00000  0.00000  0.00000  0.00000  0.00000
2268 259408.000   6378137.0930         0.1622         0.1225   5  25   3.1439   1.6807   1.4828  -1.5477   0.7285  -0.9343   0.00    0.0   -0.03630   -0.01835   -0.01124   0.00000  0.00000  0.00000  0.00000  0.00000  0.00000
2268 259409.000   6378136.8440         0.0184         0.1070   5  25   3.1449   1.6813   1.4839  -1.5474   0.7270  -0.9347   0.00    0.0   -0.04011   -0.02883    0.00803   0.00000  0.00000  0.00000  0.00000  0.00000  0.00000
2268 259410.000   6378137.0018        -0.0542        -0.0594   5  25   3.1460   1.6819   1.4850  -1.5470   0.7256  -0.9351   0.00    0.0   -0.03404   -0.05107   -0.00280   0.00000  0.00000  0.00000  0.00000  0.00000  0.00000
2268 259411.000   6378136.9172        -0.1707        -0.0641   5  25   3.1471   1.6826   1.4861  -1.5467   0.7242  -0.9356   0.00    0.0   -0.04711   -0.03079   -0.01137   0.00000  0.00000  0.00000  0.00000  0.00000  0.00000
2268 259412.000   6378136.8307        -0.3029        -0.0946   5  26   3.1008   1.6649   1.4184  -1.5022   0.7956  -1.0581   0.00    0.0   -0.02036   -0.03196   -0.00758   0.00000  0.00000  0.00000  0.00000  0.00000  0.00000
2268 259413.000   6378137.3133        -0.3301        -0.0624   5  26   3.1025   1.6657   1.4193  -1.5023   0.7942  -1.0582   0.00    0.0   -0.02930   -0.02930    0.00788   0.00000  0.00000  0.00000  0.00000  0.00000  0.00000
2268 259414.000   6378137.1672        -0.1296         0.1180   5  26   3.1042   1.6665   1.4201  -1.5024   0.7928  -1.0583   0.00    0.0   -0.04104   -0.02639   -0.01664   0.00000  0.00000  0.00000  0.00000  0.00000  0.00000
2268 259415.000   6378137.1611         0.0064         0.1094   5  26   3.1060   1.6672   1.4209  -1.5025   0.7915  -1.0584   0.00    0.0   -0.03552   -0.03986   -0.00009   0.00000  0.00000  0.00000  0.00000  0.00000  0.00000
2268 259416.000   6378137.0359         0.1282         0.1256   5  25   3.1778   1.7577   1.4712  -1.6203   0.6437  -0.9324   0.00    0.0   -0.02784   -0.04249   -0.00909   0.00000  0.00000  0.00000  0.00000  0.00000  0.00000
2268 259417.000   6378136.9725         0.0278         0.1878   5  25   3.1807   1.7591   1.4724  -1.6217   0.6407  -0.9309   0.00    0.0    0.00157   -0.00208   -0.00350   0.00000  0.00000  0.00000  0.00000  0.00000  0.00000
2268 259418.000   6378137.2104         0.0582         0.1362   5  25   3.1837   1.7605   1.4736  -1.6232   0.6376  -0.9295   0.00    0.0   -0.02907   -0.04901   -0.01524   0.00000  0.00000  0.00000  0.00000  0.00000  0.00000
2268 259419.000   6378137.1290         0.1293         0.2512   5  25   3.1867   1.7619   1.4749  -1.6248   0.6345  -0.9280   0.00    0.0   -0.00662   -0.04059    0.00987   0.00000  0.00000  0.00000  0.00000  0.00000  0.00000
2268 259420.000   6378137.2040         0.0860         0.2014   5  25   3.1897   1.7634   1.4761  -1.6263   0.6314  -0.9265   0.00    0.0   -0.03128   -0.02461   -0.00935   0.00000  0.00000  0.00000  0.00000  0.00000  0.00000
2268 259421.000   6378137.1708         0.2476         0.1433   5  25   3.1928   1.7648   1.4773  -1.6279   0.6282  -0.9250   0.00    0.0    0.01038   -0.05267   -0.01188   0.00000  0.00000  0.00000  0.00000  0.00000  0.00000
2268 259422.000   6378137.5403         0.0462        -0.0305   5  25   3.1960   1.7663   1.4786  -1.6295   0.6250  -0.9236   0.00    0.0   -0.01641   -0.01960    0.00070   0.00000  0.00000  0.00000  0.00000  0.00000  0.00000
2268 259423.000   6378137.6932         0.2444        -0.0046   5  25   3.1992   1.7677   1.4798  -1.6311   0.6217  -0.9221   0.00    0.0   -0.02542   -0.03086   -0.00906   0.00000  0.00000  0.00000  0.00000  0.00000  0.00000
2268 259424.000   6378137.5459         0.0530        -0.2347   5  25   3.2025   1.7692   1.4810  -1.6327   0.6185  -0.9206   0.00    0.0   -0.06953   -0.04847    0.00917   0.00000  0.00000  0.00000  0.00000  0.00000  0.00000
2268 259425.000   6378137.1176         0.1394        -0.0187   5  25   3.2058   1.7707   1.4823  -1.6344   0.6151  -0.9192   0.00    0.0   -0.03248   -0.03304   -0.00692   0.00000  0.00000  0.00000  0.00000  0.00000  0.00000
2268 259426.000   6378137.1130         0.0997         0.0878   5  25   3.2091   1.7722   1.4836  -1.6360   0.6118  -0.9177   0.00    0.0   -0.03539   -0.03563   -0.02204   0.00000  0.00000  0.00000  0.00000  0.00000  0.00000
2268 259427.000   6378137.0620         0.0900         0.0124   5  25   3.2125   1.7736   1.4848  -1.6377   0.6083  -0.9162   0.00    0.0   -0.04913   -0.03992   -0.01460   0.00000  0.00000  0.00000  0.00000  0.00000  0.00000
2268 259428.000   6378137.0335        -0.0765        -0.1350   5  25   3.2160   1.7751   1.4861  -1.6395   0.6049  -0.9148   0.00    0.0   -0.04713   -0.04240   -0.01738   0.00000  0.00000  0.00000  0.00000  0.00000  0.00000
2268 259429.000   6378136.8638         0.0134        -0.0732   5  25   3.2195   1.7766   1.4874  -1.6412   0.6014  -0.9133   0.00    0.0   -0.03351   -0.04639    0.01307   0.00000  0.00000  0.00000  0.00000  0.00000  0.00000
2268 259430.000   6378137.2669        -0.0021        -0.1073   5  25   3.2231   1.7781   1.4887  -1.6430   0.5978  -0.9118   0.00    0.0    0.01257   -0.03529   -0.01761   0.00000  0.00000  0.00000  0.00000  0.00000  0.00000
2268 259431.000   6378137.4512        -0.2207        -0.2110   5  25   3.2267   1.7797   1.4899  -1.6448   0.5943  -0.9103   0.00    0.0    0.00734   -0.03610   -0.02034   0.00000  0.00000  0.00000  0.00000  0.00000  0.00000
2268 259432.000   6378137.2935        -0.2225        -0.1558   5  25   3.2303   1.7812   1.4912  -1.6466   0.5906  -0.9089   0.00    0.0   -0.01813   -0.03816   -0.01180   0.00000  0.00000  0.00000  0.00000  0.00000  0.00000
2268 259433.000   6378137.6877        -0.3092        -0.2175   5  25   3.2341   1.7827   1.4925  -1.6485   0.5869  -0.9074   0.00    0.0   -0.07787   -0.02699   -0.01467   0.00000  0.00000  0.00000  0.00000  0.00000  0.00000
2268 259434.000   6378137.8621        -0.2940        -0.0224   5  25   3.2378   1.7842   1.4938  -1.6504   0.5832  -0.9059   0.00    0.0   -0.05236   -0.02457   -0.01533   0.00000  0.00000  0.00000  0.00000  0.00000  0.00000
2268 259435.000   6378137.3944        -0.1925        -0.0576   5  25   3.2417   1.7858   1.4952  -1.6523   0.5794  -0.9044   0.00    0.0   -0.04370   -0.03110   -0.00670   0.00000  0.00000  0.00000  0.00000  0.00000  0.00000
2268 259436.000   6378137.4092        -0.0133         0.0207   5  25   3.2456   1.7873   1.4965  -1.6542   0.5756  -0.9029   0.00    0.0    0.00137   -0.03359    0.00147   0.00000  0.00000  0.00000  0.00000  0.00000  0.00000
2268 259437.000   6378137.7256        -0.0916        -0.0401   5  25   3.2495   1.7889   1.4978  -1.6561   0.5717  -0.9014   0.00    0.0   -0.02496   -0.04640   -0.00080   0.00000  0.00000  0.00000  0.00000  0.00000  0.00000
2268 259438.000   6378137.4881        -0.0985        -0.0900   5  25   3.2535   1.7904   1.4991  -1.6581   0.5678  -0.8999   0.00    0.0   -0.02930   -0.03734   -0.02318   0.00000  0.00000  0.00000  0.00000  0.00000  0.00000
2268 259439.000   6378137.2734        -0.0088        -0.0875   5  25   3.2576   1.7920   1.5004  -1.6601   0.5638  -0.8984   0.00    0.0    0.01859   -0.03444   -0.02142   0.00000  0.00000  0.00000  0.00000  0.00000  0.00000
2268 259440.000   6378137.3059        -0.0362        -0.1467   5  25   3.2617   1.7935   1.5018  -1.6621   0.5597  -0.8969   0.00    0.0   -0.02966   -0.03063   -0.03200   0.00000  0.00000  0.00000  0.00000  0.00000  0.00000
2268 259441.000   6378137.1851        -0.0827        -0.1249   5  25   3.2659   1.7951   1.5031  -1.6641   0.5556  -0.8953   0.00    0.0    0.02741   -0.02899   -0.01973   0.00000  0.00000  0.00000  0.00000  0.00000  0.00000
2268 259442.000   6378136.7595         0.0540         0.0392   5  25   3.2701   1.7967   1.5045  -1.6662   0.5515  -0.8938   0.00    0.0   -0.01864   -0.03320    0.00138   0.00000  0.00000  0.00000  0.00000  0.00000  0.00000
2268 259443.000   6378136.7896        -0.0567        -0.0457   5  25   3.2744   1.7983   1.5058  -1.6683   0.5473  -0.8923   0.00    0.0   -0.03224   -0.03601    0.00911   0.00000  0.00000  0.00000  0.00000  0.00000  0.00000
2268 259444.000   6378137.0482        -0.2376        -0.0904   5  25   3.2787   1.7999   1.5072  -1.6704   0.5430  -0.8907   0.00    0.0   -0.03001   -0.04245   -0.01790   0.00000  0.00000  0.00000  0.00000  0.00000  0.00000
2268 259445.000   6378137.0006         0.0281         0.0550   5  25   3.2831   1.8015   1.5085  -1.6725   0.5386  -0.8891   0.00    0.0   -0.01016   -0.01521   -0.00143   0.00000  0.00000  0.00000  0.00000  0.00000  0.00000
2268 259446.000   6378137.0882         0.0651         0.0069   5  25   3.2876   1.8030   1.5099  -1.6747   0.5342  -0.8876   0.00    0.0   -0.03322   -0.04723   -0.00029   0.00000  0.00000  0.00000  0.00000  0.00000  0.00000
2268 259447.000   6378136.8733         0.0190        -0.1191   5  25   3.2921   1.8047   1.5113  -1.6769   0.5297  -0.8860   0.00    0.0   -0.03503   -0.02810    0.00032   0.00000  0.00000  0.00000  0.00000  0.00000  0.00000
2268 259448.000   6378136.6623         0.0444         0.1088   5  25   3.2967   1.8063   1.5126  -1.6791   0.5252  -0.8844   0.00    0.0   -0.03717   -0.04141   -0.01417   0.00000  0.00000  0.00000  0.00000  0.00000  0.00000
2268 259449.000   6378136.4625        -0.0554        -0.0517   5  25   3.3014   1.8079   1.5140  -1.6813   0.5205  -0.8827   0.00    0.0   -0.04185   -0.02376   -0.00197   0.00000  0.00000  0.00000  0.00000  0.00000  0.00000
2268 259450.000   6378136.5407        -0.0965        -0.0806   5  25   3.3061   1.8095   1.5154  -1.6836   0.5158  -0.8811   0.00    0.0   -0.01259   -0.04286    0.00088   0.00000  0.00000  0.00000  0.00000  0.00000  0.00000
2268 259451.000   6378136.4781        -0.1860        -0.1084   5  25   3.3109   1.8111   1.5168  -1.6859   0.5110  -0.8795   0.00    0.0   -0.03711   -0.03528   -0.00335   0.00000  0.00000  0.00000  0.00000  0.00000  0.00000
2268 259452.000   6378136.6730        -0.1163        -0.3162   5  25   3.3157   1.8127   1.5182  -1.6882   0.5062  -0.8778   0.00    0.0   -0.04025   -0.04198   -0.01412   0.00000  0.00000  0.00000  0.00000  0.00000  0.00000
2268 259453.000   6378136.7329        -0.1195        -0.3622   5  25   3.3206   1.8143   1.5195  -1.6905   0.5013  -0.8761   0.00    0.0   -0.00229   -0.02114   -0.01246   0.00000  0.00000  0.00000  0.00000  0.00000  0.00000
2268 259454.000   6378136.7561         0.0408        -0.3582   5  25   3.3256   1.8160   1.5209  -1.6928   0.4962  -0.8744   0.00    0.0   -0.01084   -0.02730   -0.01000   0.00000  0.00000  0.00000  0.00000  0.00000  0.00000
2268 259455.000   6378136.5663         0.1244        -0.3880   5  25   3.3306   1.8176   1.5223  -1.6952   0.4911  -0.8727   0.00    0.0   -0.02238   -0.02747    0.00102   0.00000  0.00000  0.00000  0.00000  0.00000  0.00000
2268 259456.000   6378136.4114         0.3557        -0.0868   5  25   3.3357   1.8192   1.5238  -1.6976   0.4859  -0.8710   0.00    0.0   -0.03554   -0.02117    0.00623   0.00000  0.00000  0.00000  0.00000  0.00000  0.00000
2268 259457.000   6378136.2895         0.5409         0.2092   5  25   3.3409   1.8209   1.5252  -1.7000   0.4806  -0.8692   0.00    0.0   -0.01092   -0.03609   -0.01522   0.00000  0.00000  0.00000  0.00000  0.00000  0.00000
2268 259458.000   6378136.3135         0.6859         0.4284   5  25   3.3461   1.8225   1.5266  -1.7025   0.4753  -0.8675   0.00    0.0   -0.05185   -0.05175    0.00316   0.00000  0.00000  0.00000  0.00000  0.00000  0.00000
2268 259459.000   6378136.4062         0.6011         0.4527   5  25   3.3514   1.8241   1.5280  -1.7049   0.4698  -0.8657   0.00    0.0   -0.03314   -0.02303   -0.00777   0.00000  0.00000  0.00000  0.00000  0.00000  0.00000
2268 259460.000   6378136.8119         0.3233         0.1503   5  25   3.3568   1.8258   1.5294  -1.7074   0.4642  -0.8638   0.00    0.0   -0.00357   -0.01725   -0.02261   0.00000  0.00000  0.00000  0.00000  0.00000  0.00000
2268 259461.000   6378137.1520         0.1862         0.2627   5  25   3.3622   1.8274   1.5308  -1.7099   0.4585  -0.8620   0.00    0.0   -0.05101   -0.04707   -0.03211   0.00000  0.00000  0.00000  0.00000  0.00000  0.00000
2268 259462.000   6378136.8481         0.3553         0.1533   5  25   3.3678   1.8291   1.5323  -1.7124   0.4527  -0.8601   0.00    0.0   -0.02121   -0.06043   -0.00895   0.00000  0.00000  0.00000  0.00000  0.00000  0.00000
2268 259463.000   6378136.9034         0.2702         0.1340   5  25   3.3733   1.8307   1.5337  -1.7150   0.4468  -0.8582   0.00    0.0    0.00306   -0.03452    0.01852   0.00000  0.00000  0.00000  0.00000  0.00000  0.00000
2268 259464.000   6378136.8014         0.2455         0.1116   5  25   3.3790   1.8324   1.5351  -1.7176   0.4407  -0.8563   0.00    0.0   -0.02976   -0.04504   -0.00935   0.00000  0.00000  0.00000  0.00000  0.00000  0.00000
2268 259465.000   6378137.0643         0.0848         0.1122   5  25   3.3847   1.8340   1.5366  -1.7202   0.4346  -0.8544   0.00    0.0   -0.01879   -0.02737   -0.00299   0.00000  0.00000  0.00000  0.00000  0.00000  0.00000
2268 259466.000   6378136.9313         0.1053         0.0371   5  25   3.3905   1.8357   1.5380  -1.7228   0.4283  -0.8524   0.00    0.0   -0.02176   -0.02716   -0.00831   0.00000  0.00000  0.00000  0.00000  0.00000  0.00000
2268 259467.000   6378136.1422         0.3277         0.1326   5  25   3.3963   1.8373   1.5394  -1.7254   0.4218  -0.8504   0.00    0.0   -0.04419   -0.03214    0.01179   0.00000  0.00000  0.00000  0.00000  0.00000  0.00000
2268 259468.000   6378136.3807         0.3298         0.2044   5  25   3.4022   1.8389   1.5409  -1.7281   0.4153  -0.8483   0.00    0.0    0.00229   -0.05232   -0.01546   0.00000  0.00000  0.00000  0.00000  0.00000  0.00000
2268 259469.000   6378136.9255         0.1226         0.0136   5  25   3.4082   1.8406   1.5423  -1.7308   0.4085  -0.8463   0.00    0.0   -0.04746   -0.03309    0.00301   0.00000  0.00000  0.00000  0.00000  0.00000  0.00000
2268 259470.000   6378136.6915         0.0392         0.1739   5  25   3.4143   1.8422   1.5438  -1.7335   0.4016  -0.8442   0.00    0.0   -0.03866   -0.04376    0.00372   0.00000  0.00000  0.00000  0.00000  0.00000  0.00000
2268 259471.000   6378136.9942        -0.1817         0.1501   5  25   3.4204   1.8439   1.5452  -1.7362   0.3946  -0.8420   0.00    0.0   -0.00771   -0.03256    0.01802   0.00000  0.00000  0.00000  0.00000  0.00000  0.00000
2268 259472.000   6378137.2613        -0.2056        -0.1006   5  25   3.4266   1.8455   1.5467  -1.7389   0.3874  -0.8398   0.00    0.0    0.00262   -0.02092   -0.03169   0.00000  0.00000  0.00000  0.00000  0.00000  0.00000
2268 259473.000   6378137.0892        -0.2255        -0.0234   5  25   3.4329   1.8472   1.5482  -1.7417   0.3799  -0.8376   0.00    0.0   -0.03319   -0.05772    0.01927   0.00000  0.00000  0.00000  0.00000  0.00000  0.00000
2268 259474.000   6378136.4562         0.1841         0.0767   5  25   3.4392   1.8488   1.5496  -1.7445   0.3723  -0.8354   0.00    0.0    0.00600   -0.03088   -0.00859   0.00000  0.00000  0.00000  0.00000  0.00000  0.00000
2268 259475.000   6378136.1599         0.1480         0.3851   5  25   3.4457   1.8505   1.5511  -1.7473   0.3645  -0.8331   0.00    0.0   -0.02703   -0.01300   -0.02017   0.00000  0.00000  0.00000  0.00000  0.00000  0.00000
2268 259476.000   6378136.3271        -0.0399         0.4353   5  25   3.4522   1.8521   1.5526  -1.7501   0.3565  -0.8308   0.00    0.0   -0.01707   -0.03789   -0.01706   0.00000  0.00000  0.00000  0.00000  0.00000  0.00000
2268 259477.000   6378136.2021        -0.0378         0.3327   5  25   3.4587   1.8538   1.5540  -1.7529   0.3482  -0.8284   0.00    0.0   -0.05721   -0.02609   -0.02805   0.00000  0.00000  0.00000  0.00000  0.00000  0.00000
2268 259478.000   6378136.1271        -0.1532         0.2769   5  25   3.4654   1.8554   1.5555  -1.7558   0.3396  -0.8260   0.00    0.0   -0.02237   -0.02824    0.00305   0.00000  0.00000  0.00000  0.00000  0.00000  0.00000
2268 259479.000   6378136.3055        -0.1949         0.1749   5  25   3.4721   1.8570   1.5570  -1.7587   0.3308  -0.8235   0.00    0.0   -0.03976   -0.03213   -0.00087   0.00000  0.00000  0.00000  0.00000  0.00000  0.00000
2268 259480.000   6378136.0206         0.2737         0.0734   5  25   3.4789   1.8587   1.5584  -1.7616   0.3217  -0.8210   0.00    0.0   -0.03958   -0.04137    0.01078   0.00000  0.00000  0.00000  0.00000  0.00000  0.00000
2268 259481.000   6378136.2634         0.4449         0.1055   5  25   3.4858   1.8603   1.5599  -1.7645   0.3122  -0.8184   0.00    0.0   -0.02197   -0.03531   -0.01364   0.00000  0.00000  0.00000  0.00000  0.00000  0.00000
2268 259482.000   6378136.4353         0.4658         0.0952   5  25   3.4927   1.8619   1.5614  -1.7674   0.3024  -0.8158   0.00    0.0   -0.00055   -0.02416   -0.00845   0.00000  0.00000  0.00000  0.00000  0.00000  0.00000
2268 259483.000   6378136.8013         0.5495         0.1266   5  25   3.4997   1.8635   1.5629  -1.7704   0.2923  -0.8131   0.00    0.0   -0.03098   -0.04120    0.00149   0.00000  0.00000  0.00000  0.00000  0.00000  0.00000
