% program   : GINav v0.1.0
% obs start : 2023/06/28 00:00:20.0
% obs end   : 2023/06/28 01:37:29.0
% mode      : PPP Kinematic
% system    : GPS GALILEO 
% nfreqs    : 2
% elev mask : 10.0 deg
% ephemeris : broadcast
% ionos opt : estimation
% trops opt : ZTD estimation
%
%  GPST              x-ecef(m)      y-ecef(m)      z-ecef(m)   Q  ns   sdx(m)   sdy(m)   sdz(m)  sdxy(m)  sdyz(m)  sdzx(m) age(s)  ratio    vx(m/s)    vy(m/s)    vz(m/s)      sdvx     sdvy     sdvz    sdvxy    sdvyz    sdvzx
2268 259219.996   4402957.6731    666835.5622   4550862.1991   6   7  10.8540   4.4119   9.1603   4.5614   3.9968   6.2926   0.00    0.0    0.03022    0.03825    0.07006   0.00000  0.00000  0.00000  0.00000  0.00000  0.00000
2268 259220.996   4402958.0797    666835.6333   4550862.1939   6   8   4.0491   3.0736   5.6436   2.0352   2.1938  -1.9372   0.00    0.0   -0.03863   -0.03519   -0.10093   0.00000  0.00000  0.00000  0.00000  0.00000  0.00000
2268 259221.996   4402957.9803    666835.5460   4550862.0639   6   9   3.0518   2.3978   4.6158   1.3061   1.9065  -1.4302   0.00    0.0   -0.05182   -0.00230   -0.08647   0.00000  0.00000  0.00000  0.00000  0.00000  0.00000
2268 259222.996   4402958.0144    666835.4120   4550861.6256   6   9   2.5947   2.0592   4.0251   1.0469   1.6802  -1.2161   0.00    0.0    0.01487   -0.02669   -0.03371   0.00000  0.00000  0.00000  0.00000  0.00000  0.00000
2268 259223.996   4402958.0678    666835.4317   4550861.4752   6   9   2.3078   1.8449   3.6268   0.9067   1.5164  -1.0852   0.00    0.0    0.00395   -0.00530    0.05126   0.00000  0.00000  0.00000  0.00000  0.00000  0.00000
2268 259224.996   4402958.0985    666835.4936   4550861.4978   6  10   2.0720   1.6838   3.3223   0.7770   1.4104  -0.9373   0.00    0.0    0.00577    0.01842    0.00971   0.00000  0.00000  0.00000  0.00000  0.00000  0.00000
2268 259225.996   4402958.1346    666835.4430   4550861.5129   6  10   1.9042   1.5650   3.0814   0.6966   1.3225  -0.8323   0.00    0.0    0.00882   -0.00197    0.07795   0.00000  0.00000  0.00000  0.00000  0.00000  0.00000
2268 259226.996   4402958.1963    666835.4762   4550861.5957   6  10   1.7770   1.4725   2.8945   0.6426   1.2469  -0.7627   0.00    0.0    0.01347    0.00719    0.06632   0.00000  0.00000  0.00000  0.00000  0.00000  0.00000
2268 259227.996   4402958.2427    666835.5224   4550861.7915   6  10   1.6758   1.3978   2.7423   0.6039   1.1825  -0.7107   0.00    0.0    0.01120   -0.00105   -0.00121   0.00000  0.00000  0.00000  0.00000  0.00000  0.00000
2268 259228.996   4402958.2914    666835.6509   4550861.9640   6  10   1.5928   1.3358   2.6149   0.5748   1.1271  -0.6698   0.00    0.0    0.00794    0.02563   -0.05701   0.00000  0.00000  0.00000  0.00000  0.00000  0.00000
2268 259229.996   4402958.2785    666835.6786   4550862.0767   6  10   1.5232   1.2835   2.5062   0.5524   1.0789  -0.6367   0.00    0.0    0.06218   -0.02017    0.02116   0.00000  0.00000  0.00000  0.00000  0.00000  0.00000
2268 259230.996   4402958.2389    666835.7688   4550862.2912   6  10   1.4637   1.2385   2.4122   0.5346   1.0365  -0.6091   0.00    0.0   -0.02048    0.00367   -0.01592   0.00000  0.00000  0.00000  0.00000  0.00000  0.00000
2268 259231.996   4402958.1502    666835.7959   4550862.3830   6  10   1.4122   1.1994   2.3299   0.5203   0.9988  -0.5858   0.00    0.0    0.02959   -0.01829    0.06082   0.00000  0.00000  0.00000  0.00000  0.00000  0.00000
2268 259232.996   4402958.1314    666835.8108   4550862.3839   6  10   1.3671   1.1651   2.2570   0.5085   0.9651  -0.5658   0.00    0.0    0.00793   -0.01661   -0.06256   0.00000  0.00000  0.00000  0.00000  0.00000  0.00000
2268 259233.996   4402958.1145    666835.7971   4550862.3558   6  10   1.3272   1.1346   2.1919   0.4987   0.9347  -0.5484   0.00    0.0   -0.06881   -0.02076   -0.02450   0.00000  0.00000  0.00000  0.00000  0.00000  0.00000
2268 259234.996   4402958.0373    666835.7661   4550862.3544   6  10   1.2916   1.1073   2.1334   0.4904   0.9071  -0.5332   0.00    0.0   -0.02226   -0.02106   -0.03506   0.00000  0.00000  0.00000  0.00000  0.00000  0.00000
2268 259235.996   4402958.0428    666835.7572   4550862.3482   6  10   1.2595   1.0828   2.0804   0.4833   0.8819  -0.5196   0.00    0.0   -0.01119    0.00363   -0.00329   0.00000  0.00000  0.00000  0.00000  0.00000  0.00000
2268 259236.996   4402958.0531    666835.7322   4550862.2454   6  10   1.2306   1.0606   2.0322   0.4772   0.8588  -0.5076   0.00    0.0    0.03661    0.01843    0.04460   0.00000  0.00000  0.00000  0.00000  0.00000  0.00000
2268 259237.996   4402958.0403    666835.6927   4550862.2240   6  10   1.2042   1.0403   1.9881   0.4719   0.8375  -0.4967   0.00    0.0    0.01224    0.01973   -0.00780   0.00000  0.00000  0.00000  0.00000  0.00000  0.00000
2268 259238.996   4402958.0576    666835.7043   4550862.1866   6  10   1.1801   1.0218   1.9476   0.4673   0.8178  -0.4869   0.00    0.0   -0.04678    0.00822   -0.05057   0.00000  0.00000  0.00000  0.00000  0.00000  0.00000
2268 259239.996   4402958.0492    666835.6999   4550862.1739   6  10   1.1580   1.0048   1.9102   0.4632   0.7996  -0.4780   0.00    0.0    0.06180   -0.01878    0.00592   0.00000  0.00000  0.00000  0.00000  0.00000  0.00000
2268 259240.996   4402958.0737    666835.6787   4550862.1196   6  10   1.1376   0.9891   1.8756   0.4595   0.7825  -0.4699   0.00    0.0    0.03562   -0.01013    0.04094   0.00000  0.00000  0.00000  0.00000  0.00000  0.00000
2268 259241.996   4402958.0544    666835.7108   4550862.1431   6  10   1.1187   0.9746   1.8434   0.4563   0.7666  -0.4625   0.00    0.0    0.00892    0.03852    0.02172   0.00000  0.00000  0.00000  0.00000  0.00000  0.00000
2268 259242.996   4402958.0664    666835.7104   4550862.1017   6  10   1.1011   0.9611   1.8134   0.4534   0.7517  -0.4557   0.00    0.0   -0.00733    0.00294    0.07253   0.00000  0.00000  0.00000  0.00000  0.00000  0.00000
2268 259243.996   4402958.0256    666835.7014   4550862.0690   6  10   1.0848   0.9486   1.7853   0.4507   0.7377  -0.4493   0.00    0.0    0.04647   -0.01681    0.01223   0.00000  0.00000  0.00000  0.00000  0.00000  0.00000
2268 259244.996   4402957.9972    666835.7060   4550862.0742   6  10   1.0695   0.9368   1.7590   0.4484   0.7244  -0.4435   0.00    0.0    0.02326    0.01797    0.03184   0.00000  0.00000  0.00000  0.00000  0.00000  0.00000
2268 259245.996   4402957.9619    666835.6802   4550862.0401   6  10   1.0552   0.9258   1.7343   0.4462   0.7120  -0.4381   0.00    0.0   -0.00923   -0.03324   -0.05424   0.00000  0.00000  0.00000  0.00000  0.00000  0.00000
2268 259246.996   4402957.9664    666835.7175   4550862.0954   6  10   1.0418   0.9155   1.7111   0.4442   0.7002  -0.4331   0.00    0.0   -0.05071   -0.00501    0.00229   0.00000  0.00000  0.00000  0.00000  0.00000  0.00000
2268 259247.996   4402957.9199    666835.7207   4550862.2385   6  10   1.0292   0.9059   1.6892   0.4424   0.6890  -0.4284   0.00    0.0    0.02190    0.01752    0.02691   0.00000  0.00000  0.00000  0.00000  0.00000  0.00000
2268 259248.996   4402957.9195    666835.6955   4550862.2594   6  10   1.0173   0.8967   1.6684   0.4407   0.6784  -0.4240   0.00    0.0   -0.02830   -0.00351    0.03890   0.00000  0.00000  0.00000  0.00000  0.00000  0.00000
2268 259249.996   4402957.9251    666835.6991   4550862.2668   6  10   1.0061   0.8881   1.6488   0.4392   0.6683  -0.4199   0.00    0.0   -0.10813    0.01636   -0.07699   0.00000  0.00000  0.00000  0.00000  0.00000  0.00000
2268 259250.996   4402957.9258    666835.6619   4550862.2506   6  10   0.9954   0.8800   1.6302   0.4377   0.6587  -0.4160   0.00    0.0    0.03349    0.03550    0.02148   0.00000  0.00000  0.00000  0.00000  0.00000  0.00000
2268 259251.996   4402958.0032    666835.6616   4550862.1315   6  10   0.9854   0.8722   1.6125   0.4364   0.6495  -0.4124   0.00    0.0   -0.01054    0.01778   -0.03868   0.00000  0.00000  0.00000  0.00000  0.00000  0.00000
2268 259252.996   4402958.0472    666835.6489   4550862.0214   6  10   0.9758   0.8649   1.5957   0.4352   0.6408  -0.4090   0.00    0.0   -0.06887   -0.04995   -0.10792   0.00000  0.00000  0.00000  0.00000  0.00000  0.00000
2268 259253.996   4402958.0695    666835.6380   4550861.9236   6  10   0.9667   0.8580   1.5796   0.4340   0.6324  -0.4057   0.00    0.0    0.07025   -0.00333    0.01876   0.00000  0.00000  0.00000  0.00000  0.00000  0.00000
2268 259254.996   4402958.0590    666835.6625   4550861.8816   6  10   0.9581   0.8513   1.5643   0.4329   0.6244  -0.4027   0.00    0.0   -0.03691   -0.00586    0.04124   0.00000  0.00000  0.00000  0.00000  0.00000  0.00000
2268 259255.996   4402958.0424    666835.6999   4550861.8985   6  10   0.9498   0.8450   1.5497   0.4319   0.6167  -0.3998   0.00    0.0    0.04746   -0.00671    0.02807   0.00000  0.00000  0.00000  0.00000  0.00000  0.00000
2268 259256.996   4402958.0646    666835.7594   4550861.8824   6  10   0.9419   0.8390   1.5358   0.4310   0.6093  -0.3971   0.00    0.0    0.06010    0.00200    0.10362   0.00000  0.00000  0.00000  0.00000  0.00000  0.00000
2268 259257.996   4402958.0750    666835.7683   4550861.8339   6  10   0.9344   0.8333   1.5224   0.4301   0.6022  -0.3945   0.00    0.0   -0.05382    0.00423   -0.04950   0.00000  0.00000  0.00000  0.00000  0.00000  0.00000
2268 259258.996   4402958.0650    666835.7531   4550861.8146   6  10   0.9272   0.8278   1.5096   0.4292   0.5954  -0.3921   0.00    0.0    0.05032    0.03640    0.03284   0.00000  0.00000  0.00000  0.00000  0.00000  0.00000
2268 259259.996   4402958.0401    666835.7735   4550861.8176   6  10   0.9203   0.8225   1.4973   0.4285   0.5888  -0.3897   0.00    0.0   -0.00683   -0.00267   -0.01419   0.00000  0.00000  0.00000  0.00000  0.00000  0.00000
2268 259260.996   4402958.0359    666835.7822   4550861.8424   6  10   0.9137   0.8175   1.4855   0.4277   0.5825  -0.3875   0.00    0.0    0.02665    0.01363    0.02046   0.00000  0.00000  0.00000  0.00000  0.00000  0.00000
2268 259261.996   4402957.9811    666835.7169   4550861.8382   6  10   0.9074   0.8127   1.4741   0.4270   0.5764  -0.3854   0.00    0.0    0.01162    0.00086    0.02308   0.00000  0.00000  0.00000  0.00000  0.00000  0.00000
2268 259262.996   4402957.9551    666835.6869   4550861.8525   6  10   0.9013   0.8080   1.4632   0.4263   0.5705  -0.3834   0.00    0.0    0.04013   -0.04703    0.00141   0.00000  0.00000  0.00000  0.00000  0.00000  0.00000
2268 259263.996   4402957.9595    666835.6810   4550861.8138   6  10   0.8955   0.8036   1.4527   0.4257   0.5648  -0.3814   0.00    0.0    0.05856    0.01763    0.02752   0.00000  0.00000  0.00000  0.00000  0.00000  0.00000
2268 259264.996   4402957.9371    666835.6405   4550861.7748   6  10   0.8898   0.7993   1.4426   0.4251   0.5593  -0.3796   0.00    0.0   -0.03934   -0.03392   -0.00162   0.00000  0.00000  0.00000  0.00000  0.00000  0.00000
2268 259265.996   4402957.9495    666835.6417   4550861.7389   6  10   0.8844   0.7952   1.4328   0.4245   0.5540  -0.3779   0.00    0.0    0.04211   -0.00314   -0.02637   0.00000  0.00000  0.00000  0.00000  0.00000  0.00000
2268 259266.996   4402957.9413    666835.6216   4550861.7448   6  10   0.8792   0.7912   1.4234   0.4239   0.5488  -0.3762   0.00    0.0   -0.03815   -0.01244   -0.09649   0.00000  0.00000  0.00000  0.00000  0.00000  0.00000
2268 259267.996   4402957.9634    666835.6354   4550861.7310   6  10   0.8742   0.7874   1.4143   0.4234   0.5438  -0.3746   0.00    0.0   -0.00032    0.02181    0.06323   0.00000  0.00000  0.00000  0.00000  0.00000  0.00000
2268 259268.996   4402957.9466    666835.5965   4550861.7294   6  10   0.8693   0.7837   1.4055   0.4229   0.5390  -0.3731   0.00    0.0    0.02177    0.01300   -0.00802   0.00000  0.00000  0.00000  0.00000  0.00000  0.00000
2268 259269.996   4402957.9297    666835.6054   4550861.7976   6  10   0.8646   0.7802   1.3970   0.4224   0.5343  -0.3716   0.00    0.0    0.05083   -0.00656   -0.07320   0.00000  0.00000  0.00000  0.00000  0.00000  0.00000
2268 259270.996   4402957.9080    666835.6337   4550861.8857   6  10   0.8601   0.7768   1.3888   0.4220   0.5298  -0.3702   0.00    0.0   -0.02729   -0.04658   -0.11332   0.00000  0.00000  0.00000  0.00000  0.00000  0.00000
2268 259271.996   4402957.9099    666835.6326   4550861.8990   6  10   0.8557   0.7734   1.3809   0.4215   0.5254  -0.3688   0.00    0.0    0.02366    0.00451    0.04818   0.00000  0.00000  0.00000  0.00000  0.00000  0.00000
2268 259272.996   4402957.9480    666835.6307   4550861.8358   6  10   0.8515   0.7702   1.3732   0.4211   0.5211  -0.3675   0.00    0.0    0.02444    0.00790    0.02607   0.00000  0.00000  0.00000  0.00000  0.00000  0.00000
2268 259273.996   4402957.9541    666835.6097   4550861.7870   6  10   0.8474   0.7671   1.3657   0.4207   0.5169  -0.3663   0.00    0.0    0.00833    0.02671    0.05217   0.00000  0.00000  0.00000  0.00000  0.00000  0.00000
2268 259274.996   4402957.9785    666835.6009   4550861.7384   6  10   0.8434   0.7641   1.3584   0.4203   0.5128  -0.3651   0.00    0.0    0.05122    0.01219    0.05005   0.00000  0.00000  0.00000  0.00000  0.00000  0.00000
2268 259275.996   4402958.0174    666835.5866   4550861.6764   6  10   0.8396   0.7612   1.3514   0.4199   0.5089  -0.3639   0.00    0.0    0.01626   -0.00899    0.01716   0.00000  0.00000  0.00000  0.00000  0.00000  0.00000
2268 259276.996   4402958.0588    666835.5947   4550861.6333   6  10   0.8358   0.7584   1.3446   0.4196   0.5051  -0.3628   0.00    0.0    0.03172    0.00633    0.01901   0.00000  0.00000  0.00000  0.00000  0.00000  0.00000
2268 259277.996   4402958.0852    666835.5948   4550861.6208   6  10   0.8322   0.7557   1.3379   0.4192   0.5013  -0.3617   0.00    0.0    0.00623    0.02661    0.05143   0.00000  0.00000  0.00000  0.00000  0.00000  0.00000
2268 259278.996   4402958.1034    666835.5696   4550861.6249   6  10   0.8287   0.7530   1.3315   0.4189   0.4977  -0.3607   0.00    0.0    0.06122    0.02243   -0.02559   0.00000  0.00000  0.00000  0.00000  0.00000  0.00000
2268 259279.996   4402958.0921    666835.5934   4550861.6920   6  10   0.8253   0.7505   1.3252   0.4185   0.4941  -0.3597   0.00    0.0    0.07086    0.03309    0.05094   0.00000  0.00000  0.00000  0.00000  0.00000  0.00000
2268 259280.996   4402958.0962    666835.5801   4550861.7055   6  10   0.8220   0.7480   1.3192   0.4182   0.4907  -0.3588   0.00    0.0    0.07837    0.01947    0.08069   0.00000  0.00000  0.00000  0.00000  0.00000  0.00000
2268 259281.996   4402958.0510    666835.5583   4550861.7104   6  10   0.8187   0.7456   1.3132   0.4179   0.4873  -0.3579   0.00    0.0    0.04837    0.01745   -0.05387   0.00000  0.00000  0.00000  0.00000  0.00000  0.00000
2268 259282.996   4402958.0293    666835.5556   4550861.7423   6  10   0.8156   0.7432   1.3075   0.4176   0.4840  -0.3570   0.00    0.0    0.04482   -0.00728    0.08622   0.00000  0.00000  0.00000  0.00000  0.00000  0.00000
2268 259283.996   4402958.0553    666835.5936   4550861.6826   6  10   0.8126   0.7409   1.3019   0.4173   0.4808  -0.3561   0.00    0.0   -0.05341   -0.05586   -0.05302   0.00000  0.00000  0.00000  0.00000  0.00000  0.00000
2268 259284.996   4402958.0210    666835.5880   4550861.6973   6  10   0.8096   0.7387   1.2964   0.4171   0.4776  -0.3553   0.00    0.0   -0.00130    0.00584   -0.01124   0.00000  0.00000  0.00000  0.00000  0.00000  0.00000
2268 259285.996   4402958.0452    666835.5809   4550861.6051   6  10   0.8067   0.7365   1.2911   0.4168   0.4746  -0.3545   0.00    0.0    0.04791   -0.01877   -0.02435   0.00000  0.00000  0.00000  0.00000  0.00000  0.00000
2268 259286.996   4402958.0890    666835.6452   4550861.5748   6  10   0.8039   0.7344   1.2859   0.4165   0.4716  -0.3537   0.00    0.0    0.04480   -0.00210   -0.02027   0.00000  0.00000  0.00000  0.00000  0.00000  0.00000
2268 259287.996   4402958.0821    666835.6391   4550861.5702   6  10   0.8012   0.7324   1.2808   0.4163   0.4686  -0.3530   0.00    0.0   -0.01951    0.00456   -0.00270   0.00000  0.00000  0.00000  0.00000  0.00000  0.00000
2268 259288.996   4402958.0736    666835.6522   4550861.6275   6  10   0.7985   0.7304   1.2758   0.4160   0.4658  -0.3523   0.00    0.0    0.01538    0.02460    0.02315   0.00000  0.00000  0.00000  0.00000  0.00000  0.00000
2268 259289.996   4402958.0565    666835.6481   4550861.6614   6  10   0.7959   0.7284   1.2710   0.4158   0.4630  -0.3516   0.00    0.0    0.07946    0.00560    0.05590   0.00000  0.00000  0.00000  0.00000  0.00000  0.00000
2268 259290.996   4402958.0729    666835.6650   4550861.6633   6  10   0.7934   0.7265   1.2663   0.4156   0.4602  -0.3509   0.00    0.0   -0.00458    0.01781   -0.03809   0.00000  0.00000  0.00000  0.00000  0.00000  0.00000
2268 259291.996   4402958.0569    666835.7046   4550861.7474   6  10   0.7909   0.7247   1.2617   0.4153   0.4575  -0.3503   0.00    0.0    0.06758   -0.00633    0.06098   0.00000  0.00000  0.00000  0.00000  0.00000  0.00000
2268 259292.996   4402958.0664    666835.7206   4550861.7270   6  10   0.7885   0.7229   1.2572   0.4151   0.4549  -0.3496   0.00    0.0    0.01238   -0.05386   -0.08599   0.00000  0.00000  0.00000  0.00000  0.00000  0.00000
2268 259293.996   4402958.0636    666835.7346   4550861.7699   6  10   0.7861   0.7211   1.2528   0.4149   0.4523  -0.3490   0.00    0.0    0.01720   -0.00979   -0.01938   0.00000  0.00000  0.00000  0.00000  0.00000  0.00000
2268 259294.996   4402958.0368    666835.6769   4550861.7946   6  10   0.7838   0.7194   1.2485   0.4147   0.4498  -0.3485   0.00    0.0    0.00743   -0.01600   -0.07946   0.00000  0.00000  0.00000  0.00000  0.00000  0.00000
2268 259295.996   4402958.0490    666835.7019   4550861.8203   6  10   0.7815   0.7177   1.2443   0.4145   0.4473  -0.3479   0.00    0.0    0.00808    0.00589    0.00646   0.00000  0.00000  0.00000  0.00000  0.00000  0.00000
2268 259296.996   4402958.0686    666835.6880   4550861.7836   6  10   0.7793   0.7161   1.2402   0.4143   0.4449  -0.3473   0.00    0.0   -0.01680   -0.02360   -0.09232   0.00000  0.00000  0.00000  0.00000  0.00000  0.00000
2268 259297.996   4402958.0806    666835.7374   4550861.8288   6  10   0.7772   0.7145   1.2362   0.4141   0.4425  -0.3468   0.00    0.0    0.00953    0.01483   -0.14325   0.00000  0.00000  0.00000  0.00000  0.00000  0.00000
2268 259298.996   4402958.0872    666835.7121   4550861.8070   6  10   0.7751   0.7129   1.2323   0.4139   0.4402  -0.3463   0.00    0.0   -0.02204    0.00296   -0.12333   0.00000  0.00000  0.00000  0.00000  0.00000  0.00000
2268 259299.996   4402958.1032    666835.7068   4550861.8003   6  10   0.7730   0.7114   1.2285   0.4137   0.4379  -0.3458   0.00    0.0    0.02170    0.01979    0.01427   0.00000  0.00000  0.00000  0.00000  0.00000  0.00000
2268 259300.996   4402958.1057    666835.7181   4550861.8455   6  10   0.7710   0.7099   1.2247   0.4136   0.4357  -0.3453   0.00    0.0    0.06156   -0.00568   -0.01170   0.00000  0.00000  0.00000  0.00000  0.00000  0.00000
2268 259301.996   4402958.1045    666835.7069   4550861.8261   6  10   0.7691   0.7085   1.2210   0.4134   0.4335  -0.3449   0.00    0.0   -0.02070   -0.03085   -0.10043   0.00000  0.00000  0.00000  0.00000  0.00000  0.00000
2268 259302.996   4402958.1184    666835.7405   4550861.8632   6  10   0.7671   0.7070   1.2174   0.4132   0.4313  -0.3444   0.00    0.0   -0.03505    0.03273    0.02678   0.00000  0.00000  0.00000  0.00000  0.00000  0.00000
2268 259303.996   4402958.1150    666835.7473   4550861.9229   6  10   0.7653   0.7056   1.2139   0.4130   0.4292  -0.3440   0.00    0.0    0.02808    0.00726    0.02829   0.00000  0.00000  0.00000  0.00000  0.00000  0.00000
2268 259304.996   4402958.0979    666835.7126   4550861.9269   6  10   0.7634   0.7043   1.2104   0.4129   0.4271  -0.3436   0.00    0.0   -0.02313   -0.02114    0.01805   0.00000  0.00000  0.00000  0.00000  0.00000  0.00000
2268 259305.996   4402958.1003    666835.7445   4550861.9207   6  10   0.7616   0.7029   1.2070   0.4127   0.4251  -0.3432   0.00    0.0    0.03024    0.00003   -0.02574   0.00000  0.00000  0.00000  0.00000  0.00000  0.00000
2268 259306.996   4402958.1035    666835.7535   4550861.9338   6  10   0.7598   0.7016   1.2037   0.4126   0.4231  -0.3428   0.00    0.0    0.02203    0.01217    0.05477   0.00000  0.00000  0.00000  0.00000  0.00000  0.00000
2268 259307.996   4402958.0934    666835.7638   4550861.9645   6  10   0.7581   0.7003   1.2004   0.4124   0.4211  -0.3424   0.00    0.0    0.02369    0.00171   -0.01139   0.00000  0.00000  0.00000  0.00000  0.00000  0.00000
2268 259308.996   4402958.1053    666835.8010   4550861.9726   6  10   0.7564   0.6991   1.1972   0.4122   0.4192  -0.3420   0.00    0.0   -0.00973    0.03133   -0.04370   0.00000  0.00000  0.00000  0.00000  0.00000  0.00000
2268 259309.996   4402958.1216    666835.8111   4550861.9801   6  10   0.7547   0.6979   1.1941   0.4121   0.4173  -0.3416   0.00    0.0   -0.00289   -0.01255   -0.04419   0.00000  0.00000  0.00000  0.00000  0.00000  0.00000
2268 259310.996   4402958.1417    666835.8351   4550861.9409   6  10   0.7531   0.6967   1.1910   0.4119   0.4154  -0.3413   0.00    0.0   -0.04428    0.03294    0.02130   0.00000  0.00000  0.00000  0.00000  0.00000  0.00000
2268 259311.996   4402958.1125    666835.8137   4550861.9753   6  10   0.7515   0.6955   1.1880   0.4118   0.4136  -0.3410   0.00    0.0   -0.08307   -0.00901   -0.04225   0.00000  0.00000  0.00000  0.00000  0.00000  0.00000
2268 259312.996   4402958.1094    666835.8024   4550861.9500   6  10   0.7499   0.6943   1.1850   0.4117   0.4117  -0.3406   0.00    0.0    0.01673   -0.02504   -0.04397   0.00000  0.00000  0.00000  0.00000  0.00000  0.00000
2268 259313.996   4402958.0912    666835.7849   4550861.9689   6  10   0.7484   0.6932   1.1821   0.4115   0.4100  -0.3403   0.00    0.0   -0.01423    0.00212    0.01421   0.00000  0.00000  0.00000  0.00000  0.00000  0.00000
2268 259314.996   4402958.0811    666835.8127   4550861.9775   6  10   0.7469   0.6921   1.1792   0.4114   0.4082  -0.3400   0.00    0.0    0.07624   -0.00357    0.10921   0.00000  0.00000  0.00000  0.00000  0.00000  0.00000
2268 259315.996   4402958.0414    666835.7819   4550862.0147   6  10   0.7454   0.6910   1.1764   0.4113   0.4065  -0.3397   0.00    0.0    0.02297    0.01689    0.08581   0.00000  0.00000  0.00000  0.00000  0.00000  0.00000
2268 259316.996   4402958.0325    666835.7720   4550862.0043   6  10   0.7439   0.6899   1.1737   0.4111   0.4048  -0.3394   0.00    0.0    0.00633    0.01567   -0.02811   0.00000  0.00000  0.00000  0.00000  0.00000  0.00000
2268 259317.996   4402958.0239    666835.7514   4550861.9668   6  10   0.7425   0.6889   1.1709   0.4110   0.4031  -0.3391   0.00    0.0   -0.00491   -0.00940   -0.05599   0.00000  0.00000  0.00000  0.00000  0.00000  0.00000
2268 259318.996   4402958.0096    666835.7542   4550861.9614   6  10   0.7411   0.6878   1.1683   0.4109   0.4015  -0.3389   0.00    0.0   -0.00729   -0.01300    0.01981   0.00000  0.00000  0.00000  0.00000  0.00000  0.00000
2268 259319.996   4402958.0180    666835.7769   4550861.9890   6  10   0.7397   0.6868   1.1657   0.4107   0.3999  -0.3386   0.00    0.0    0.00417    0.01833   -0.05645   0.00000  0.00000  0.00000  0.00000  0.00000  0.00000
2268 259320.996   4402958.0016    666835.7447   4550861.9655   6  10   0.7384   0.6858   1.1631   0.4106   0.3983  -0.3384   0.00    0.0    0.02397   -0.00462   -0.00852   0.00000  0.00000  0.00000  0.00000  0.00000  0.00000
2268 259321.996   4402957.9788    666835.7109   4550861.9783   6  10   0.7370   0.6849   1.1606   0.4105   0.3967  -0.3381   0.00    0.0    0.02789    0.00770    0.00670   0.00000  0.00000  0.00000  0.00000  0.00000  0.00000
2268 259322.996   4402957.9847    666835.7156   4550861.9847   6  10   0.7357   0.6839   1.1581   0.4104   0.3952  -0.3379   0.00    0.0   -0.01027   -0.02344    0.01846   0.00000  0.00000  0.00000  0.00000  0.00000  0.00000
2268 259323.996   4402957.9623    666835.7177   4550862.0139   6  10   0.7344   0.6830   1.1556   0.4103   0.3936  -0.3377   0.00    0.0   -0.04836   -0.02206   -0.09615   0.00000  0.00000  0.00000  0.00000  0.00000  0.00000
2268 259324.996   4402957.9891    666835.7080   4550861.9770   6  10   0.7332   0.6820   1.1532   0.4102   0.3921  -0.3374   0.00    0.0    0.03990    0.00468    0.08939   0.00000  0.00000  0.00000  0.00000  0.00000  0.00000
2268 259325.996   4402958.0084    666835.7492   4550861.9779   6  10   0.7319   0.6811   1.1508   0.4100   0.3907  -0.3372   0.00    0.0    0.02264   -0.00870   -0.11578   0.00000  0.00000  0.00000  0.00000  0.00000  0.00000
2268 259326.996   4402958.0168    666835.7529   4550861.9594   6  10   0.7307   0.6802   1.1485   0.4099   0.3892  -0.3370   0.00    0.0    0.04828   -0.04597   -0.01159   0.00000  0.00000  0.00000  0.00000  0.00000  0.00000
2268 259327.996   4402957.9905    666835.7268   4550862.0155   6  10   0.7295   0.6794   1.1462   0.4098   0.3878  -0.3368   0.00    0.0    0.05243   -0.00435   -0.00554   0.00000  0.00000  0.00000  0.00000  0.00000  0.00000
2268 259328.996   4402957.9840    666835.6983   4550862.0184   6  10   0.7283   0.6785   1.1439   0.4097   0.3863  -0.3366   0.00    0.0   -0.01492   -0.00179   -0.02842   0.00000  0.00000  0.00000  0.00000  0.00000  0.00000
2268 259329.996   4402957.9971    666835.6958   4550862.0070   6  10   0.7272   0.6776   1.1417   0.4096   0.3849  -0.3364   0.00    0.0   -0.01643   -0.00091   -0.02548   0.00000  0.00000  0.00000  0.00000  0.00000  0.00000
2268 259330.996   4402957.9845    666835.6915   4550862.0520   6  10   0.7260   0.6768   1.1395   0.4095   0.3836  -0.3362   0.00    0.0   -0.00872   -0.00420    0.01838   0.00000  0.00000  0.00000  0.00000  0.00000  0.00000
2268 259331.996   4402957.9968    666835.6916   4550862.0038   6  10   0.7249   0.6760   1.1374   0.4094   0.3822  -0.3361   0.00    0.0    0.09738    0.00924    0.00600   0.00000  0.00000  0.00000  0.00000  0.00000  0.00000
2268 259332.996   4402957.9877    666835.6917   4550862.0126   6  10   0.7238   0.6752   1.1352   0.4093   0.3809  -0.3359   0.00    0.0    0.06521   -0.00429   -0.00828   0.00000  0.00000  0.00000  0.00000  0.00000  0.00000
2268 259333.996   4402957.9731    666835.7015   4550862.0343   6  10   0.7227   0.6744   1.1332   0.4092   0.3796  -0.3357   0.00    0.0   -0.03274    0.00015   -0.00458   0.00000  0.00000  0.00000  0.00000  0.00000  0.00000
2268 259334.996   4402957.9820    666835.7064   4550862.0417   6  10   0.7216   0.6736   1.1311   0.4091   0.3783  -0.3356   0.00    0.0    0.08049    0.01634    0.06855   0.00000  0.00000  0.00000  0.00000  0.00000  0.00000
2268 259335.996   4402958.0138    666835.7454   4550861.9946   6  10   0.7205   0.6728   1.1291   0.4090   0.3770  -0.3354   0.00    0.0    0.04734    0.05469    0.04092   0.00000  0.00000  0.00000  0.00000  0.00000  0.00000
2268 259336.996   4402958.0320    666835.7854   4550861.9922   6  10   0.7195   0.6721   1.1271   0.4089   0.3757  -0.3353   0.00    0.0    0.01351   -0.05793    0.06327   0.00000  0.00000  0.00000  0.00000  0.00000  0.00000
2268 259337.996   4402958.0448    666835.7725   4550861.9623   6  10   0.7185   0.6714   1.1251   0.4088   0.3745  -0.3351   0.00    0.0    0.03219    0.03585    0.07370   0.00000  0.00000  0.00000  0.00000  0.00000  0.00000
2268 259338.996   4402958.0223    666835.7534   4550861.9533   6  10   0.7175   0.6706   1.1232   0.4087   0.3732  -0.3350   0.00    0.0   -0.00078    0.00928    0.00758   0.00000  0.00000  0.00000  0.00000  0.00000  0.00000
2268 259339.996   4402958.0093    666835.7284   4550861.9546   6  10   0.7165   0.6699   1.1212   0.4086   0.3720  -0.3349   0.00    0.0    0.00690   -0.01018   -0.04084   0.00000  0.00000  0.00000  0.00000  0.00000  0.00000
2268 259340.996   4402958.0164    666835.7424   4550861.9667   6  10   0.7155   0.6692   1.1194   0.4085   0.3708  -0.3348   0.00    0.0    0.03534   -0.00051   -0.00303   0.00000  0.00000  0.00000  0.00000  0.00000  0.00000
2268 259341.996   4402957.9953    666835.7250   4550861.9784   6  10   0.7145   0.6685   1.1175   0.4084   0.3696  -0.3346   0.00    0.0   -0.03287   -0.03756   -0.05348   0.00000  0.00000  0.00000  0.00000  0.00000  0.00000
2268 259342.996   4402957.9932    666835.7204   4550861.9917   6  10   0.7136   0.6678   1.1157   0.4083   0.3684  -0.3345   0.00    0.0   -0.00061    0.01315   -0.01724   0.00000  0.00000  0.00000  0.00000  0.00000  0.00000
2268 259343.996   4402957.9594    666835.6991   4550862.0038   6  10   0.7126   0.6671   1.1138   0.4082   0.3673  -0.3344   0.00    0.0    0.02075   -0.01606   -0.02454   0.00000  0.00000  0.00000  0.00000  0.00000  0.00000
2268 259344.996   4402957.9622    666835.6969   4550861.9982   6  10   0.7117   0.6665   1.1121   0.4082   0.3661  -0.3343   0.00    0.0    0.02309    0.01218    0.07855   0.00000  0.00000  0.00000  0.00000  0.00000  0.00000
2268 259345.996   4402957.9850    666835.7130   4550861.9793   6  10   0.7108   0.6658   1.1103   0.4081   0.3650  -0.3342   0.00    0.0   -0.05346    0.02491   -0.05035   0.00000  0.00000  0.00000  0.00000  0.00000  0.00000
2268 259346.996   4402958.0051    666835.7239   4550861.9502   6  10   0.7099   0.6652   1.1086   0.4080   0.3639  -0.3341   0.00    0.0    0.01087    0.01219    0.00234   0.00000  0.00000  0.00000  0.00000  0.00000  0.00000
2268 259347.996   4402957.9889    666835.7256   4550861.9991   6  10   0.7090   0.6645   1.1069   0.4079   0.3628  -0.3340   0.00    0.0    0.05612   -0.00187    0.02927   0.00000  0.00000  0.00000  0.00000  0.00000  0.00000
2268 259348.996   4402957.9718    666835.7421   4550862.0421   6  10   0.7081   0.6639   1.1052   0.4078   0.3617  -0.3339   0.00    0.0    0.02621    0.02273   -0.05475   0.00000  0.00000  0.00000  0.00000  0.00000  0.00000
2268 259349.996   4402957.9829    666835.7606   4550862.0521   6  10   0.7072   0.6633   1.1035   0.4077   0.3606  -0.3338   0.00    0.0    0.01297   -0.02092   -0.07495   0.00000  0.00000  0.00000  0.00000  0.00000  0.00000
2268 259350.996   4402957.9829    666835.7868   4550862.0712   6  10   0.7064   0.6627   1.1018   0.4076   0.3595  -0.3337   0.00    0.0    0.02796   -0.02248    0.03003   0.00000  0.00000  0.00000  0.00000  0.00000  0.00000
2268 259351.996   4402957.9711    666835.7721   4550862.1017   6  10   0.7055   0.6621   1.1002   0.4076   0.3585  -0.3337   0.00    0.0   -0.03544   -0.00105    0.07560   0.00000  0.00000  0.00000  0.00000  0.00000  0.00000
2268 259352.996   4402957.9644    666835.7717   4550862.1174   6  10   0.7047   0.6615   1.0986   0.4075   0.3574  -0.3336   0.00    0.0   -0.04136   -0.02305    0.02347   0.00000  0.00000  0.00000  0.00000  0.00000  0.00000
2268 259353.996   4402957.9559    666835.7500   4550862.1040   6  10   0.7039   0.6609   1.0970   0.4074   0.3564  -0.3335   0.00    0.0    0.01071   -0.01503    0.01592   0.00000  0.00000  0.00000  0.00000  0.00000  0.00000
2268 259354.996   4402957.9392    666835.7388   4550862.1563   6  10   0.7031   0.6603   1.0955   0.4073   0.3554  -0.3334   0.00    0.0   -0.02835    0.00008   -0.00687   0.00000  0.00000  0.00000  0.00000  0.00000  0.00000
2268 259355.996   4402957.9375    666835.7497   4550862.1768   6  10   0.7023   0.6597   1.0939   0.4072   0.3544  -0.3334   0.00    0.0    0.02369    0.00688    0.00251   0.00000  0.00000  0.00000  0.00000  0.00000  0.00000
2268 259356.996   4402957.9500    666835.7582   4550862.1428   6  10   0.7015   0.6592   1.0924   0.4072   0.3534  -0.3333   0.00    0.0   -0.02951   -0.02192   -0.00082   0.00000  0.00000  0.00000  0.00000  0.00000  0.00000
2268 259357.996   4402957.9812    666835.7924   4550862.0753   6  10   0.7007   0.6586   1.0909   0.4071   0.3524  -0.3333   0.00    0.0   -0.01743   -0.00433   -0.02639   0.00000  0.00000  0.00000  0.00000  0.00000  0.00000
2268 259358.996   4402958.0085    666835.8438   4550862.0566   6  10   0.6999   0.6581   1.0894   0.4070   0.3514  -0.3332   0.00    0.0    0.02428    0.02434    0.03733   0.00000  0.00000  0.00000  0.00000  0.00000  0.00000
2268 259359.996   4402958.0210    666835.8546   4550862.0248   6  10   0.6992   0.6575   1.0879   0.4069   0.3505  -0.3332   0.00    0.0   -0.02944   -0.01207   -0.02765   0.00000  0.00000  0.00000  0.00000  0.00000  0.00000
2268 259360.996   4402957.9896    666835.8460   4550862.0677   6  10   0.6984   0.6570   1.0865   0.4068   0.3495  -0.3331   0.00    0.0    0.03258   -0.00634   -0.00867   0.00000  0.00000  0.00000  0.00000  0.00000  0.00000
2268 259361.996   4402957.9986    666835.8339   4550862.0527   6  10   0.6977   0.6565   1.0850   0.4068   0.3486  -0.3331   0.00    0.0   -0.02370    0.03224   -0.02062   0.00000  0.00000  0.00000  0.00000  0.00000  0.00000
2268 259362.996   4402957.9663    666835.7911   4550862.0421   6  10   0.6970   0.6560   1.0836   0.4067   0.3476  -0.3330   0.00    0.0   -0.02388   -0.00732   -0.10018   0.00000  0.00000  0.00000  0.00000  0.00000  0.00000
2268 259363.996   4402957.9739    666835.7817   4550862.0230   6  10   0.6962   0.6555   1.0822   0.4066   0.3467  -0.3330   0.00    0.0   -0.01259   -0.03153   -0.00131   0.00000  0.00000  0.00000  0.00000  0.00000  0.00000
2268 259375.000   4402957.9545    666835.8258   4550862.1217   6  10   0.6975   0.6551   1.0810   0.4065   0.3459  -0.3315   0.00    0.0   -0.02328   -0.01295    0.01370   0.00000  0.00000  0.00000  0.00000  0.00000  0.00000
2268 259376.000   4402958.0570    666835.8617   4550862.1498   6  10   1.4599   0.6726   1.2557  -0.3421  -0.1405   0.8443   0.00    0.0   -0.02561   -0.00138   -0.05169   0.00000  0.00000  0.00000  0.00000  0.00000  0.00000
2268 259377.000   4402958.0430    666835.8692   4550862.1708   6  10   1.2494   0.6423   1.2244  -0.5151  -0.2734   0.7123   0.00    0.0   -0.03221   -0.01205   -0.02481   0.00000  0.00000  0.00000  0.00000  0.00000  0.00000
2268 259378.000   4402957.9620    666835.8994   4550862.1122   6  10   1.1705   0.6311   1.2128  -0.5613  -0.3068   0.6623   0.00    0.0   -0.05737   -0.02094   -0.07621   0.00000  0.00000  0.00000  0.00000  0.00000  0.00000
2268 259379.000   4402958.0179    666835.8686   4550862.0346   6  10   1.1287   0.6249   1.2063  -0.5831  -0.3233   0.6359   0.00    0.0    0.02973   -0.02323    0.05469   0.00000  0.00000  0.00000  0.00000  0.00000  0.00000
2268 259380.000   4402958.1075    666835.8104   4550862.0445   6  10   1.1027   0.6208   1.2018  -0.5960  -0.3336   0.6195   0.00    0.0    0.01142    0.01271    0.08283   0.00000  0.00000  0.00000  0.00000  0.00000  0.00000
2268 259381.000   4402958.1133    666835.7920   4550862.0203   6  10   1.0849   0.6177   1.1984  -0.6045  -0.3410   0.6083   0.00    0.0    0.07348    0.02349    0.07420   0.00000  0.00000  0.00000  0.00000  0.00000  0.00000
2268 259382.000   4402958.0807    666835.7872   4550861.9751   6  11   1.0223   0.5968   1.1845  -0.5698  -0.3096   0.5548   0.00    0.0   -0.01604    0.00099    0.02043   0.00000  0.00000  0.00000  0.00000  0.00000  0.00000
2268 259383.000   4402958.0784    666835.7813   4550861.9913   6  11   0.8468   0.4739   1.1465  -0.3651   0.0577   0.3756   0.00    0.0   -0.00457    0.01683    0.05186   0.00000  0.00000  0.00000  0.00000  0.00000  0.00000
2268 259384.000   4402958.0728    666835.7604   4550862.0388   6  11   0.7724   0.4233   1.1319  -0.2688   0.1864   0.2851   0.00    0.0    0.03702    0.02274    0.09778   0.00000  0.00000  0.00000  0.00000  0.00000  0.00000
2268 259385.000   4402958.0518    666835.7551   4550862.0689   6  11   0.7282   0.3945   1.1234  -0.2079   0.2224   0.2215   0.00    0.0    0.06998   -0.02740    0.07072   0.00000  0.00000  0.00000  0.00000  0.00000  0.00000
2268 259386.000   4402957.9699    666835.7709   4550862.0483   6  11   0.6977   0.3752   1.1175  -0.1632   0.2400   0.1681   0.00    0.0    0.06150    0.01084   -0.01928   0.00000  0.00000  0.00000  0.00000  0.00000  0.00000
2268 259387.000   4402957.9364    666835.7762   4550862.0165   6  11   0.6748   0.3612   1.1128  -0.1269   0.2502   0.1159   0.00    0.0   -0.04458    0.00191    0.00250   0.00000  0.00000  0.00000  0.00000  0.00000  0.00000
2268 259388.000   4402957.8997    666835.7769   4550862.0222   6  11   0.6566   0.3504   1.1090  -0.0946   0.2565   0.0462   0.00    0.0    0.02264    0.00889    0.02291   0.00000  0.00000  0.00000  0.00000  0.00000  0.00000
2268 259389.000   4402957.9104    666835.7656   4550861.9645   6  11   0.6416   0.3416   1.1057  -0.0620   0.2605  -0.0828   0.00    0.0    0.00271    0.00466    0.03968   0.00000  0.00000  0.00000  0.00000  0.00000  0.00000
2268 259390.000   4402957.9065    666835.7596   4550861.9629   6  11   0.6290   0.3342   1.1028  -0.0063   0.2632  -0.1193   0.00    0.0    0.03836   -0.00846    0.02427   0.00000  0.00000  0.00000  0.00000  0.00000  0.00000
2268 259391.000   4402957.8714    666835.7604   4550861.9466   6  11   0.6180   0.3280   1.1002   0.0535   0.2650  -0.1431   0.00    0.0    0.05696   -0.02691    0.04587   0.00000  0.00000  0.00000  0.00000  0.00000  0.00000
2268 259392.000   4402957.8251    666835.7599   4550861.9772   6  11   0.6084   0.3224   1.0977   0.0717   0.2661  -0.1607   0.00    0.0    0.04951    0.00303    0.02032   0.00000  0.00000  0.00000  0.00000  0.00000  0.00000
2268 259393.000   4402957.8082    666835.7575   4550862.0133   6  11   0.5998   0.3176   1.0954   0.0834   0.2668  -0.1747   0.00    0.0    0.01860    0.01345    0.03960   0.00000  0.00000  0.00000  0.00000  0.00000  0.00000
2268 259394.000   4402957.8150    666835.7613   4550862.0103   6  11   0.5921   0.3132   1.0933   0.0918   0.2671  -0.1861   0.00    0.0   -0.02177   -0.01435   -0.06362   0.00000  0.00000  0.00000  0.00000  0.00000  0.00000
2268 259395.000   4402957.8401    666835.7525   4550862.0224   6  11   0.5851   0.3092   1.0912   0.0982   0.2672  -0.1958   0.00    0.0   -0.00034   -0.01702   -0.10530   0.00000  0.00000  0.00000  0.00000  0.00000  0.00000
2268 259396.000   4402957.8692    666835.7589   4550862.0726   6  11   0.5787   0.3056   1.0893   0.1031   0.2672  -0.2042   0.00    0.0    0.00661    0.00593    0.03062   0.00000  0.00000  0.00000  0.00000  0.00000  0.00000
2268 259397.000   4402957.9457    666835.7617   4550861.9954   6  11   0.5728   0.3022   1.0874   0.1071   0.2669  -0.2115   0.00    0.0    0.02201   -0.02050   -0.04884   0.00000  0.00000  0.00000  0.00000  0.00000  0.00000
2268 259398.000   4402957.9702    666835.7664   4550861.9593   6  11   0.5673   0.2990   1.0856   0.1104   0.2666  -0.2180   0.00    0.0   -0.00795   -0.02729    0.03463   0.00000  0.00000  0.00000  0.00000  0.00000  0.00000
2268 259399.000   4402957.9715    666835.7679   4550862.0023   6  11   0.5622   0.2961   1.0838   0.1131   0.2662  -0.2238   0.00    0.0    0.01050   -0.01509    0.03171   0.00000  0.00000  0.00000  0.00000  0.00000  0.00000
2268 259400.000   4402957.9702    666835.7621   4550861.9980   6  11   0.5574   0.2933   1.0821   0.1154   0.2657  -0.2291   0.00    0.0    0.02542   -0.04408   -0.04975   0.00000  0.00000  0.00000  0.00000  0.00000  0.00000
2268 259401.000   4402957.9474    666835.7696   4550861.9655   6  11   0.5529   0.2907   1.0805   0.1174   0.2651  -0.2339   0.00    0.0    0.00351    0.04495    0.04615   0.00000  0.00000  0.00000  0.00000  0.00000  0.00000
2268 259402.000   4402957.8650    666835.7836   4550862.0183   6  11   0.5487   0.2882   1.0789   0.1190   0.2645  -0.2383   0.00    0.0   -0.00277    0.00512    0.00488   0.00000  0.00000  0.00000  0.00000  0.00000  0.00000
2268 259403.000   4402957.8662    666835.7754   4550861.9954   6  11   0.5447   0.2859   1.0774   0.1204   0.2639  -0.2423   0.00    0.0   -0.04232    0.02206   -0.05059   0.00000  0.00000  0.00000  0.00000  0.00000  0.00000
2268 259404.000   4402957.8464    666835.7776   4550861.9911   6  11   0.5409   0.2836   1.0758   0.1217   0.2632  -0.2461   0.00    0.0    0.03948    0.02577    0.01274   0.00000  0.00000  0.00000  0.00000  0.00000  0.00000
2268 259405.000   4402957.8509    666835.7661   4550862.0563   6  11   0.5373   0.2815   1.0743   0.1228   0.2626  -0.2496   0.00    0.0    0.00830   -0.00393    0.02037   0.00000  0.00000  0.00000  0.00000  0.00000  0.00000
2268 259406.000   4402957.8457    666835.7740   4550862.0557   6  11   0.5338   0.2794   1.0729   0.1237   0.2619  -0.2529   0.00    0.0    0.08546   -0.01176    0.07755   0.00000  0.00000  0.00000  0.00000  0.00000  0.00000
2268 259407.000   4402957.8307    666835.7729   4550862.0344   6  11   0.5305   0.2774   1.0715   0.1245   0.2612  -0.2559   0.00    0.0   -0.02312   -0.01299   -0.01893   0.00000  0.00000  0.00000  0.00000  0.00000  0.00000
2268 259408.000   4402957.7987    666835.7751   4550862.0585   6  11   0.5274   0.2755   1.0701   0.1252   0.2604  -0.2588   0.00    0.0    0.00454    0.02502   -0.00573   0.00000  0.00000  0.00000  0.00000  0.00000  0.00000
2268 259409.000   4402957.7504    666835.7912   4550861.9981   6  11   0.5243   0.2736   1.0687   0.1259   0.2597  -0.2615   0.00    0.0   -0.06226   -0.00952   -0.09112   0.00000  0.00000  0.00000  0.00000  0.00000  0.00000
2268 259410.000   4402957.7153    666835.8024   4550862.0380   6  11   0.5214   0.2719   1.0674   0.1264   0.2590  -0.2641   0.00    0.0    0.01328    0.02497    0.00652   0.00000  0.00000  0.00000  0.00000  0.00000  0.00000
2268 259411.000   4402957.7054    666835.8154   4550862.0166   6  11   0.5186   0.2701   1.0660   0.1269   0.2583  -0.2666   0.00    0.0    0.01702    0.02099   -0.00398   0.00000  0.00000  0.00000  0.00000  0.00000  0.00000
2268 259412.000   4402957.7061    666835.8101   4550861.9869   6  11   0.5159   0.2685   1.0647   0.1273   0.2575  -0.2689   0.00    0.0    0.00794    0.01291    0.11587   0.00000  0.00000  0.00000  0.00000  0.00000  0.00000
2268 259413.000   4402957.7324    666835.8207   4550861.9502   6  11   0.5133   0.2668   1.0635   0.1277   0.2568  -0.2711   0.00    0.0   -0.02262    0.02495    0.01188   0.00000  0.00000  0.00000  0.00000  0.00000  0.00000
2268 259414.000   4402957.7276    666835.8118   4550862.0340   6  11   0.5108   0.2653   1.0622   0.1281   0.2561  -0.2732   0.00    0.0    0.01864    0.00699    0.06439   0.00000  0.00000  0.00000  0.00000  0.00000  0.00000
2268 259415.000   4402957.7278    666835.8123   4550862.0356   6  11   0.5083   0.2637   1.0610   0.1284   0.2554  -0.2752   0.00    0.0   -0.00542   -0.02757   -0.00936   0.00000  0.00000  0.00000  0.00000  0.00000  0.00000
2268 259416.000   4402957.7379    666835.8148   4550862.0918   6  11   0.5059   0.2622   1.0598   0.1286   0.2547  -0.2772   0.00    0.0    0.07193   -0.03642    0.04408   0.00000  0.00000  0.00000  0.00000  0.00000  0.00000
2268 259417.000   4402957.7777    666835.8082   4550862.0240   6  11   0.5036   0.2608   1.0586   0.1288   0.2540  -0.2790   0.00    0.0    0.00313    0.00940    0.02874   0.00000  0.00000  0.00000  0.00000  0.00000  0.00000
2268 259418.000   4402957.7775    666835.8046   4550862.0177   6  11   0.5014   0.2593   1.0574   0.1290   0.2532  -0.2808   0.00    0.0    0.02461   -0.02332    0.00766   0.00000  0.00000  0.00000  0.00000  0.00000  0.00000
2268 259419.000   4402957.7993    666835.8057   4550861.9989   6  11   0.4992   0.2580   1.0562   0.1292   0.2525  -0.2825   0.00    0.0   -0.00794    0.01632    0.00005   0.00000  0.00000  0.00000  0.00000  0.00000  0.00000
2268 259420.000   4402957.8130    666835.7988   4550861.9963   6  11   0.4971   0.2566   1.0551   0.1294   0.2518  -0.2841   0.00    0.0    0.01015    0.01099    0.05283   0.00000  0.00000  0.00000  0.00000  0.00000  0.00000
2268 259421.000   4402957.8250    666835.8026   4550862.0454   6  11   0.4951   0.2553   1.0539   0.1295   0.2512  -0.2857   0.00    0.0    0.02437    0.02722    0.05586   0.00000  0.00000  0.00000  0.00000  0.00000  0.00000
2268 259422.000   4402957.8318    666835.8003   4550862.0086   6  11   0.4931   0.2540   1.0528   0.1296   0.2505  -0.2873   0.00    0.0   -0.06517    0.02114   -0.02741   0.00000  0.00000  0.00000  0.00000  0.00000  0.00000
2268 259423.000   4402957.8709    666835.8005   4550861.9592   6  11   0.4912   0.2527   1.0517   0.1297   0.2498  -0.2888   0.00    0.0   -0.02447    0.00770    0.00205   0.00000  0.00000  0.00000  0.00000  0.00000  0.00000
2268 259424.000   4402957.8978    666835.7867   4550861.9524   6  11   0.4893   0.2515   1.0506   0.1298   0.2491  -0.2902   0.00    0.0   -0.03843   -0.01974    0.05081   0.00000  0.00000  0.00000  0.00000  0.00000  0.00000
2268 259425.000   4402957.9120    666835.7908   4550861.9017   6  11   0.4874   0.2503   1.0496   0.1299   0.2485  -0.2916   0.00    0.0   -0.05335   -0.02296   -0.05597   0.00000  0.00000  0.00000  0.00000  0.00000  0.00000
2268 259426.000   4402957.9283    666835.7882   4550861.9315   6  11   0.4856   0.2491   1.0485   0.1299   0.2478  -0.2929   0.00    0.0    0.06749    0.01484    0.03747   0.00000  0.00000  0.00000  0.00000  0.00000  0.00000
2268 259427.000   4402957.9096    666835.7893   4550861.9513   6  11   0.4838   0.2479   1.0475   0.1300   0.2471  -0.2942   0.00    0.0   -0.02868   -0.02257   -0.05624   0.00000  0.00000  0.00000  0.00000  0.00000  0.00000
2268 259428.000   4402957.9016    666835.7881   4550862.0191   6  11   0.4821   0.2468   1.0464   0.1300   0.2465  -0.2955   0.00    0.0   -0.06226   -0.01308    0.00969   0.00000  0.00000  0.00000  0.00000  0.00000  0.00000
2268 259429.000   4402957.8787    666835.8039   4550862.0880   6  11   0.4804   0.2457   1.0454   0.1300   0.2459  -0.2967   0.00    0.0    0.02742    0.02901    0.01101   0.00000  0.00000  0.00000  0.00000  0.00000  0.00000
2268 259430.000   4402957.8682    666835.8127   4550862.0814   6  11   0.4788   0.2446   1.0444   0.1300   0.2452  -0.2979   0.00    0.0   -0.05284    0.02811   -0.02724   0.00000  0.00000  0.00000  0.00000  0.00000  0.00000
2268 259431.000   4402957.8500    666835.8132   4550862.0961   6  11   0.4772   0.2435   1.0434   0.1300   0.2446  -0.2991   0.00    0.0    0.01160   -0.00326   -0.08368   0.00000  0.00000  0.00000  0.00000  0.00000  0.00000
2268 259432.000   4402957.8356    666835.8170   4550862.0957   6  11   0.4756   0.2424   1.0424   0.1300   0.2440  -0.3002   0.00    0.0    0.03416    0.02408    0.06732   0.00000  0.00000  0.00000  0.00000  0.00000  0.00000
2268 259433.000   4402957.8516    666835.8180   4550862.0425   6  11   0.4740   0.2414   1.0414   0.1300   0.2434  -0.3013   0.00    0.0    0.02681    0.02770    0.02348   0.00000  0.00000  0.00000  0.00000  0.00000  0.00000
2268 259434.000   4402957.8504    666835.8131   4550862.0342   6  11   0.4725   0.2404   1.0405   0.1300   0.2428  -0.3024   0.00    0.0   -0.03458   -0.00836   -0.00320   0.00000  0.00000  0.00000  0.00000  0.00000  0.00000
2268 259435.000   4402957.8719    666835.8101   4550862.0145   6  11   0.4710   0.2393   1.0395   0.1300   0.2422  -0.3034   0.00    0.0    0.02352   -0.00289    0.02474   0.00000  0.00000  0.00000  0.00000  0.00000  0.00000
2268 259436.000   4402957.8601    666835.8143   4550861.9980   6  11   0.4696   0.2384   1.0386   0.1299   0.2416  -0.3045   0.00    0.0    0.03160    0.02230    0.05257   0.00000  0.00000  0.00000  0.00000  0.00000  0.00000
2268 259437.000   4402957.8585    666835.8057   4550862.0364   6  11   0.4682   0.2374   1.0376   0.1299   0.2410  -0.3055   0.00    0.0    0.01301   -0.01020   -0.00003   0.00000  0.00000  0.00000  0.00000  0.00000  0.00000
2268 259438.000   4402957.8649    666835.8021   4550861.9867   6  11   0.4668   0.2364   1.0367   0.1298   0.2404  -0.3064   0.00    0.0    0.01357    0.00380   -0.09001   0.00000  0.00000  0.00000  0.00000  0.00000  0.00000
2268 259439.000   4402957.8481    666835.7862   4550862.0162   6  11   0.4654   0.2355   1.0358   0.1298   0.2398  -0.3074   0.00    0.0   -0.00517   -0.01239   -0.01794   0.00000  0.00000  0.00000  0.00000  0.00000  0.00000
2268 259440.000   4402957.8379    666835.7958   4550861.9778   6  11   0.4640   0.2345   1.0349   0.1298   0.2393  -0.3083   0.00    0.0    0.02847   -0.00388   -0.03603   0.00000  0.00000  0.00000  0.00000  0.00000  0.00000
2268 259441.000   4402957.8360    666835.7889   4550861.9563   6  11   0.4627   0.2336   1.0340   0.1297   0.2387  -0.3092   0.00    0.0    0.04976   -0.02778   -0.09837   0.00000  0.00000  0.00000  0.00000  0.00000  0.00000
2268 259442.000   4402957.8234    666835.8003   4550861.9727   6  11   0.4614   0.2327   1.0331   0.1296   0.2382  -0.3101   0.00    0.0    0.04523    0.02787    0.03498   0.00000  0.00000  0.00000  0.00000  0.00000  0.00000
2268 259443.000   4402957.8199    666835.7945   4550861.9850   6  11   0.4601   0.2318   1.0322   0.1296   0.2376  -0.3110   0.00    0.0    0.03273    0.02526    0.04640   0.00000  0.00000  0.00000  0.00000  0.00000  0.00000
2268 259444.000   4402957.8233    666835.7898   4550862.0006   6  11   0.4589   0.2309   1.0313   0.1295   0.2371  -0.3118   0.00    0.0   -0.00174   -0.01190    0.03618   0.00000  0.00000  0.00000  0.00000  0.00000  0.00000
2268 259445.000   4402957.8139    666835.7909   4550862.0094   6  11   0.4576   0.2301   1.0305   0.1294   0.2365  -0.3127   0.00    0.0    0.00800   -0.02693   -0.09270   0.00000  0.00000  0.00000  0.00000  0.00000  0.00000
2268 259446.000   4402957.8165    666835.7891   4550861.9677   6  11   0.4564   0.2292   1.0296   0.1294   0.2360  -0.3135   0.00    0.0   -0.02488    0.01036   -0.00587   0.00000  0.00000  0.00000  0.00000  0.00000  0.00000
2268 259447.000   4402957.8092    666835.7856   4550861.8832   6  11   0.4552   0.2284   1.0288   0.1293   0.2355  -0.3143   0.00    0.0   -0.03383   -0.01984   -0.01291   0.00000  0.00000  0.00000  0.00000  0.00000  0.00000
2268 259448.000   4402957.7880    666835.7881   4550861.9047   6  11   0.4540   0.2276   1.0280   0.1292   0.2350  -0.3151   0.00    0.0   -0.01727   -0.01710   -0.15860   0.00000  0.00000  0.00000  0.00000  0.00000  0.00000
2268 259449.000   4402957.8155    666835.7753   4550861.9232   6  11   0.4528   0.2267   1.0271   0.1291   0.2345  -0.3159   0.00    0.0    0.02819    0.03158    0.01670   0.00000  0.00000  0.00000  0.00000  0.00000  0.00000
2268 259450.000   4402957.7853    666835.7805   4550862.0159   6  11   0.4517   0.2259   1.0263   0.1290   0.2340  -0.3166   0.00    0.0    0.01394    0.00325   -0.02467   0.00000  0.00000  0.00000  0.00000  0.00000  0.00000
2268 259451.000   4402957.7690    666835.7768   4550862.0521   6  11   0.4506   0.2251   1.0255   0.1290   0.2335  -0.3174   0.00    0.0   -0.00966   -0.01985    0.08735   0.00000  0.00000  0.00000  0.00000  0.00000  0.00000
2268 259452.000   4402957.7360    666835.7924   4550861.9919   6  11   0.4495   0.2243   1.0247   0.1289   0.2330  -0.3181   0.00    0.0   -0.07904   -0.02481   -0.09896   0.00000  0.00000  0.00000  0.00000  0.00000  0.00000
2268 259453.000   4402957.7743    666835.7715   4550861.9519   6  11   0.4484   0.2235   1.0239   0.1288   0.2325  -0.3188   0.00    0.0    0.02316    0.03209    0.05388   0.00000  0.00000  0.00000  0.00000  0.00000  0.00000
2268 259454.000   4402957.7638    666835.7746   4550861.9809   6  11   0.4473   0.2228   1.0231   0.1287   0.2320  -0.3195   0.00    0.0    0.00700    0.01892   -0.01295   0.00000  0.00000  0.00000  0.00000  0.00000  0.00000
2268 259455.000   4402957.7673    666835.7668   4550862.0123   6  11   0.4462   0.2220   1.0223   0.1286   0.2315  -0.3202   0.00    0.0    0.02286   -0.02452   -0.01150   0.00000  0.00000  0.00000  0.00000  0.00000  0.00000
2268 259456.000   4402957.7556    666835.7738   4550862.0047   6  11   0.4452   0.2213   1.0215   0.1285   0.2311  -0.3209   0.00    0.0   -0.04858    0.01286   -0.08904   0.00000  0.00000  0.00000  0.00000  0.00000  0.00000
2268 259457.000   4402957.7724    666835.7601   4550862.0007   6  11   0.4442   0.2205   1.0208   0.1284   0.2306  -0.3216   0.00    0.0    0.03656    0.02559    0.01832   0.00000  0.00000  0.00000  0.00000  0.00000  0.00000
2268 259458.000   4402957.7632    666835.7579   4550861.9729   6  11   0.4431   0.2198   1.0200   0.1283   0.2302  -0.3222   0.00    0.0   -0.01269   -0.00952    0.06007   0.00000  0.00000  0.00000  0.00000  0.00000  0.00000
2268 259459.000   4402957.7589    666835.7485   4550861.9630   6  11   0.4421   0.2191   1.0192   0.1282   0.2297  -0.3229   0.00    0.0   -0.02345    0.00697   -0.06116   0.00000  0.00000  0.00000  0.00000  0.00000  0.00000
2268 259460.000   4402957.7580    666835.7541   4550861.9953   6  11   0.4411   0.2184   1.0185   0.1281   0.2292  -0.3235   0.00    0.0    0.03038    0.00613   -0.05081   0.00000  0.00000  0.00000  0.00000  0.00000  0.00000
2268 259461.000   4402957.7837    666835.7479   4550861.9675   6  11   0.4402   0.2176   1.0177   0.1280   0.2288  -0.3241   0.00    0.0   -0.01551    0.00557    0.03549   0.00000  0.00000  0.00000  0.00000  0.00000  0.00000
2268 259462.000   4402957.7691    666835.7527   4550861.9653   6  11   0.4392   0.2169   1.0170   0.1279   0.2284  -0.3248   0.00    0.0   -0.11299   -0.03215   -0.12038   0.00000  0.00000  0.00000  0.00000  0.00000  0.00000
2268 259463.000   4402957.8008    666835.7450   4550861.9331   6  11   0.4383   0.2162   1.0163   0.1278   0.2279  -0.3254   0.00    0.0   -0.01777    0.00311    0.01457   0.00000  0.00000  0.00000  0.00000  0.00000  0.00000
2268 259464.000   4402957.8256    666835.7336   4550861.9707   6  11   0.4373   0.2155   1.0156   0.1277   0.2275  -0.3260   0.00    0.0   -0.00776   -0.02169   -0.05361   0.00000  0.00000  0.00000  0.00000  0.00000  0.00000
2268 259465.000   4402957.8169    666835.7407   4550861.9580   6  11   0.4364   0.2149   1.0148   0.1276   0.2271  -0.3266   0.00    0.0   -0.08591   -0.02568   -0.03922   0.00000  0.00000  0.00000  0.00000  0.00000  0.00000
2268 259466.000   4402957.8228    666835.7311   4550861.9745   6  11   0.4355   0.2142   1.0141   0.1275   0.2266  -0.3271   0.00    0.0   -0.02836    0.01687   -0.02856   0.00000  0.00000  0.00000  0.00000  0.00000  0.00000
2268 259467.000   4402957.8187    666835.7287   4550861.8984   6  11   0.4346   0.2135   1.0134   0.1274   0.2262  -0.3277   0.00    0.0    0.01460    0.00473   -0.03904   0.00000  0.00000  0.00000  0.00000  0.00000  0.00000
2268 259468.000   4402957.8047    666835.7340   4550861.8502   6  11   0.4337   0.2129   1.0127   0.1273   0.2258  -0.3283   0.00    0.0   -0.03355   -0.02109   -0.00315   0.00000  0.00000  0.00000  0.00000  0.00000  0.00000
2268 259469.000   4402957.8053    666835.7349   4550861.8459   6  11   0.4328   0.2122   1.0120   0.1272   0.2254  -0.3288   0.00    0.0    0.00614   -0.00877   -0.01258   0.00000  0.00000  0.00000  0.00000  0.00000  0.00000
2268 259470.000   4402957.7941    666835.7256   4550861.8947   6  11   0.4319   0.2116   1.0113   0.1270   0.2250  -0.3294   0.00    0.0   -0.04940   -0.00178    0.04747   0.00000  0.00000  0.00000  0.00000  0.00000  0.00000
2268 259471.000   4402957.8188    666835.7200   4550861.8808   6  11   0.4311   0.2109   1.0106   0.1269   0.2246  -0.3299   0.00    0.0   -0.05963   -0.02321   -0.00543   0.00000  0.00000  0.00000  0.00000  0.00000  0.00000
2268 259472.000   4402957.8142    666835.7254   4550861.8770   6  11   0.4302   0.2103   1.0100   0.1268   0.2242  -0.3305   0.00    0.0   -0.00879    0.00561   -0.01765   0.00000  0.00000  0.00000  0.00000  0.00000  0.00000
2268 259473.000   4402957.8196    666835.7231   4550861.8759   6  11   0.4294   0.2097   1.0093   0.1267   0.2238  -0.3310   0.00    0.0   -0.02188   -0.00817    0.03480   0.00000  0.00000  0.00000  0.00000  0.00000  0.00000
2268 259474.000   4402957.7965    666835.7283   4550861.8842   6  11   0.4286   0.2091   1.0086   0.1266   0.2234  -0.3315   0.00    0.0    0.00972   -0.03430    0.03450   0.00000  0.00000  0.00000  0.00000  0.00000  0.00000
2268 259475.000   4402957.7892    666835.7289   4550861.8960   6  11   0.4278   0.2085   1.0079   0.1265   0.2230  -0.3320   0.00    0.0   -0.02471   -0.01674   -0.06800   0.00000  0.00000  0.00000  0.00000  0.00000  0.00000
2268 259476.000   4402957.7996    666835.7324   4550861.8556   6  11   0.4269   0.2079   1.0073   0.1264   0.2227  -0.3326   0.00    0.0    0.01955    0.02583    0.10880   0.00000  0.00000  0.00000  0.00000  0.00000  0.00000
2268 259477.000   4402957.8038    666835.7256   4550861.8686   6  11   0.4261   0.2072   1.0066   0.1262   0.2223  -0.3331   0.00    0.0    0.00766    0.00595    0.04853   0.00000  0.00000  0.00000  0.00000  0.00000  0.00000
2268 259478.000   4402957.8149    666835.7246   4550861.8596   6  11   0.4254   0.2067   1.0060   0.1261   0.2219  -0.3336   0.00    0.0    0.04194   -0.03759   -0.07980   0.00000  0.00000  0.00000  0.00000  0.00000  0.00000
2268 259479.000   4402957.8129    666835.7297   4550861.7971   6  11   0.4246   0.2061   1.0053   0.1260   0.2215  -0.3341   0.00    0.0   -0.12352    0.00399   -0.15030   0.00000  0.00000  0.00000  0.00000  0.00000  0.00000
2268 259480.000   4402957.8190    666835.7229   4550861.8555   6  11   0.4238   0.2055   1.0047   0.1259   0.2212  -0.3345   0.00    0.0    0.04494   -0.00573    0.09609   0.00000  0.00000  0.00000  0.00000  0.00000  0.00000
2268 259481.000   4402957.8172    666835.7239   4550861.8463   6  11   0.4230   0.2049   1.0041   0.1258   0.2208  -0.3350   0.00    0.0    0.00556    0.01412   -0.06148   0.00000  0.00000  0.00000  0.00000  0.00000  0.00000
2268 259482.000   4402957.8062    666835.7259   4550861.8854   6  11   0.4223   0.2043   1.0034   0.1257   0.2204  -0.3355   0.00    0.0    0.04786    0.03000    0.11296   0.00000  0.00000  0.00000  0.00000  0.00000  0.00000
2268 259483.000   4402957.7900    666835.7361   4550861.9323   6  11   0.4215   0.2038   1.0028   0.1255   0.2201  -0.3360   0.00    0.0   -0.00574   -0.00973   -0.04470   0.00000  0.00000  0.00000  0.00000  0.00000  0.00000
2268 259484.000   4402957.7942    666835.7271   4550861.9278   6  11   0.4208   0.2032   1.0022   0.1254   0.2197  -0.3364   0.00    0.0   -0.04731   -0.00333   -0.06665   0.00000  0.00000  0.00000  0.00000  0.00000  0.00000
2268 259485.000   4402957.8006    666835.7252   4550861.8830   6  11   0.4201   0.2026   1.0016   0.1253   0.2194  -0.3369   0.00    0.0    0.03220   -0.02740    0.02155   0.00000  0.00000  0.00000  0.00000  0.00000  0.00000
2268 259486.000   4402957.7914    666835.7259   4550861.8950   6  11   0.4193   0.2021   1.0010   0.1252   0.2191  -0.3373   0.00    0.0    0.06411    0.00995    0.00733   0.00000  0.00000  0.00000  0.00000  0.00000  0.00000
2268 259487.000   4402957.7983    666835.7257   4550861.8893   6  11   0.4186   0.2015   1.0003   0.1251   0.2187  -0.3378   0.00    0.0   -0.00699    0.03078    0.00433   0.00000  0.00000  0.00000  0.00000  0.00000  0.00000
2268 259488.000   4402957.8072    666835.7121   4550861.8674   6  11   0.4179   0.2010   0.9997   0.1249   0.2184  -0.3382   0.00    0.0   -0.00646   -0.01107   -0.06038   0.00000  0.00000  0.00000  0.00000  0.00000  0.00000
2268 259489.000   4402957.8048    666835.7243   4550861.8964   6  11   0.4172   0.2004   0.9991   0.1248   0.2180  -0.3387   0.00    0.0    0.05295    0.00352   -0.00791   0.00000  0.00000  0.00000  0.00000  0.00000  0.00000
2268 259490.000   4402957.8131    666835.7243   4550861.8710   6  11   0.4165   0.1999   0.9985   0.1247   0.2177  -0.3391   0.00    0.0    0.07429   -0.00361    0.06062   0.00000  0.00000  0.00000  0.00000  0.00000  0.00000
2268 259491.000   4402957.8053    666835.7243   4550861.8628   6  11   0.4158   0.1994   0.9980   0.1246   0.2174  -0.3395   0.00    0.0    0.03687   -0.00412    0.02145   0.00000  0.00000  0.00000  0.00000  0.00000  0.00000
2268 259492.000   4402957.8050    666835.7295   4550861.8554   6  11   0.4152   0.1989   0.9974   0.1245   0.2171  -0.3400   0.00    0.0    0.03769    0.00105    0.10116   0.00000  0.00000  0.00000  0.00000  0.00000  0.00000
2268 259493.000   4402957.7699    666835.7346   4550861.8569   6  11   0.4145   0.1983   0.9968   0.1243   0.2167  -0.3404   0.00    0.0   -0.02644    0.00361   -0.03176   0.00000  0.00000  0.00000  0.00000  0.00000  0.00000
