% program   : GINav v0.1.0
% obs start : 2023/06/28 00:00:19.0
% obs end   : 2023/06/28 01:05:38.0
% mode      : PPP Kinematic
% system    : GPS GALILEO 
% nfreqs    : 2
% elev mask : 10.0 deg
% ephemeris : broadcast
% ionos opt : estimation
% trops opt : ZTD estimation
%
%  GPST              x-ecef(m)      y-ecef(m)      z-ecef(m)   Q  ns   sdx(m)   sdy(m)   sdz(m)  sdxy(m)  sdyz(m)  sdzx(m) age(s)  ratio    vx(m/s)    vy(m/s)    vz(m/s)      sdvx     sdvy     sdvz    sdvxy    sdvyz    sdvzx
2268 259218.992   4403096.6892    668399.1825   4550496.0921   6   5   4.3743   2.1691   2.7226  -2.0965   2.1956  -1.2349   0.00    0.0    0.07437   -0.05951   -0.07986   0.00000  0.00000  0.00000  0.00000  0.00000  0.00000
2268 259219.992   4403095.2882    668399.3251   4550496.1869   6   7   2.0976   1.2468   1.7066  -1.2221   1.2803  -0.8346   0.00    0.0   -0.02257    0.04325    0.06567   0.00000  0.00000  0.00000  0.00000  0.00000  0.00000
2268 259220.992   4403095.0187    668399.6062   4550496.6608   6   7   1.6422   0.9747   1.3777  -0.9558   1.0034  -0.5948   0.00    0.0    0.02710   -0.00764   -0.01693   0.00000  0.00000  0.00000  0.00000  0.00000  0.00000
2268 259221.992   4403094.7504    668399.8612   4550496.9666   6   7   1.4353   0.8310   1.1977  -0.8199   0.8537  -0.4375   0.00    0.0    0.03432   -0.04684   -0.06583   0.00000  0.00000  0.00000  0.00000  0.00000  0.00000
2268 259222.992   4403094.5883    668399.9435   4550497.0111   6   7   1.3204   0.7386   1.0810  -0.7358   0.7553  -0.3024   0.00    0.0   -0.01729    0.00370   -0.02845   0.00000  0.00000  0.00000  0.00000  0.00000  0.00000
2268 259223.992   4403094.5712    668400.0522   4550497.0632   6   7   1.2498   0.6728   0.9979  -0.6781   0.6837  -0.1457   0.00    0.0   -0.00960    0.03042    0.02144   0.00000  0.00000  0.00000  0.00000  0.00000  0.00000
2268 259224.992   4403094.5861    668400.0146   4550497.0031   6   7   1.2033   0.6227   0.9353  -0.6359   0.6282   0.1778   0.00    0.0    0.00072    0.02008    0.02735   0.00000  0.00000  0.00000  0.00000  0.00000  0.00000
2268 259225.992   4403096.3062    668399.1865   4550496.5027   6  10   0.9841   0.4807   0.8425  -0.4224   0.5070   0.4410   0.00    0.0   -0.00305   -0.01379    0.00915   0.00000  0.00000  0.00000  0.00000  0.00000  0.00000
2268 259226.992   4403096.9360    668398.8689   4550496.3437   6  10   0.8831   0.4111   0.7901  -0.3183   0.4475   0.4902   0.00    0.0    0.04409   -0.00568    0.03515   0.00000  0.00000  0.00000  0.00000  0.00000  0.00000
2268 259227.992   4403097.1123    668398.7246   4550496.2507   6  10   0.8202   0.3670   0.7529  -0.2514   0.4098   0.5067   0.00    0.0   -0.00167   -0.00801   -0.00061   0.00000  0.00000  0.00000  0.00000  0.00000  0.00000
2268 259228.992   4403097.2921    668398.5989   4550496.1586   6  10   0.7745   0.3356   0.7235  -0.2025   0.3829   0.5110   0.00    0.0    0.01239    0.00482    0.02264   0.00000  0.00000  0.00000  0.00000  0.00000  0.00000
2268 259229.992   4403097.4150    668398.5222   4550496.1069   6  10   0.7380   0.3117   0.6986  -0.1638   0.3623   0.5093   0.00    0.0    0.01643   -0.00725   -0.01419   0.00000  0.00000  0.00000  0.00000  0.00000  0.00000
2268 259230.992   4403097.5098    668398.5016   4550496.1179   6  10   0.7072   0.2927   0.6767  -0.1314   0.3456   0.5041   0.00    0.0   -0.02361   -0.03184   -0.05999   0.00000  0.00000  0.00000  0.00000  0.00000  0.00000
2268 259231.992   4403097.5837    668398.4989   4550496.1360   6  11   0.6758   0.2760   0.6483  -0.1120   0.3276   0.4886   0.00    0.0   -0.01028   -0.03114   -0.06204   0.00000  0.00000  0.00000  0.00000  0.00000  0.00000
2268 259243.000   4403097.7407    668398.4811   4550496.2091   6  11   0.6484   0.2622   0.6239  -0.0954   0.3129   0.4741   0.00    0.0   -0.02427    0.00210   -0.03082   0.00000  0.00000  0.00000  0.00000  0.00000  0.00000
2268 259244.000   4403097.8282    668398.4575   4550496.2588   6  11   0.6239   0.2503   0.6022  -0.0811   0.3002   0.4603   0.00    0.0    0.01182    0.03342    0.03249   0.00000  0.00000  0.00000  0.00000  0.00000  0.00000
2268 259245.000   4403097.9379    668398.4170   4550496.2502   6  11   0.6017   0.2401   0.5826  -0.0687   0.2890   0.4471   0.00    0.0    0.02196   -0.03384   -0.04045   0.00000  0.00000  0.00000  0.00000  0.00000  0.00000
2268 259246.000   4403098.0204    668398.3849   4550496.2371   6  11   0.5815   0.2310   0.5645  -0.0578   0.2790   0.4346   0.00    0.0   -0.05829    0.00360   -0.00036   0.00000  0.00000  0.00000  0.00000  0.00000  0.00000
2268 259247.000   4403098.0698    668398.3594   4550496.2429   6  11   0.5631   0.2229   0.5480  -0.0483   0.2700   0.4228   0.00    0.0   -0.01938   -0.02120   -0.04972   0.00000  0.00000  0.00000  0.00000  0.00000  0.00000
2268 259248.000   4403098.0950    668398.3225   4550496.2097   6  11   0.5462   0.2156   0.5327  -0.0397   0.2618   0.4117   0.00    0.0    0.04701    0.00951    0.02933   0.00000  0.00000  0.00000  0.00000  0.00000  0.00000
2268 259249.000   4403098.0958    668398.2953   4550496.1703   6  11   0.5308   0.2091   0.5185  -0.0317   0.2542   0.4013   0.00    0.0    0.01513   -0.00410    0.00284   0.00000  0.00000  0.00000  0.00000  0.00000  0.00000
2268 259250.000   4403098.0475    668398.2868   4550496.1268   6  11   0.5167   0.2030   0.5054  -0.0240   0.2473   0.3916   0.00    0.0    0.00110   -0.01510   -0.03380   0.00000  0.00000  0.00000  0.00000  0.00000  0.00000
2268 259251.000   4403097.9803    668398.2870   4550496.0965   6  11   0.5037   0.1975   0.4932  -0.0155   0.2408   0.3826   0.00    0.0   -0.02775   -0.00667   -0.00940   0.00000  0.00000  0.00000  0.00000  0.00000  0.00000
2268 259252.000   4403097.9248    668398.2728   4550496.0453   6  11   0.4918   0.1924   0.4819   0.0051   0.2349   0.3743   0.00    0.0    0.03448   -0.02570   -0.00373   0.00000  0.00000  0.00000  0.00000  0.00000  0.00000
2268 259253.000   4403097.8788    668398.2474   4550496.0281   6  11   0.4808   0.1877   0.4714   0.0155   0.2293   0.3665   0.00    0.0    0.00485    0.00074    0.03211   0.00000  0.00000  0.00000  0.00000  0.00000  0.00000
2268 259254.000   4403097.8633    668398.2280   4550496.0204   6  11   0.4706   0.1833   0.4616   0.0204   0.2242   0.3594   0.00    0.0    0.04704   -0.02748   -0.01262   0.00000  0.00000  0.00000  0.00000  0.00000  0.00000
2268 259255.000   4403097.8382    668398.2197   4550496.0083   6  11   0.4612   0.1792   0.4525   0.0238   0.2194   0.3527   0.00    0.0    0.00602    0.00880    0.03046   0.00000  0.00000  0.00000  0.00000  0.00000  0.00000
2268 259256.000   4403097.8592    668398.2134   4550495.9873   6  11   0.4525   0.1754   0.4439   0.0264   0.2149   0.3466   0.00    0.0   -0.02261    0.00596    0.00520   0.00000  0.00000  0.00000  0.00000  0.00000  0.00000
2268 259257.000   4403097.8756    668398.2193   4550495.9883   6  11   0.4444   0.1718   0.4359   0.0285   0.2107   0.3408   0.00    0.0    0.03324   -0.00976    0.01204   0.00000  0.00000  0.00000  0.00000  0.00000  0.00000
2268 259258.000   4403097.9024    668398.2317   4550495.9929   6  11   0.4368   0.1685   0.4284   0.0302   0.2067   0.3355   0.00    0.0   -0.00758   -0.00678   -0.02971   0.00000  0.00000  0.00000  0.00000  0.00000  0.00000
2268 259259.000   4403097.9187    668398.2429   4550495.9941   6  11   0.4297   0.1653   0.4214   0.0317   0.2030   0.3305   0.00    0.0   -0.01074   -0.00167   -0.00142   0.00000  0.00000  0.00000  0.00000  0.00000  0.00000
2268 259260.000   4403097.9353    668398.2595   4550496.0129   6  11   0.4231   0.1623   0.4147   0.0331   0.1994   0.3258   0.00    0.0   -0.00917   -0.02028   -0.02533   0.00000  0.00000  0.00000  0.00000  0.00000  0.00000
2268 259261.000   4403097.9572    668398.2801   4550496.0329   6  11   0.4168   0.1595   0.4085   0.0343   0.1961   0.3214   0.00    0.0   -0.00070    0.01396    0.01243   0.00000  0.00000  0.00000  0.00000  0.00000  0.00000
2268 259262.000   4403098.0016    668398.2987   4550496.0612   6  11   0.4109   0.1568   0.4026   0.0354   0.1930   0.3173   0.00    0.0   -0.03417   -0.00368   -0.03129   0.00000  0.00000  0.00000  0.00000  0.00000  0.00000
2268 259263.000   4403098.0585    668398.3196   4550496.1005   6  11   0.4054   0.1542   0.3970   0.0364   0.1900   0.3134   0.00    0.0    0.00377    0.01015    0.02297   0.00000  0.00000  0.00000  0.00000  0.00000  0.00000
2268 259264.000   4403098.0935    668398.3294   4550496.1147   6  11   0.4001   0.1518   0.3917   0.0373   0.1872   0.3098   0.00    0.0    0.01333   -0.01111   -0.01010   0.00000  0.00000  0.00000  0.00000  0.00000  0.00000
2268 259265.000   4403098.1224    668398.3376   4550496.1326   6  11   0.3951   0.1495   0.3866   0.0382   0.1845   0.3063   0.00    0.0    0.01030   -0.01037    0.00774   0.00000  0.00000  0.00000  0.00000  0.00000  0.00000
2268 259266.000   4403098.1477    668398.3367   4550496.1323   6  11   0.3904   0.1473   0.3818   0.0390   0.1819   0.3030   0.00    0.0   -0.00545    0.00214    0.00914   0.00000  0.00000  0.00000  0.00000  0.00000  0.00000
2268 259267.000   4403098.1803    668398.3299   4550496.1301   6  11   0.3859   0.1452   0.3773   0.0397   0.1795   0.2999   0.00    0.0   -0.00271    0.01459    0.00630   0.00000  0.00000  0.00000  0.00000  0.00000  0.00000
2268 259268.000   4403098.1972    668398.3252   4550496.1356   6  11   0.3816   0.1431   0.3729   0.0404   0.1772   0.2970   0.00    0.0   -0.01862   -0.01508   -0.02633   0.00000  0.00000  0.00000  0.00000  0.00000  0.00000
2268 259269.000   4403098.2520    668398.3262   4550496.1664   6  11   0.3775   0.1412   0.3687   0.0411   0.1750   0.2942   0.00    0.0   -0.01306   -0.01768   -0.02693   0.00000  0.00000  0.00000  0.00000  0.00000  0.00000
2268 259270.000   4403098.2950    668398.3289   4550496.1974   6  11   0.3736   0.1393   0.3648   0.0417   0.1728   0.2915   0.00    0.0   -0.00204    0.01362    0.02245   0.00000  0.00000  0.00000  0.00000  0.00000  0.00000
2268 259271.000   4403098.3173    668398.3359   4550496.2248   6  11   0.3699   0.1376   0.3609   0.0423   0.1708   0.2890   0.00    0.0    0.02535   -0.01016   -0.00100   0.00000  0.00000  0.00000  0.00000  0.00000  0.00000
2268 259272.000   4403098.3698    668398.3373   4550496.2685   6  11   0.3663   0.1359   0.3573   0.0429   0.1689   0.2865   0.00    0.0    0.02215   -0.00273    0.01841   0.00000  0.00000  0.00000  0.00000  0.00000  0.00000
2268 259273.000   4403098.3836    668398.3306   4550496.2792   6  11   0.3628   0.1342   0.3538   0.0434   0.1670   0.2842   0.00    0.0   -0.03518    0.00969    0.01060   0.00000  0.00000  0.00000  0.00000  0.00000  0.00000
2268 259274.000   4403098.4048    668398.3337   4550496.3186   6  11   0.3595   0.1326   0.3504   0.0439   0.1652   0.2820   0.00    0.0    0.00926   -0.02111   -0.01335   0.00000  0.00000  0.00000  0.00000  0.00000  0.00000
2268 259275.000   4403098.4144    668398.3394   4550496.3496   6  11   0.3563   0.1311   0.3471   0.0444   0.1635   0.2798   0.00    0.0   -0.00269    0.03747    0.04395   0.00000  0.00000  0.00000  0.00000  0.00000  0.00000
2268 259276.000   4403098.4238    668398.3409   4550496.3618   6  11   0.3533   0.1296   0.3440   0.0448   0.1618   0.2777   0.00    0.0   -0.01654    0.00029    0.00717   0.00000  0.00000  0.00000  0.00000  0.00000  0.00000
2268 259277.000   4403098.4332    668398.3483   4550496.3819   6  11   0.3503   0.1282   0.3410   0.0453   0.1602   0.2758   0.00    0.0    0.00973    0.00506    0.02680   0.00000  0.00000  0.00000  0.00000  0.00000  0.00000
2268 259278.000   4403098.4497    668398.3570   4550496.4074   6  11   0.3475   0.1268   0.3381   0.0457   0.1586   0.2738   0.00    0.0    0.02635   -0.02792    0.00232   0.00000  0.00000  0.00000  0.00000  0.00000  0.00000
2268 259279.000   4403098.4624    668398.3647   4550496.4146   6  11   0.3447   0.1255   0.3353   0.0460   0.1571   0.2720   0.00    0.0    0.01034   -0.03263   -0.05902   0.00000  0.00000  0.00000  0.00000  0.00000  0.00000
2268 259280.000   4403098.4544    668398.3692   4550496.4057   6  11   0.3420   0.1242   0.3325   0.0464   0.1557   0.2702   0.00    0.0   -0.02008    0.00313   -0.01611   0.00000  0.00000  0.00000  0.00000  0.00000  0.00000
2268 259281.000   4403098.4356    668398.3686   4550496.3899   6  11   0.3395   0.1229   0.3299   0.0467   0.1543   0.2685   0.00    0.0    0.00619   -0.00476   -0.01854   0.00000  0.00000  0.00000  0.00000  0.00000  0.00000
2268 259282.000   4403098.4413    668398.3689   4550496.3934   6  11   0.3370   0.1217   0.3274   0.0471   0.1529   0.2668   0.00    0.0    0.01072   -0.01097    0.01104   0.00000  0.00000  0.00000  0.00000  0.00000  0.00000
2268 259283.000   4403098.4454    668398.3678   4550496.3902   6  11   0.3345   0.1206   0.3249   0.0474   0.1516   0.2652   0.00    0.0    0.02832   -0.01395   -0.00418   0.00000  0.00000  0.00000  0.00000  0.00000  0.00000
2268 259284.000   4403098.4580    668398.3665   4550496.3905   6  11   0.3322   0.1194   0.3225   0.0477   0.1503   0.2636   0.00    0.0   -0.02115   -0.01151   -0.00793   0.00000  0.00000  0.00000  0.00000  0.00000  0.00000
2268 259285.000   4403098.4838    668398.3683   4550496.3950   6  11   0.3299   0.1183   0.3202   0.0480   0.1491   0.2621   0.00    0.0    0.03773   -0.00266    0.01495   0.00000  0.00000  0.00000  0.00000  0.00000  0.00000
2268 259286.000   4403098.5089    668398.3747   4550496.4143   6  11   0.3277   0.1172   0.3179   0.0482   0.1479   0.2606   0.00    0.0   -0.02553   -0.00027   -0.02312   0.00000  0.00000  0.00000  0.00000  0.00000  0.00000
2268 259287.000   4403098.5340    668398.3788   4550496.4302   6  11   0.3255   0.1162   0.3157   0.0485   0.1467   0.2591   0.00    0.0   -0.01569   -0.00453   -0.03217   0.00000  0.00000  0.00000  0.00000  0.00000  0.00000
2268 259288.000   4403098.5477    668398.3832   4550496.4368   6  11   0.3234   0.1152   0.3136   0.0487   0.1456   0.2577   0.00    0.0    0.02544   -0.01164   -0.02795   0.00000  0.00000  0.00000  0.00000  0.00000  0.00000
2268 259289.000   4403098.5573    668398.3810   4550496.4309   6  11   0.3214   0.1142   0.3115   0.0489   0.1445   0.2564   0.00    0.0   -0.01799    0.01675    0.02850   0.00000  0.00000  0.00000  0.00000  0.00000  0.00000
2268 259290.000   4403098.5727    668398.3773   4550496.4293   6  11   0.3194   0.1132   0.3095   0.0491   0.1434   0.2550   0.00    0.0    0.00424   -0.00483   -0.02313   0.00000  0.00000  0.00000  0.00000  0.00000  0.00000
2268 259291.000   4403098.6084    668398.3733   4550496.4401   6  11   0.3175   0.1123   0.3075   0.0493   0.1424   0.2537   0.00    0.0   -0.00061    0.01923    0.00836   0.00000  0.00000  0.00000  0.00000  0.00000  0.00000
2268 259292.000   4403098.6469    668398.3704   4550496.4589   6  11   0.3156   0.1114   0.3056   0.0495   0.1414   0.2525   0.00    0.0    0.02060    0.00159    0.03644   0.00000  0.00000  0.00000  0.00000  0.00000  0.00000
2268 259293.000   4403098.6731    668398.3671   4550496.4698   6  11   0.3137   0.1105   0.3037   0.0497   0.1404   0.2512   0.00    0.0    0.01445   -0.00090    0.02016   0.00000  0.00000  0.00000  0.00000  0.00000  0.00000
2268 259294.000   4403098.6975    668398.3714   4550496.4983   6  11   0.3119   0.1096   0.3019   0.0499   0.1394   0.2500   0.00    0.0    0.04714   -0.01441    0.03365   0.00000  0.00000  0.00000  0.00000  0.00000  0.00000
2268 259295.000   4403098.7165    668398.3753   4550496.5194   6  11   0.3102   0.1088   0.3001   0.0501   0.1385   0.2488   0.00    0.0    0.04716   -0.01939   -0.03511   0.00000  0.00000  0.00000  0.00000  0.00000  0.00000
2268 259296.000   4403098.7238    668398.3807   4550496.5397   6  11   0.3085   0.1080   0.2984   0.0502   0.1376   0.2477   0.00    0.0    0.02441   -0.02085    0.01459   0.00000  0.00000  0.00000  0.00000  0.00000  0.00000
2268 259297.000   4403098.7314    668398.3837   4550496.5534   6  11   0.3068   0.1071   0.2967   0.0504   0.1367   0.2466   0.00    0.0    0.03250   -0.00341   -0.00435   0.00000  0.00000  0.00000  0.00000  0.00000  0.00000
2268 259298.000   4403098.7373    668398.3887   4550496.5669   6  11   0.3052   0.1064   0.2950   0.0505   0.1358   0.2455   0.00    0.0    0.00825   -0.00906   -0.00423   0.00000  0.00000  0.00000  0.00000  0.00000  0.00000
2268 259299.000   4403098.7375    668398.3907   4550496.5666   6  11   0.3036   0.1056   0.2934   0.0506   0.1350   0.2444   0.00    0.0    0.00681   -0.00260    0.00006   0.00000  0.00000  0.00000  0.00000  0.00000  0.00000
2268 259300.000   4403098.7372    668398.3895   4550496.5573   6  11   0.3020   0.1048   0.2918   0.0508   0.1341   0.2433   0.00    0.0   -0.01826   -0.00925   -0.03312   0.00000  0.00000  0.00000  0.00000  0.00000  0.00000
2268 259301.000   4403098.7352    668398.3822   4550496.5367   6  11   0.3004   0.1041   0.2902   0.0509   0.1333   0.2423   0.00    0.0    0.01582   -0.00522   -0.02062   0.00000  0.00000  0.00000  0.00000  0.00000  0.00000
2268 259302.000   4403098.7354    668398.3774   4550496.5123   6  11   0.2989   0.1034   0.2887   0.0510   0.1325   0.2413   0.00    0.0   -0.00282   -0.01966   -0.03107   0.00000  0.00000  0.00000  0.00000  0.00000  0.00000
2268 259303.000   4403098.7102    668398.3689   4550496.4683   6  11   0.2975   0.1027   0.2872   0.0511   0.1317   0.2403   0.00    0.0    0.03023    0.00225    0.03218   0.00000  0.00000  0.00000  0.00000  0.00000  0.00000
2268 259304.000   4403098.6774    668398.3665   4550496.4338   6  11   0.2960   0.1020   0.2857   0.0512   0.1310   0.2393   0.00    0.0   -0.01497   -0.00685   -0.01969   0.00000  0.00000  0.00000  0.00000  0.00000  0.00000
2268 259305.000   4403098.6531    668398.3658   4550496.4128   6  11   0.2946   0.1013   0.2843   0.0513   0.1302   0.2383   0.00    0.0   -0.00559    0.01268    0.02586   0.00000  0.00000  0.00000  0.00000  0.00000  0.00000
2268 259306.000   4403098.6346    668398.3648   4550496.3930   6  11   0.2932   0.1006   0.2829   0.0514   0.1295   0.2374   0.00    0.0    0.01560   -0.01751   -0.00995   0.00000  0.00000  0.00000  0.00000  0.00000  0.00000
2268 259307.000   4403098.6392    668398.3613   4550496.3833   6  11   0.2919   0.1000   0.2815   0.0514   0.1288   0.2365   0.00    0.0    0.00784   -0.01341   -0.05003   0.00000  0.00000  0.00000  0.00000  0.00000  0.00000
2268 259308.000   4403098.6428    668398.3562   4550496.3741   6  11   0.2905   0.0994   0.2802   0.0515   0.1281   0.2356   0.00    0.0    0.01240    0.01016   -0.00232   0.00000  0.00000  0.00000  0.00000  0.00000  0.00000
2268 259309.000   4403098.6632    668398.3540   4550496.3859   6  11   0.2892   0.0987   0.2788   0.0516   0.1274   0.2347   0.00    0.0   -0.00186   -0.00761   -0.00438   0.00000  0.00000  0.00000  0.00000  0.00000  0.00000
2268 259310.000   4403098.6892    668398.3554   4550496.4126   6  11   0.2879   0.0981   0.2775   0.0517   0.1267   0.2338   0.00    0.0    0.00591    0.00880    0.02684   0.00000  0.00000  0.00000  0.00000  0.00000  0.00000
2268 259311.000   4403098.7219    668398.3584   4550496.4433   6  11   0.2866   0.0975   0.2762   0.0517   0.1260   0.2329   0.00    0.0    0.00249   -0.00396    0.01158   0.00000  0.00000  0.00000  0.00000  0.00000  0.00000
2268 259312.000   4403098.7612    668398.3617   4550496.4805   6  11   0.2854   0.0969   0.2750   0.0518   0.1254   0.2321   0.00    0.0    0.00329   -0.00160   -0.00612   0.00000  0.00000  0.00000  0.00000  0.00000  0.00000
2268 259313.000   4403098.8028    668398.3675   4550496.5201   6  11   0.2842   0.0964   0.2737   0.0518   0.1247   0.2312   0.00    0.0   -0.01116   -0.01154   -0.01560   0.00000  0.00000  0.00000  0.00000  0.00000  0.00000
2268 259314.000   4403098.8382    668398.3765   4550496.5571   6  11   0.2830   0.0958   0.2725   0.0519   0.1241   0.2304   0.00    0.0    0.02016   -0.00472    0.03670   0.00000  0.00000  0.00000  0.00000  0.00000  0.00000
2268 259315.000   4403098.8604    668398.3836   4550496.5749   6  11   0.2818   0.0952   0.2713   0.0519   0.1235   0.2296   0.00    0.0   -0.01482    0.00391    0.00735   0.00000  0.00000  0.00000  0.00000  0.00000  0.00000
2268 259316.000   4403098.8882    668398.3923   4550496.5975   6  11   0.2806   0.0947   0.2702   0.0520   0.1229   0.2288   0.00    0.0    0.00075   -0.01225   -0.00581   0.00000  0.00000  0.00000  0.00000  0.00000  0.00000
2268 259317.000   4403098.9129    668398.3978   4550496.6159   6  11   0.2795   0.0941   0.2690   0.0520   0.1223   0.2280   0.00    0.0   -0.00079   -0.00210    0.01221   0.00000  0.00000  0.00000  0.00000  0.00000  0.00000
2268 259318.000   4403098.9352    668398.4043   4550496.6349   6  11   0.2784   0.0936   0.2679   0.0521   0.1217   0.2273   0.00    0.0    0.02648   -0.02138    0.00469   0.00000  0.00000  0.00000  0.00000  0.00000  0.00000
2268 259319.000   4403098.9560    668398.4104   4550496.6558   6  11   0.2773   0.0931   0.2668   0.0521   0.1211   0.2265   0.00    0.0    0.01444    0.00480    0.00329   0.00000  0.00000  0.00000  0.00000  0.00000  0.00000
2268 259320.000   4403098.9625    668398.4132   4550496.6680   6  11   0.2762   0.0926   0.2657   0.0521   0.1206   0.2257   0.00    0.0    0.02056   -0.02363   -0.05682   0.00000  0.00000  0.00000  0.00000  0.00000  0.00000
2268 259321.000   4403098.9640    668398.4153   4550496.6697   6  11   0.2751   0.0921   0.2646   0.0522   0.1200   0.2250   0.00    0.0    0.00963   -0.00229   -0.00887   0.00000  0.00000  0.00000  0.00000  0.00000  0.00000
2268 259322.000   4403098.9598    668398.4143   4550496.6644   6  11   0.2740   0.0916   0.2635   0.0522   0.1195   0.2243   0.00    0.0   -0.00572    0.00062   -0.00453   0.00000  0.00000  0.00000  0.00000  0.00000  0.00000
2268 259323.000   4403098.9480    668398.4082   4550496.6500   6  11   0.2730   0.0911   0.2625   0.0522   0.1189   0.2235   0.00    0.0   -0.01344    0.00813    0.03076   0.00000  0.00000  0.00000  0.00000  0.00000  0.00000
2268 259324.000   4403098.9462    668398.4022   4550496.6466   6  11   0.2720   0.0906   0.2614   0.0522   0.1184   0.2228   0.00    0.0    0.00740   -0.00231    0.00394   0.00000  0.00000  0.00000  0.00000  0.00000  0.00000
2268 259325.000   4403098.9546    668398.3982   4550496.6530   6  11   0.2709   0.0902   0.2604   0.0522   0.1179   0.2221   0.00    0.0   -0.00007    0.00897   -0.01195   0.00000  0.00000  0.00000  0.00000  0.00000  0.00000
2268 259326.000   4403098.9660    668398.3973   4550496.6625   6  11   0.2699   0.0897   0.2594   0.0523   0.1174   0.2214   0.00    0.0    0.00810   -0.00961    0.00214   0.00000  0.00000  0.00000  0.00000  0.00000  0.00000
2268 259327.000   4403098.9859    668398.3982   4550496.6831   6  11   0.2690   0.0893   0.2584   0.0523   0.1169   0.2208   0.00    0.0   -0.01112    0.01047    0.03006   0.00000  0.00000  0.00000  0.00000  0.00000  0.00000
2268 259328.000   4403099.0153    668398.3995   4550496.7072   6  11   0.2680   0.0888   0.2574   0.0523   0.1164   0.2201   0.00    0.0   -0.02267    0.00239    0.01074   0.00000  0.00000  0.00000  0.00000  0.00000  0.00000
2268 259329.000   4403099.0466    668398.4053   4550496.7388   6  11   0.2670   0.0884   0.2565   0.0523   0.1159   0.2194   0.00    0.0   -0.03068    0.00155    0.00727   0.00000  0.00000  0.00000  0.00000  0.00000  0.00000
2268 259330.000   4403099.0775    668398.4093   4550496.7636   6  11   0.2661   0.0879   0.2555   0.0523   0.1154   0.2188   0.00    0.0   -0.01421   -0.02635   -0.03302   0.00000  0.00000  0.00000  0.00000  0.00000  0.00000
2268 259331.000   4403099.0965    668398.4146   4550496.7860   6  11   0.2652   0.0875   0.2546   0.0523   0.1149   0.2181   0.00    0.0    0.02035    0.00455    0.02732   0.00000  0.00000  0.00000  0.00000  0.00000  0.00000
2268 259332.000   4403099.1078    668398.4187   4550496.7997   6  11   0.2642   0.0871   0.2537   0.0523   0.1144   0.2175   0.00    0.0    0.00606   -0.00253   -0.02111   0.00000  0.00000  0.00000  0.00000  0.00000  0.00000
2268 259333.000   4403099.1081    668398.4217   4550496.7986   6  11   0.2633   0.0867   0.2527   0.0523   0.1140   0.2168   0.00    0.0    0.00987    0.00788    0.06650   0.00000  0.00000  0.00000  0.00000  0.00000  0.00000
2268 259334.000   4403099.1028    668398.4224   4550496.7936   6  11   0.2624   0.0863   0.2519   0.0523   0.1135   0.2162   0.00    0.0    0.00345    0.00646    0.00809   0.00000  0.00000  0.00000  0.00000  0.00000  0.00000
2268 259335.000   4403099.1056    668398.4246   4550496.7959   6  11   0.2616   0.0859   0.2510   0.0523   0.1131   0.2156   0.00    0.0   -0.02642    0.00867    0.01421   0.00000  0.00000  0.00000  0.00000  0.00000  0.00000
2268 259336.000   4403099.1007    668398.4235   4550496.7873   6  11   0.2607   0.0855   0.2501   0.0523   0.1126   0.2150   0.00    0.0    0.01761   -0.00600   -0.01616   0.00000  0.00000  0.00000  0.00000  0.00000  0.00000
2268 259337.000   4403099.0926    668398.4259   4550496.7871   6  11   0.2598   0.0851   0.2492   0.0523   0.1122   0.2144   0.00    0.0   -0.00231    0.01873    0.01645   0.00000  0.00000  0.00000  0.00000  0.00000  0.00000
2268 259338.000   4403099.0912    668398.4266   4550496.7859   6  11   0.2590   0.0847   0.2484   0.0523   0.1118   0.2138   0.00    0.0   -0.00895   -0.00947   -0.00887   0.00000  0.00000  0.00000  0.00000  0.00000  0.00000
2268 259339.000   4403099.0791    668398.4289   4550496.7837   6  11   0.2581   0.0843   0.2475   0.0523   0.1113   0.2132   0.00    0.0   -0.00250   -0.00958   -0.00504   0.00000  0.00000  0.00000  0.00000  0.00000  0.00000
2268 259340.000   4403099.0687    668398.4325   4550496.7820   6  11   0.2573   0.0839   0.2467   0.0523   0.1109   0.2126   0.00    0.0    0.01135    0.00893    0.01775   0.00000  0.00000  0.00000  0.00000  0.00000  0.00000
2268 259341.000   4403099.0605    668398.4363   4550496.7861   6  11   0.2565   0.0836   0.2459   0.0523   0.1105   0.2120   0.00    0.0    0.00359   -0.00938    0.00385   0.00000  0.00000  0.00000  0.00000  0.00000  0.00000
2268 259342.000   4403099.0548    668398.4403   4550496.7918   6  11   0.2557   0.0832   0.2451   0.0523   0.1101   0.2114   0.00    0.0    0.04599    0.00786    0.02890   0.00000  0.00000  0.00000  0.00000  0.00000  0.00000
2268 259343.000   4403099.0568    668398.4441   4550496.8023   6  11   0.2549   0.0828   0.2443   0.0522   0.1097   0.2109   0.00    0.0    0.01959   -0.01585   -0.01785   0.00000  0.00000  0.00000  0.00000  0.00000  0.00000
2268 259344.000   4403099.0556    668398.4473   4550496.8162   6  11   0.2541   0.0825   0.2435   0.0522   0.1093   0.2103   0.00    0.0    0.00927   -0.01591   -0.02389   0.00000  0.00000  0.00000  0.00000  0.00000  0.00000
2268 259345.000   4403099.0530    668398.4477   4550496.8262   6  11   0.2533   0.0821   0.2427   0.0522   0.1089   0.2097   0.00    0.0    0.01511   -0.00917    0.00600   0.00000  0.00000  0.00000  0.00000  0.00000  0.00000
2268 259346.000   4403099.0441    668398.4480   4550496.8338   6  11   0.2525   0.0818   0.2419   0.0522   0.1085   0.2092   0.00    0.0    0.03706   -0.01559    0.01691   0.00000  0.00000  0.00000  0.00000  0.00000  0.00000
2268 259347.000   4403099.0372    668398.4456   4550496.8377   6  11   0.2518   0.0815   0.2411   0.0522   0.1081   0.2087   0.00    0.0    0.00647   -0.00356   -0.00692   0.00000  0.00000  0.00000  0.00000  0.00000  0.00000
2268 259348.000   4403099.0399    668398.4454   4550496.8525   6  11   0.2510   0.0811   0.2404   0.0522   0.1077   0.2081   0.00    0.0    0.00563   -0.00551   -0.02469   0.00000  0.00000  0.00000  0.00000  0.00000  0.00000
2268 259349.000   4403099.0512    668398.4463   4550496.8748   6  11   0.2503   0.0808   0.2396   0.0521   0.1074   0.2076   0.00    0.0   -0.00994    0.01532    0.01876   0.00000  0.00000  0.00000  0.00000  0.00000  0.00000
2268 259350.000   4403099.0696    668398.4476   4550496.9010   6  11   0.2495   0.0805   0.2389   0.0521   0.1070   0.2071   0.00    0.0    0.02091   -0.00933   -0.01288   0.00000  0.00000  0.00000  0.00000  0.00000  0.00000
2268 259351.000   4403099.0785    668398.4494   4550496.9195   6  11   0.2488   0.0801   0.2382   0.0521   0.1066   0.2065   0.00    0.0    0.00491   -0.00691   -0.00588   0.00000  0.00000  0.00000  0.00000  0.00000  0.00000
2268 259352.000   4403099.0911    668398.4519   4550496.9388   6  11   0.2481   0.0798   0.2374   0.0521   0.1063   0.2060   0.00    0.0   -0.01071    0.01007    0.00012   0.00000  0.00000  0.00000  0.00000  0.00000  0.00000
2268 259353.000   4403099.1024    668398.4545   4550496.9545   6  11   0.2474   0.0795   0.2367   0.0521   0.1059   0.2055   0.00    0.0   -0.03262   -0.00270   -0.05279   0.00000  0.00000  0.00000  0.00000  0.00000  0.00000
2268 259354.000   4403099.0999    668398.4564   4550496.9598   6  11   0.2467   0.0792   0.2360   0.0520   0.1055   0.2050   0.00    0.0   -0.01969   -0.01251   -0.01739   0.00000  0.00000  0.00000  0.00000  0.00000  0.00000
2268 259355.000   4403099.0981    668398.4576   4550496.9633   6  11   0.2460   0.0789   0.2353   0.0520   0.1052   0.2045   0.00    0.0   -0.01293   -0.00086    0.00245   0.00000  0.00000  0.00000  0.00000  0.00000  0.00000
2268 259356.000   4403099.1016    668398.4593   4550496.9687   6  11   0.2453   0.0786   0.2346   0.0520   0.1048   0.2040   0.00    0.0    0.00769   -0.02665   -0.03067   0.00000  0.00000  0.00000  0.00000  0.00000  0.00000
2268 259357.000   4403099.1127    668398.4633   4550496.9848   6  11   0.2446   0.0783   0.2339   0.0520   0.1045   0.2035   0.00    0.0   -0.00571    0.01011    0.00981   0.00000  0.00000  0.00000  0.00000  0.00000  0.00000
2268 259358.000   4403099.1164    668398.4657   4550496.9948   6  11   0.2439   0.0780   0.2333   0.0519   0.1042   0.2030   0.00    0.0    0.01254   -0.00903   -0.02500   0.00000  0.00000  0.00000  0.00000  0.00000  0.00000
2268 259359.000   4403099.1246    668398.4664   4550496.9995   6  11   0.2432   0.0777   0.2326   0.0519   0.1038   0.2025   0.00    0.0    0.02304   -0.00725   -0.00436   0.00000  0.00000  0.00000  0.00000  0.00000  0.00000
2268 259360.000   4403099.1322    668398.4694   4550497.0110   6  11   0.2426   0.0774   0.2319   0.0519   0.1035   0.2020   0.00    0.0    0.02346    0.00163    0.02731   0.00000  0.00000  0.00000  0.00000  0.00000  0.00000
2268 259361.000   4403099.1456    668398.4718   4550497.0311   6  11   0.2419   0.0771   0.2313   0.0518   0.1032   0.2016   0.00    0.0    0.01560   -0.00848   -0.02500   0.00000  0.00000  0.00000  0.00000  0.00000  0.00000
2268 259362.000   4403099.1598    668398.4738   4550497.0506   6  11   0.2413   0.0768   0.2306   0.0518   0.1029   0.2011   0.00    0.0    0.02390    0.00552    0.00593   0.00000  0.00000  0.00000  0.00000  0.00000  0.00000
2268 259363.000   4403099.1756    668398.4771   4550497.0736   6  11   0.2406   0.0765   0.2300   0.0518   0.1025   0.2006   0.00    0.0    0.00665    0.00612    0.01340   0.00000  0.00000  0.00000  0.00000  0.00000  0.00000
2268 259364.000   4403099.1896    668398.4772   4550497.0878   6  11   0.2400   0.0763   0.2293   0.0518   0.1022   0.2002   0.00    0.0   -0.01266   -0.00654   -0.00072   0.00000  0.00000  0.00000  0.00000  0.00000  0.00000
2268 259365.000   4403099.2080    668398.4766   4550497.1010   6  11   0.2394   0.0760   0.2287   0.0517   0.1019   0.1997   0.00    0.0    0.01809    0.02053    0.02361   0.00000  0.00000  0.00000  0.00000  0.00000  0.00000
2268 259366.000   4403099.2298    668398.4762   4550497.1174   6  11   0.2387   0.0757   0.2281   0.0517   0.1016   0.1993   0.00    0.0    0.05472   -0.01732    0.00355   0.00000  0.00000  0.00000  0.00000  0.00000  0.00000
2268 259367.000   4403099.2567    668398.4775   4550497.1419   6  11   0.2381   0.0754   0.2274   0.0517   0.1013   0.1988   0.00    0.0   -0.03238    0.00699   -0.01237   0.00000  0.00000  0.00000  0.00000  0.00000  0.00000
2268 259368.000   4403099.2809    668398.4796   4550497.1672   6  11   0.2375   0.0752   0.2268   0.0516   0.1010   0.1984   0.00    0.0    0.03574    0.01480    0.01032   0.00000  0.00000  0.00000  0.00000  0.00000  0.00000
2268 259369.000   4403099.2969    668398.4786   4550497.1846   6  11   0.2369   0.0749   0.2262   0.0516   0.1007   0.1979   0.00    0.0   -0.04709   -0.00189   -0.01770   0.00000  0.00000  0.00000  0.00000  0.00000  0.00000
2268 259370.000   4403099.3188    668398.4779   4550497.2023   6  11   0.2363   0.0746   0.2256   0.0516   0.1004   0.1975   0.00    0.0    0.00004   -0.00938   -0.01605   0.00000  0.00000  0.00000  0.00000  0.00000  0.00000
2268 259371.000   4403099.3324    668398.4801   4550497.2207   6  11   0.2357   0.0744   0.2250   0.0515   0.1001   0.1970   0.00    0.0    0.00122   -0.01869    0.00073   0.00000  0.00000  0.00000  0.00000  0.00000  0.00000
2268 259372.000   4403099.3398    668398.4846   4550497.2331   6  11   0.2351   0.0741   0.2244   0.0515   0.0998   0.1966   0.00    0.0    0.03482   -0.00841   -0.00719   0.00000  0.00000  0.00000  0.00000  0.00000  0.00000
2268 259373.000   4403099.3488    668398.4916   4550497.2546   6  11   0.2345   0.0739   0.2238   0.0515   0.0995   0.1962   0.00    0.0    0.00465   -0.00312    0.01688   0.00000  0.00000  0.00000  0.00000  0.00000  0.00000
2268 259374.000   4403099.3541    668398.4967   4550497.2637   6  11   0.2339   0.0736   0.2233   0.0514   0.0992   0.1957   0.00    0.0    0.01311   -0.01085   -0.01150   0.00000  0.00000  0.00000  0.00000  0.00000  0.00000
2268 259375.000   4403099.3548    668398.4996   4550497.2645   6  11   0.2333   0.0734   0.2227   0.0514   0.0989   0.1953   0.00    0.0    0.03229   -0.01564    0.03476   0.00000  0.00000  0.00000  0.00000  0.00000  0.00000
2268 259376.000   4403099.3608    668398.5022   4550497.2679   6  11   0.2328   0.0731   0.2221   0.0514   0.0987   0.1949   0.00    0.0    0.00816   -0.00934   -0.01832   0.00000  0.00000  0.00000  0.00000  0.00000  0.00000
2268 259377.000   4403099.3685    668398.5046   4550497.2694   6  11   0.2322   0.0729   0.2215   0.0513   0.0984   0.1945   0.00    0.0   -0.02263   -0.02088   -0.03690   0.00000  0.00000  0.00000  0.00000  0.00000  0.00000
2268 259378.000   4403099.3694    668398.5032   4550497.2622   6  11   0.2316   0.0727   0.2210   0.0513   0.0981   0.1941   0.00    0.0    0.03974   -0.00840   -0.00582   0.00000  0.00000  0.00000  0.00000  0.00000  0.00000
2268 259379.000   4403099.3737    668398.5010   4550497.2585   6  11   0.2311   0.0724   0.2204   0.0513   0.0978   0.1937   0.00    0.0    0.01318   -0.01307   -0.00246   0.00000  0.00000  0.00000  0.00000  0.00000  0.00000
2268 259380.000   4403099.3785    668398.5001   4550497.2556   6  11   0.2305   0.0722   0.2199   0.0512   0.0976   0.1933   0.00    0.0    0.00027    0.01148    0.05185   0.00000  0.00000  0.00000  0.00000  0.00000  0.00000
2268 259381.000   4403099.3894    668398.4989   4550497.2585   6  11   0.2300   0.0719   0.2193   0.0512   0.0973   0.1929   0.00    0.0   -0.05727    0.01171   -0.02644   0.00000  0.00000  0.00000  0.00000  0.00000  0.00000
2268 259382.000   4403099.4077    668398.5009   4550497.2684   6  11   0.2294   0.0717   0.2188   0.0512   0.0970   0.1925   0.00    0.0   -0.01652   -0.00427    0.00865   0.00000  0.00000  0.00000  0.00000  0.00000  0.00000
2268 259383.000   4403099.4153    668398.5024   4550497.2724   6  11   0.2289   0.0715   0.2182   0.0511   0.0968   0.1921   0.00    0.0    0.02524    0.01180    0.00252   0.00000  0.00000  0.00000  0.00000  0.00000  0.00000
2268 259384.000   4403099.4249    668398.5024   4550497.2781   6  11   0.2284   0.0713   0.2177   0.0511   0.0965   0.1917   0.00    0.0    0.02561    0.00815    0.03607   0.00000  0.00000  0.00000  0.00000  0.00000  0.00000
2268 259385.000   4403099.4325    668398.5050   4550497.2902   6  11   0.2278   0.0710   0.2172   0.0510   0.0962   0.1913   0.00    0.0    0.01834   -0.00422    0.00605   0.00000  0.00000  0.00000  0.00000  0.00000  0.00000
2268 259386.000   4403099.4487    668398.5071   4550497.3079   6  11   0.2273   0.0708   0.2167   0.0510   0.0960   0.1909   0.00    0.0    0.03777    0.00123    0.00181   0.00000  0.00000  0.00000  0.00000  0.00000  0.00000
2268 259387.000   4403099.4692    668398.5109   4550497.3307   6  11   0.2268   0.0706   0.2161   0.0510   0.0957   0.1905   0.00    0.0   -0.00121    0.01294    0.01275   0.00000  0.00000  0.00000  0.00000  0.00000  0.00000
2268 259388.000   4403099.4879    668398.5135   4550497.3535   6  11   0.2263   0.0704   0.2156   0.0509   0.0955   0.1901   0.00    0.0   -0.00958    0.01203    0.01018   0.00000  0.00000  0.00000  0.00000  0.00000  0.00000
2268 259389.000   4403099.4961    668398.5138   4550497.3667   6  11   0.2258   0.0702   0.2151   0.0509   0.0952   0.1897   0.00    0.0    0.04017    0.01222    0.02520   0.00000  0.00000  0.00000  0.00000  0.00000  0.00000
2268 259390.000   4403099.4978    668398.5124   4550497.3704   6  11   0.2253   0.0700   0.2146   0.0509   0.0950   0.1894   0.00    0.0    0.04862   -0.02246   -0.02367   0.00000  0.00000  0.00000  0.00000  0.00000  0.00000
2268 259391.000   4403099.5012    668398.5078   4550497.3706   6  11   0.2248   0.0697   0.2141   0.0508   0.0947   0.1890   0.00    0.0   -0.00233   -0.00081   -0.00075   0.00000  0.00000  0.00000  0.00000  0.00000  0.00000
2268 259392.000   4403099.5093    668398.5065   4550497.3799   6  11   0.2243   0.0695   0.2136   0.0508   0.0945   0.1886   0.00    0.0    0.00491   -0.00923   -0.03155   0.00000  0.00000  0.00000  0.00000  0.00000  0.00000
2268 259393.000   4403099.5207    668398.5047   4550497.3874   6  11   0.2238   0.0693   0.2131   0.0507   0.0942   0.1882   0.00    0.0    0.02807   -0.02537   -0.02435   0.00000  0.00000  0.00000  0.00000  0.00000  0.00000
2268 259394.000   4403099.5365    668398.5031   4550497.3965   6  11   0.2233   0.0691   0.2126   0.0507   0.0940   0.1879   0.00    0.0   -0.01072   -0.00336   -0.00165   0.00000  0.00000  0.00000  0.00000  0.00000  0.00000
2268 259395.000   4403099.5559    668398.5061   4550497.4110   6  11   0.2228   0.0689   0.2121   0.0507   0.0938   0.1875   0.00    0.0    0.05139    0.00536    0.03459   0.00000  0.00000  0.00000  0.00000  0.00000  0.00000
2268 259396.000   4403099.5747    668398.5087   4550497.4234   6  11   0.2223   0.0687   0.2116   0.0506   0.0935   0.1871   0.00    0.0   -0.00393   -0.01000   -0.02555   0.00000  0.00000  0.00000  0.00000  0.00000  0.00000
2268 259397.000   4403099.5946    668398.5104   4550497.4351   6  11   0.2218   0.0685   0.2112   0.0506   0.0933   0.1868   0.00    0.0    0.00687    0.00074    0.00039   0.00000  0.00000  0.00000  0.00000  0.00000  0.00000
2268 259398.000   4403099.6167    668398.5115   4550497.4452   6  11   0.2213   0.0683   0.2107   0.0505   0.0931   0.1864   0.00    0.0    0.04812   -0.00142    0.00245   0.00000  0.00000  0.00000  0.00000  0.00000  0.00000
2268 259399.000   4403099.6336    668398.5126   4550497.4559   6  11   0.2209   0.0681   0.2102   0.0505   0.0928   0.1861   0.00    0.0    0.01579   -0.01067   -0.01949   0.00000  0.00000  0.00000  0.00000  0.00000  0.00000
2268 259400.000   4403099.6433    668398.5105   4550497.4549   6  11   0.2204   0.0679   0.2097   0.0505   0.0926   0.1857   0.00    0.0    0.01129    0.00335   -0.01181   0.00000  0.00000  0.00000  0.00000  0.00000  0.00000
2268 259401.000   4403099.6554    668398.5092   4550497.4553   6  11   0.2199   0.0677   0.2093   0.0504   0.0924   0.1854   0.00    0.0    0.00885   -0.02768   -0.02340   0.00000  0.00000  0.00000  0.00000  0.00000  0.00000
2268 259402.000   4403099.6588    668398.5099   4550497.4552   6  11   0.2195   0.0675   0.2088   0.0504   0.0922   0.1850   0.00    0.0    0.00783   -0.00286    0.00101   0.00000  0.00000  0.00000  0.00000  0.00000  0.00000
2268 259403.000   4403099.6529    668398.5088   4550497.4488   6  11   0.2190   0.0673   0.2084   0.0503   0.0919   0.1847   0.00    0.0   -0.01052   -0.00840   -0.03290   0.00000  0.00000  0.00000  0.00000  0.00000  0.00000
2268 259404.000   4403099.6455    668398.5092   4550497.4428   6  11   0.2185   0.0672   0.2079   0.0503   0.0917   0.1843   0.00    0.0    0.01665   -0.00273   -0.00098   0.00000  0.00000  0.00000  0.00000  0.00000  0.00000
2268 259405.000   4403099.6387    668398.5091   4550497.4373   6  11   0.2181   0.0670   0.2074   0.0503   0.0915   0.1840   0.00    0.0    0.02336   -0.00231    0.01523   0.00000  0.00000  0.00000  0.00000  0.00000  0.00000
2268 259406.000   4403099.6355    668398.5112   4550497.4376   6  11   0.2176   0.0668   0.2070   0.0502   0.0913   0.1837   0.00    0.0    0.01057    0.00052   -0.01682   0.00000  0.00000  0.00000  0.00000  0.00000  0.00000
2268 259407.000   4403099.6377    668398.5132   4550497.4443   6  11   0.2172   0.0666   0.2065   0.0502   0.0911   0.1833   0.00    0.0   -0.00027   -0.00869   -0.02192   0.00000  0.00000  0.00000  0.00000  0.00000  0.00000
2268 259408.000   4403099.6395    668398.5146   4550497.4510   6  11   0.2167   0.0664   0.2061   0.0501   0.0908   0.1830   0.00    0.0   -0.00348    0.00512    0.00206   0.00000  0.00000  0.00000  0.00000  0.00000  0.00000
2268 259409.000   4403099.6427    668398.5152   4550497.4535   6  11   0.2163   0.0662   0.2057   0.0501   0.0906   0.1827   0.00    0.0    0.01951   -0.00072    0.00872   0.00000  0.00000  0.00000  0.00000  0.00000  0.00000
2268 259410.000   4403099.6530    668398.5168   4550497.4621   6  11   0.2159   0.0661   0.2052   0.0501   0.0904   0.1823   0.00    0.0    0.01039    0.00453    0.00306   0.00000  0.00000  0.00000  0.00000  0.00000  0.00000
2268 259411.000   4403099.6543    668398.5168   4550497.4644   6  11   0.2154   0.0659   0.2048   0.0500   0.0902   0.1820   0.00    0.0    0.04035   -0.00309   -0.00210   0.00000  0.00000  0.00000  0.00000  0.00000  0.00000
2268 259412.000   4403099.6496    668398.5164   4550497.4633   6  11   0.2150   0.0657   0.2044   0.0500   0.0900   0.1817   0.00    0.0    0.01641    0.00173    0.04227   0.00000  0.00000  0.00000  0.00000  0.00000  0.00000
2268 259413.000   4403099.6502    668398.5158   4550497.4659   6  11   0.2146   0.0655   0.2039   0.0499   0.0898   0.1813   0.00    0.0    0.01274   -0.02653   -0.03853   0.00000  0.00000  0.00000  0.00000  0.00000  0.00000
2268 259414.000   4403099.6528    668398.5160   4550497.4688   6  11   0.2141   0.0653   0.2035   0.0499   0.0896   0.1810   0.00    0.0    0.02077   -0.00520   -0.02811   0.00000  0.00000  0.00000  0.00000  0.00000  0.00000
2268 259415.000   4403099.6607    668398.5172   4550497.4793   6  11   0.2137   0.0652   0.2031   0.0499   0.0894   0.1807   0.00    0.0   -0.01807   -0.02502   -0.06109   0.00000  0.00000  0.00000  0.00000  0.00000  0.00000
2268 259416.000   4403099.6716    668398.5179   4550497.4878   6  11   0.2133   0.0650   0.2027   0.0498   0.0892   0.1804   0.00    0.0   -0.02533    0.01494    0.01483   0.00000  0.00000  0.00000  0.00000  0.00000  0.00000
2268 259417.000   4403099.6808    668398.5174   4550497.4938   6  11   0.2129   0.0648   0.2022   0.0498   0.0890   0.1801   0.00    0.0   -0.01141    0.00454    0.04714   0.00000  0.00000  0.00000  0.00000  0.00000  0.00000
2268 259418.000   4403099.6871    668398.5171   4550497.5013   6  11   0.2125   0.0647   0.2018   0.0497   0.0888   0.1798   0.00    0.0    0.00223    0.00385    0.01601   0.00000  0.00000  0.00000  0.00000  0.00000  0.00000
2268 259419.000   4403099.6874    668398.5146   4550497.4969   6  11   0.2120   0.0645   0.2014   0.0497   0.0886   0.1794   0.00    0.0   -0.02577    0.00433    0.00167   0.00000  0.00000  0.00000  0.00000  0.00000  0.00000
2268 259420.000   4403099.6796    668398.5129   4550497.4879   6  11   0.2116   0.0643   0.2010   0.0497   0.0884   0.1791   0.00    0.0    0.00154   -0.01036    0.02667   0.00000  0.00000  0.00000  0.00000  0.00000  0.00000
2268 259421.000   4403099.6741    668398.5093   4550497.4774   6  11   0.2112   0.0642   0.2006   0.0496   0.0882   0.1788   0.00    0.0   -0.02291   -0.01161   -0.01964   0.00000  0.00000  0.00000  0.00000  0.00000  0.00000
2268 259422.000   4403099.6643    668398.5052   4550497.4637   6  11   0.2108   0.0640   0.2002   0.0496   0.0880   0.1785   0.00    0.0    0.01601   -0.01568   -0.00876   0.00000  0.00000  0.00000  0.00000  0.00000  0.00000
2268 259423.000   4403099.6618    668398.5023   4550497.4596   6  11   0.2104   0.0638   0.1998   0.0495   0.0878   0.1782   0.00    0.0   -0.01057   -0.01028   -0.03172   0.00000  0.00000  0.00000  0.00000  0.00000  0.00000
2268 259424.000   4403099.6529    668398.5002   4550497.4565   6  11   0.2100   0.0637   0.1994   0.0495   0.0876   0.1779   0.00    0.0    0.02542    0.00737    0.01051   0.00000  0.00000  0.00000  0.00000  0.00000  0.00000
2268 259425.000   4403099.6500    668398.4988   4550497.4566   6  11   0.2096   0.0635   0.1990   0.0495   0.0874   0.1776   0.00    0.0   -0.00885   -0.01030   -0.02851   0.00000  0.00000  0.00000  0.00000  0.00000  0.00000
2268 259426.000   4403099.6461    668398.4955   4550497.4544   6  11   0.2092   0.0634   0.1986   0.0494   0.0872   0.1773   0.00    0.0    0.02822   -0.00783    0.01958   0.00000  0.00000  0.00000  0.00000  0.00000  0.00000
2268 259427.000   4403099.6479    668398.4917   4550497.4519   6  11   0.2088   0.0632   0.1982   0.0494   0.0871   0.1770   0.00    0.0   -0.00981    0.01692   -0.00567   0.00000  0.00000  0.00000  0.00000  0.00000  0.00000
2268 259428.000   4403099.6495    668398.4903   4550497.4526   6  11   0.2085   0.0630   0.1978   0.0493   0.0869   0.1767   0.00    0.0    0.02880   -0.02141   -0.02983   0.00000  0.00000  0.00000  0.00000  0.00000  0.00000
2268 259429.000   4403099.6548    668398.4897   4550497.4567   6  11   0.2081   0.0629   0.1975   0.0493   0.0867   0.1764   0.00    0.0    0.00475    0.00679    0.00557   0.00000  0.00000  0.00000  0.00000  0.00000  0.00000
2268 259430.000   4403099.6573    668398.4901   4550497.4623   6  11   0.2077   0.0627   0.1971   0.0493   0.0865   0.1761   0.00    0.0    0.01548    0.00591    0.02253   0.00000  0.00000  0.00000  0.00000  0.00000  0.00000
2268 259431.000   4403099.6648    668398.4924   4550497.4713   6  11   0.2073   0.0626   0.1967   0.0492   0.0863   0.1758   0.00    0.0    0.01401    0.00777    0.00431   0.00000  0.00000  0.00000  0.00000  0.00000  0.00000
2268 259432.000   4403099.6684    668398.4935   4550497.4805   6  11   0.2069   0.0624   0.1963   0.0492   0.0861   0.1756   0.00    0.0   -0.02581    0.01584   -0.03065   0.00000  0.00000  0.00000  0.00000  0.00000  0.00000
2268 259433.000   4403099.6662    668398.4933   4550497.4804   6  11   0.2066   0.0623   0.1959   0.0491   0.0860   0.1753   0.00    0.0    0.02284    0.00550    0.02560   0.00000  0.00000  0.00000  0.00000  0.00000  0.00000
2268 259434.000   4403099.6691    668398.4931   4550497.4825   6  11   0.2062   0.0621   0.1956   0.0491   0.0858   0.1750   0.00    0.0    0.02604   -0.01471   -0.02006   0.00000  0.00000  0.00000  0.00000  0.00000  0.00000
2268 259435.000   4403099.6660    668398.4937   4550497.4809   6  11   0.2058   0.0620   0.1952   0.0491   0.0856   0.1747   0.00    0.0   -0.00701   -0.02027   -0.05599   0.00000  0.00000  0.00000  0.00000  0.00000  0.00000
2268 259436.000   4403099.6629    668398.4938   4550497.4797   6  11   0.2054   0.0618   0.1948   0.0490   0.0854   0.1744   0.00    0.0    0.03050    0.01511    0.03008   0.00000  0.00000  0.00000  0.00000  0.00000  0.00000
2268 259437.000   4403099.6658    668398.4950   4550497.4851   6  11   0.2051   0.0617   0.1945   0.0490   0.0852   0.1741   0.00    0.0    0.00836   -0.03023   -0.03280   0.00000  0.00000  0.00000  0.00000  0.00000  0.00000
2268 259438.000   4403099.6755    668398.4960   4550497.4933   6  11   0.2047   0.0615   0.1941   0.0489   0.0851   0.1739   0.00    0.0   -0.00834    0.00021    0.00029   0.00000  0.00000  0.00000  0.00000  0.00000  0.00000
2268 259439.000   4403099.6826    668398.4962   4550497.4964   6  11   0.2043   0.0614   0.1937   0.0489   0.0849   0.1736   0.00    0.0   -0.00217    0.02153    0.00643   0.00000  0.00000  0.00000  0.00000  0.00000  0.00000
2268 259440.000   4403099.6913    668398.4977   4550497.5002   6  11   0.2040   0.0613   0.1934   0.0489   0.0847   0.1733   0.00    0.0   -0.01226    0.01505    0.01789   0.00000  0.00000  0.00000  0.00000  0.00000  0.00000
2268 259441.000   4403099.7006    668398.4979   4550497.5031   6  11   0.2036   0.0611   0.1930   0.0488   0.0846   0.1730   0.00    0.0   -0.01931    0.01192    0.00249   0.00000  0.00000  0.00000  0.00000  0.00000  0.00000
2268 259442.000   4403099.7056    668398.4966   4550497.5032   6  11   0.2033   0.0610   0.1927   0.0488   0.0844   0.1728   0.00    0.0   -0.00476    0.00417   -0.01698   0.00000  0.00000  0.00000  0.00000  0.00000  0.00000
2268 259443.000   4403099.7104    668398.4943   4550497.5032   6  11   0.2029   0.0608   0.1923   0.0487   0.0842   0.1725   0.00    0.0    0.02975   -0.00492    0.00317   0.00000  0.00000  0.00000  0.00000  0.00000  0.00000
2268 259444.000   4403099.7156    668398.4930   4550497.5038   6  11   0.2026   0.0607   0.1920   0.0487   0.0841   0.1722   0.00    0.0   -0.00253   -0.00414   -0.05920   0.00000  0.00000  0.00000  0.00000  0.00000  0.00000
2268 259445.000   4403099.7177    668398.4919   4550497.5052   6  11   0.2022   0.0606   0.1916   0.0487   0.0839   0.1719   0.00    0.0   -0.00619   -0.00177    0.02109   0.00000  0.00000  0.00000  0.00000  0.00000  0.00000
2268 259446.000   4403099.7195    668398.4915   4550497.5092   6  11   0.2019   0.0604   0.1913   0.0486   0.0837   0.1717   0.00    0.0   -0.00143   -0.00647    0.00077   0.00000  0.00000  0.00000  0.00000  0.00000  0.00000
2268 259447.000   4403099.7211    668398.4922   4550497.5156   6  11   0.2015   0.0603   0.1909   0.0486   0.0836   0.1714   0.00    0.0    0.01965    0.00235   -0.00426   0.00000  0.00000  0.00000  0.00000  0.00000  0.00000
2268 259448.000   4403099.7198    668398.4939   4550497.5201   6  11   0.2012   0.0601   0.1906   0.0485   0.0834   0.1711   0.00    0.0   -0.01225   -0.01417   -0.01232   0.00000  0.00000  0.00000  0.00000  0.00000  0.00000
2268 259449.000   4403099.7195    668398.4956   4550497.5227   6  11   0.2008   0.0600   0.1902   0.0485   0.0832   0.1709   0.00    0.0    0.04769    0.00011    0.03499   0.00000  0.00000  0.00000  0.00000  0.00000  0.00000
2268 259450.000   4403099.7225    668398.4977   4550497.5277   6  11   0.2005   0.0599   0.1899   0.0485   0.0831   0.1706   0.00    0.0    0.00917   -0.01456   -0.01549   0.00000  0.00000  0.00000  0.00000  0.00000  0.00000
2268 259451.000   4403099.7267    668398.4990   4550497.5309   6  11   0.2001   0.0597   0.1895   0.0484   0.0829   0.1704   0.00    0.0    0.02128    0.01445    0.04828   0.00000  0.00000  0.00000  0.00000  0.00000  0.00000
2268 259452.000   4403099.7342    668398.5011   4550497.5355   6  11   0.1998   0.0596   0.1892   0.0484   0.0827   0.1701   0.00    0.0    0.00615    0.00908    0.00137   0.00000  0.00000  0.00000  0.00000  0.00000  0.00000
2268 259453.000   4403099.7419    668398.5020   4550497.5401   6  11   0.1995   0.0595   0.1889   0.0483   0.0826   0.1698   0.00    0.0    0.02802    0.02303    0.07496   0.00000  0.00000  0.00000  0.00000  0.00000  0.00000
2268 259454.000   4403099.7458    668398.5033   4550497.5433   6  11   0.1991   0.0593   0.1885   0.0483   0.0824   0.1696   0.00    0.0   -0.00045    0.00770    0.01424   0.00000  0.00000  0.00000  0.00000  0.00000  0.00000
2268 259455.000   4403099.7522    668398.5053   4550497.5507   6  11   0.1988   0.0592   0.1882   0.0483   0.0823   0.1693   0.00    0.0   -0.00508   -0.00827   -0.02268   0.00000  0.00000  0.00000  0.00000  0.00000  0.00000
2268 259456.000   4403099.7570    668398.5053   4550497.5577   6  11   0.1985   0.0591   0.1879   0.0482   0.0821   0.1691   0.00    0.0    0.02901   -0.01610    0.01471   0.00000  0.00000  0.00000  0.00000  0.00000  0.00000
2268 259457.000   4403099.7652    668398.5052   4550497.5676   6  11   0.1981   0.0590   0.1876   0.0482   0.0820   0.1688   0.00    0.0    0.04135   -0.00991    0.01660   0.00000  0.00000  0.00000  0.00000  0.00000  0.00000
2268 259458.000   4403099.7734    668398.5069   4550497.5802   6  11   0.1978   0.0588   0.1872   0.0481   0.0818   0.1686   0.00    0.0   -0.00765    0.01140    0.03040   0.00000  0.00000  0.00000  0.00000  0.00000  0.00000
2268 259459.000   4403099.7783    668398.5075   4550497.5866   6  11   0.1975   0.0587   0.1869   0.0481   0.0817   0.1683   0.00    0.0    0.02320   -0.00028    0.01537   0.00000  0.00000  0.00000  0.00000  0.00000  0.00000
2268 259460.000   4403099.7814    668398.5073   4550497.5901   6  11   0.1972   0.0586   0.1866   0.0481   0.0815   0.1681   0.00    0.0   -0.00507   -0.00771   -0.00518   0.00000  0.00000  0.00000  0.00000  0.00000  0.00000
2268 259461.000   4403099.7800    668398.5069   4550497.5880   6  11   0.1969   0.0584   0.1863   0.0480   0.0813   0.1678   0.00    0.0    0.00996   -0.03588   -0.05430   0.00000  0.00000  0.00000  0.00000  0.00000  0.00000
2268 259462.000   4403099.7735    668398.5050   4550497.5808   6  11   0.1965   0.0583   0.1859   0.0480   0.0812   0.1676   0.00    0.0   -0.01382   -0.01565   -0.00043   0.00000  0.00000  0.00000  0.00000  0.00000  0.00000
2268 259463.000   4403099.7695    668398.5020   4550497.5731   6  11   0.1962   0.0582   0.1856   0.0480   0.0810   0.1673   0.00    0.0    0.06250   -0.02464    0.00550   0.00000  0.00000  0.00000  0.00000  0.00000  0.00000
2268 259464.000   4403099.7668    668398.4996   4550497.5665   6  11   0.1959   0.0581   0.1853   0.0479   0.0809   0.1671   0.00    0.0    0.01759   -0.01421   -0.01529   0.00000  0.00000  0.00000  0.00000  0.00000  0.00000
2268 259465.000   4403099.7732    668398.4979   4550497.5677   6  11   0.1956   0.0580   0.1850   0.0479   0.0807   0.1668   0.00    0.0    0.01842   -0.00745   -0.00777   0.00000  0.00000  0.00000  0.00000  0.00000  0.00000
2268 259466.000   4403099.7797    668398.4974   4550497.5720   6  11   0.1953   0.0578   0.1847   0.0478   0.0806   0.1666   0.00    0.0    0.00248   -0.00664   -0.04081   0.00000  0.00000  0.00000  0.00000  0.00000  0.00000
2268 259467.000   4403099.7866    668398.4968   4550497.5761   6  11   0.1950   0.0577   0.1844   0.0478   0.0805   0.1664   0.00    0.0   -0.00556    0.02513    0.05483   0.00000  0.00000  0.00000  0.00000  0.00000  0.00000
2268 259468.000   4403099.7935    668398.4960   4550497.5793   6  11   0.1947   0.0576   0.1841   0.0478   0.0803   0.1661   0.00    0.0   -0.04683    0.00226   -0.02581   0.00000  0.00000  0.00000  0.00000  0.00000  0.00000
2268 259469.000   4403099.7976    668398.4960   4550497.5827   6  11   0.1943   0.0575   0.1838   0.0477   0.0802   0.1659   0.00    0.0    0.00219   -0.01364   -0.00408   0.00000  0.00000  0.00000  0.00000  0.00000  0.00000
2268 259470.000   4403099.8018    668398.4953   4550497.5848   6  11   0.1940   0.0574   0.1835   0.0477   0.0800   0.1656   0.00    0.0    0.00440   -0.00204   -0.01784   0.00000  0.00000  0.00000  0.00000  0.00000  0.00000
2268 259471.000   4403099.8071    668398.4971   4550497.5920   6  11   0.1937   0.0572   0.1832   0.0477   0.0799   0.1654   0.00    0.0   -0.02013    0.00097   -0.01268   0.00000  0.00000  0.00000  0.00000  0.00000  0.00000
2268 259472.000   4403099.8157    668398.4981   4550497.6002   6  11   0.1934   0.0571   0.1829   0.0476   0.0797   0.1652   0.00    0.0   -0.00483    0.02318    0.05275   0.00000  0.00000  0.00000  0.00000  0.00000  0.00000
2268 259473.000   4403099.8269    668398.5011   4550497.6155   6  11   0.1931   0.0570   0.1826   0.0476   0.0796   0.1649   0.00    0.0   -0.01499    0.00795    0.01658   0.00000  0.00000  0.00000  0.00000  0.00000  0.00000
2268 259474.000   4403099.8385    668398.5044   4550497.6319   6  11   0.1928   0.0569   0.1823   0.0475   0.0794   0.1647   0.00    0.0    0.00751   -0.00478    0.01585   0.00000  0.00000  0.00000  0.00000  0.00000  0.00000
2268 259475.000   4403099.8489    668398.5081   4550497.6470   6  11   0.1925   0.0568   0.1820   0.0475   0.0793   0.1645   0.00    0.0    0.02100    0.00598    0.02858   0.00000  0.00000  0.00000  0.00000  0.00000  0.00000
2268 259476.000   4403099.8574    668398.5120   4550497.6584   6  11   0.1922   0.0567   0.1817   0.0475   0.0792   0.1642   0.00    0.0    0.03379    0.02117    0.04352   0.00000  0.00000  0.00000  0.00000  0.00000  0.00000
2268 259477.000   4403099.8630    668398.5146   4550497.6679   6  11   0.1919   0.0565   0.1814   0.0474   0.0790   0.1640   0.00    0.0    0.01825    0.00738    0.02032   0.00000  0.00000  0.00000  0.00000  0.00000  0.00000
2268 259478.000   4403099.8693    668398.5170   4550497.6762   6  11   0.1916   0.0564   0.1811   0.0474   0.0789   0.1638   0.00    0.0    0.05193   -0.02680   -0.00941   0.00000  0.00000  0.00000  0.00000  0.00000  0.00000
2268 259479.000   4403099.8755    668398.5186   4550497.6835   6  11   0.1914   0.0563   0.1808   0.0474   0.0788   0.1636   0.00    0.0    0.01722   -0.00359   -0.00155   0.00000  0.00000  0.00000  0.00000  0.00000  0.00000
2268 259480.000   4403099.8812    668398.5202   4550497.6893   6  11   0.1911   0.0562   0.1805   0.0473   0.0786   0.1633   0.00    0.0    0.02104   -0.00604   -0.02060   0.00000  0.00000  0.00000  0.00000  0.00000  0.00000
2268 259481.000   4403099.8837    668398.5217   4550497.6947   6  11   0.1908   0.0561   0.1802   0.0473   0.0785   0.1631   0.00    0.0   -0.01590   -0.00786   -0.00074   0.00000  0.00000  0.00000  0.00000  0.00000  0.00000
2268 259482.000   4403099.8839    668398.5227   4550497.6969   6  11   0.1905   0.0560   0.1799   0.0472   0.0783   0.1629   0.00    0.0    0.03359   -0.01736   -0.01811   0.00000  0.00000  0.00000  0.00000  0.00000  0.00000
2268 259483.000   4403099.8865    668398.5243   4550497.7010   6  11   0.1902   0.0559   0.1796   0.0472   0.0782   0.1627   0.00    0.0    0.02708   -0.00707    0.01045   0.00000  0.00000  0.00000  0.00000  0.00000  0.00000
2268 259484.000   4403099.8885    668398.5255   4550497.7041   6  11   0.1899   0.0558   0.1793   0.0472   0.0781   0.1624   0.00    0.0    0.01469   -0.00590   -0.00570   0.00000  0.00000  0.00000  0.00000  0.00000  0.00000
2268 259485.000   4403099.8979    668398.5271   4550497.7107   6  11   0.1896   0.0557   0.1791   0.0471   0.0779   0.1622   0.00    0.0   -0.02526   -0.00393    0.00938   0.00000  0.00000  0.00000  0.00000  0.00000  0.00000
2268 259486.000   4403099.9015    668398.5292   4550497.7119   6  11   0.1893   0.0555   0.1788   0.0471   0.0778   0.1620   0.00    0.0    0.03937   -0.01477   -0.00912   0.00000  0.00000  0.00000  0.00000  0.00000  0.00000
2268 259487.000   4403099.9048    668398.5319   4550497.7147   6  11   0.1891   0.0554   0.1785   0.0471   0.0777   0.1618   0.00    0.0   -0.03000   -0.00227   -0.03555   0.00000  0.00000  0.00000  0.00000  0.00000  0.00000
2268 259488.000   4403099.9112    668398.5354   4550497.7239   6  11   0.1888   0.0553   0.1782   0.0470   0.0775   0.1616   0.00    0.0    0.01678    0.00595   -0.00663   0.00000  0.00000  0.00000  0.00000  0.00000  0.00000
2268 259489.000   4403099.9183    668398.5385   4550497.7329   6  11   0.1885   0.0552   0.1779   0.0470   0.0774   0.1613   0.00    0.0   -0.01147   -0.00504   -0.03305   0.00000  0.00000  0.00000  0.00000  0.00000  0.00000
2268 259490.000   4403099.9275    668398.5408   4550497.7420   6  11   0.1882   0.0551   0.1777   0.0469   0.0773   0.1611   0.00    0.0    0.00970   -0.00237    0.01534   0.00000  0.00000  0.00000  0.00000  0.00000  0.00000
2268 259491.000   4403099.9347    668398.5431   4550497.7496   6  11   0.1879   0.0550   0.1774   0.0469   0.0772   0.1609   0.00    0.0    0.00479   -0.01138   -0.00321   0.00000  0.00000  0.00000  0.00000  0.00000  0.00000
2268 259492.000   4403099.9418    668398.5440   4550497.7556   6  11   0.1877   0.0549   0.1771   0.0469   0.0770   0.1607   0.00    0.0    0.01445   -0.01574   -0.02148   0.00000  0.00000  0.00000  0.00000  0.00000  0.00000
