% program   : GINav v0.1.0
% obs start : 2023/06/28 00:00:40.0
% obs end   : 2023/06/28 01:24:03.0
% mode      : PPP Kinematic
% system    : GPS GALILEO 
% nfreqs    : 2
% elev mask : 10.0 deg
% ephemeris : broadcast
% ionos opt : off
% trops opt : off
%
%  GPST              x-ecef(m)      y-ecef(m)      z-ecef(m)   Q  ns   sdx(m)   sdy(m)   sdz(m)  sdxy(m)  sdyz(m)  sdzx(m) age(s)  ratio    vx(m/s)    vy(m/s)    vz(m/s)      sdvx     sdvy     sdvz    sdvxy    sdvyz    sdvzx
2268 259240.003   4402957.7916    666835.8839   4550862.0628   6  10   0.5813   0.4864   0.8882   0.3902   0.5002   0.6638   0.00    0.0   -0.02521    0.06504   -0.02947   0.00000  0.00000  0.00000  0.00000  0.00000  0.00000
2268 259241.003   4402957.8580    666835.9342   4550862.1965   6  10   0.4737   0.3981   0.7273   0.3226   0.4053   0.5524   0.00    0.0   -0.00123    0.02555    0.02946   0.00000  0.00000  0.00000  0.00000  0.00000  0.00000
2268 259242.003   4402957.9217    666835.9866   4550862.3196   6  10   0.4320   0.3640   0.6646   0.2966   0.3681   0.5098   0.00    0.0    0.02943    0.04756    0.03738   0.00000  0.00000  0.00000  0.00000  0.00000  0.00000
2268 259243.003   4402957.9827    666836.0623   4550862.4527   6  10   0.4033   0.3401   0.6209   0.2781   0.3427   0.4790   0.00    0.0    0.04761    0.00639    0.04096   0.00000  0.00000  0.00000  0.00000  0.00000  0.00000
2268 259244.003   4402957.9736    666836.0714   4550862.4406   6  10   0.3801   0.3205   0.5849   0.2626   0.3222   0.4529   0.00    0.0    0.02116   -0.00168    0.06570   0.00000  0.00000  0.00000  0.00000  0.00000  0.00000
2268 259245.003   4402957.8982    666835.9958   4550862.3361   6  10   0.3605   0.3040   0.5544   0.2494   0.3049   0.4304   0.00    0.0   -0.02964   -0.03059   -0.09730   0.00000  0.00000  0.00000  0.00000  0.00000  0.00000
2268 259246.003   4402957.8708    666835.9534   4550862.3154   6  10   0.3436   0.2897   0.5279   0.2378   0.2901   0.4108   0.00    0.0    0.01695    0.02401    0.05570   0.00000  0.00000  0.00000  0.00000  0.00000  0.00000
2268 259247.003   4402957.8128    666835.8851   4550862.2470   6  10   0.3289   0.2772   0.5047   0.2277   0.2772   0.3934   0.00    0.0   -0.02068   -0.00579    0.00220   0.00000  0.00000  0.00000  0.00000  0.00000  0.00000
2268 259248.003   4402957.7573    666835.8294   4550862.1893   6  11   0.3060   0.2593   0.4570   0.2292   0.2833   0.3611   0.00    0.0   -0.00186    0.03022    0.04305   0.00000  0.00000  0.00000  0.00000  0.00000  0.00000
2268 259249.003   4402957.7082    666835.7901   4550862.1292   6  11   0.2893   0.2471   0.4274   0.2254   0.2792   0.3395   0.00    0.0    0.00401    0.01144    0.05798   0.00000  0.00000  0.00000  0.00000  0.00000  0.00000
2268 259250.003   4402957.6711    666835.7860   4550862.0824   6  11   0.2757   0.2373   0.4045   0.2203   0.2731   0.3224   0.00    0.0    0.05321   -0.00263    0.04673   0.00000  0.00000  0.00000  0.00000  0.00000  0.00000
2268 259251.003   4402957.6757    666835.7841   4550862.0846   6  11   0.2644   0.2289   0.3858   0.2148   0.2662   0.3083   0.00    0.0   -0.02911    0.00603    0.01422   0.00000  0.00000  0.00000  0.00000  0.00000  0.00000
2268 259252.003   4402957.6563    666835.7752   4550862.0491   6  11   0.2546   0.2217   0.3699   0.2094   0.2591   0.2963   0.00    0.0    0.04922   -0.00166    0.07049   0.00000  0.00000  0.00000  0.00000  0.00000  0.00000
2268 259253.003   4402957.6421    666835.7567   4550862.0171   6  12   0.2050   0.1735   0.2831   0.1561   0.1903   0.2287   0.00    0.0    0.03765    0.01536    0.06006   0.00000  0.00000  0.00000  0.00000  0.00000  0.00000
2268 259254.003   4402957.6659    666835.7738   4550862.0516   6  12   0.1828   0.1521   0.2450   0.1329   0.1607   0.1989   0.00    0.0   -0.06417   -0.03812   -0.07981   0.00000  0.00000  0.00000  0.00000  0.00000  0.00000
2268 259255.003   4402957.6907    666835.7847   4550862.0793   6  12   0.1670   0.1373   0.2193   0.1170   0.1408   0.1783   0.00    0.0   -0.04974   -0.08688   -0.03403   0.00000  0.00000  0.00000  0.00000  0.00000  0.00000
2268 259256.003   4402957.6949    666835.7789   4550862.0754   6  12   0.1551   0.1264   0.2003   0.1052   0.1263   0.1630   0.00    0.0    0.03769   -0.01126   -0.00641   0.00000  0.00000  0.00000  0.00000  0.00000  0.00000
2268 259257.003   4402957.7205    666835.7915   4550862.1040   6  12   0.1459   0.1180   0.1857   0.0964   0.1154   0.1512   0.00    0.0    0.06335   -0.02372    0.02879   0.00000  0.00000  0.00000  0.00000  0.00000  0.00000
2268 259258.003   4402957.7375    666835.8035   4550862.1214   6  12   0.1385   0.1114   0.1741   0.0896   0.1070   0.1419   0.00    0.0    0.02964    0.00287    0.05095   0.00000  0.00000  0.00000  0.00000  0.00000  0.00000
2268 259259.003   4402957.7461    666835.8080   4550862.1302   6  12   0.1324   0.1061   0.1647   0.0842   0.1003   0.1343   0.00    0.0    0.05164    0.00740    0.06759   0.00000  0.00000  0.00000  0.00000  0.00000  0.00000
2268 259260.003   4402957.7702    666835.8244   4550862.1614   6  12   0.1272   0.1017   0.1568   0.0798   0.0949   0.1280   0.00    0.0   -0.03660   -0.01883   -0.05601   0.00000  0.00000  0.00000  0.00000  0.00000  0.00000
2268 259261.003   4402957.7891    666835.8418   4550862.1811   6  12   0.1227   0.0980   0.1500   0.0761   0.0903   0.1226   0.00    0.0    0.04149   -0.00644    0.02285   0.00000  0.00000  0.00000  0.00000  0.00000  0.00000
2268 259262.003   4402957.8245    666835.8690   4550862.2231   6  12   0.1188   0.0947   0.1441   0.0730   0.0865   0.1178   0.00    0.0    0.02093    0.01987    0.07503   0.00000  0.00000  0.00000  0.00000  0.00000  0.00000
2268 259263.003   4402957.8500    666835.8899   4550862.2538   6  12   0.1153   0.0919   0.1390   0.0703   0.0832   0.1137   0.00    0.0   -0.01488   -0.00343   -0.00387   0.00000  0.00000  0.00000  0.00000  0.00000  0.00000
2268 259264.003   4402957.8674    666835.9062   4550862.2773   6  12   0.1122   0.0895   0.1344   0.0680   0.0803   0.1100   0.00    0.0    0.03769    0.00433    0.04366   0.00000  0.00000  0.00000  0.00000  0.00000  0.00000
2268 259265.003   4402957.8821    666835.9198   4550862.2951   6  12   0.1094   0.0873   0.1303   0.0659   0.0778   0.1068   0.00    0.0    0.01960    0.01328   -0.02646   0.00000  0.00000  0.00000  0.00000  0.00000  0.00000
2268 259266.003   4402957.8964    666835.9376   4550862.3163   6  12   0.1068   0.0853   0.1266   0.0641   0.0756   0.1038   0.00    0.0    0.06340    0.02559    0.04322   0.00000  0.00000  0.00000  0.00000  0.00000  0.00000
2268 259267.003   4402957.9083    666835.9498   4550862.3321   6  12   0.1044   0.0836   0.1232   0.0626   0.0736   0.1011   0.00    0.0    0.06065    0.00764    0.03372   0.00000  0.00000  0.00000  0.00000  0.00000  0.00000
2268 259268.003   4402957.9086    666835.9455   4550862.3240   6  12   0.1023   0.0820   0.1202   0.0612   0.0719   0.0987   0.00    0.0   -0.00956   -0.02139   -0.01957   0.00000  0.00000  0.00000  0.00000  0.00000  0.00000
2268 259269.003   4402957.9099    666835.9423   4550862.3216   6  12   0.1003   0.0806   0.1173   0.0599   0.0703   0.0965   0.00    0.0    0.04869   -0.00830    0.00642   0.00000  0.00000  0.00000  0.00000  0.00000  0.00000
2268 259270.003   4402957.9065    666835.9364   4550862.3116   6  12   0.0984   0.0793   0.1147   0.0588   0.0689   0.0944   0.00    0.0    0.01620    0.03087    0.04107   0.00000  0.00000  0.00000  0.00000  0.00000  0.00000
2268 259271.003   4402957.8972    666835.9303   4550862.2957   6  12   0.0967   0.0781   0.1123   0.0578   0.0677   0.0925   0.00    0.0   -0.00998   -0.01030   -0.05691   0.00000  0.00000  0.00000  0.00000  0.00000  0.00000
2268 259272.003   4402957.8843    666835.9207   4550862.2774   6  12   0.0950   0.0770   0.1101   0.0568   0.0665   0.0907   0.00    0.0    0.04705   -0.00127    0.03326   0.00000  0.00000  0.00000  0.00000  0.00000  0.00000
2268 259273.003   4402957.8699    666835.9090   4550862.2584   6  12   0.0935   0.0760   0.1080   0.0560   0.0655   0.0890   0.00    0.0    0.00567    0.02103   -0.02431   0.00000  0.00000  0.00000  0.00000  0.00000  0.00000
2268 259274.003   4402957.8546    666835.8956   4550862.2381   6  14   0.0910   0.0730   0.1024   0.0529   0.0608   0.0852   0.00    0.0   -0.02846   -0.06083   -0.08738   0.00000  0.00000  0.00000  0.00000  0.00000  0.00000
2268 259275.003   4402957.8438    666835.8857   4550862.2275   6  14   0.0888   0.0706   0.0979   0.0505   0.0570   0.0821   0.00    0.0   -0.04628   -0.06166   -0.09095   0.00000  0.00000  0.00000  0.00000  0.00000  0.00000
2268 259276.003   4402957.8304    666835.8735   4550862.2122   6  14   0.0869   0.0685   0.0940   0.0485   0.0538   0.0794   0.00    0.0    0.04130   -0.04361   -0.05791   0.00000  0.00000  0.00000  0.00000  0.00000  0.00000
2268 259277.003   4402957.8233    666835.8636   4550862.2045   6  14   0.0852   0.0666   0.0907   0.0467   0.0510   0.0771   0.00    0.0   -0.00409   -0.02252   -0.06418   0.00000  0.00000  0.00000  0.00000  0.00000  0.00000
2268 259278.003   4402957.8226    666835.8605   4550862.2047   6  14   0.0837   0.0650   0.0876   0.0452   0.0486   0.0750   0.00    0.0   -0.04413   -0.03994   -0.06187   0.00000  0.00000  0.00000  0.00000  0.00000  0.00000
2268 259279.003   4402957.8234    666835.8601   4550862.2082   6  14   0.0823   0.0634   0.0849   0.0438   0.0463   0.0731   0.00    0.0    0.02716   -0.04682   -0.05045   0.00000  0.00000  0.00000  0.00000  0.00000  0.00000
2268 259280.003   4402957.8234    666835.8605   4550862.2154   6  14   0.0809   0.0620   0.0825   0.0426   0.0443   0.0714   0.00    0.0   -0.01630   -0.05391   -0.04589   0.00000  0.00000  0.00000  0.00000  0.00000  0.00000
2268 259281.003   4402957.8251    666835.8631   4550862.2231   6  14   0.0797   0.0607   0.0802   0.0414   0.0425   0.0698   0.00    0.0   -0.04715   -0.09087   -0.07153   0.00000  0.00000  0.00000  0.00000  0.00000  0.00000
2268 259282.003   4402957.8282    666835.8635   4550862.2266   6  14   0.0786   0.0594   0.0781   0.0404   0.0408   0.0684   0.00    0.0    0.03673   -0.04405   -0.02649   0.00000  0.00000  0.00000  0.00000  0.00000  0.00000
2268 259283.003   4402957.8324    666835.8680   4550862.2344   6  14   0.0775   0.0583   0.0763   0.0395   0.0393   0.0670   0.00    0.0   -0.03710   -0.03304   -0.07566   0.00000  0.00000  0.00000  0.00000  0.00000  0.00000
2268 259284.003   4402957.8329    666835.8669   4550862.2359   6  14   0.0765   0.0572   0.0745   0.0387   0.0380   0.0658   0.00    0.0   -0.03669   -0.05351   -0.08938   0.00000  0.00000  0.00000  0.00000  0.00000  0.00000
2268 259285.003   4402957.8314    666835.8674   4550862.2340   6  14   0.0755   0.0562   0.0729   0.0380   0.0367   0.0646   0.00    0.0   -0.00828   -0.02821   -0.07194   0.00000  0.00000  0.00000  0.00000  0.00000  0.00000
2268 259286.003   4402957.8309    666835.8694   4550862.2346   6  15   0.0745   0.0553   0.0714   0.0373   0.0356   0.0635   0.00    0.0   -0.02065   -0.06053   -0.06829   0.00000  0.00000  0.00000  0.00000  0.00000  0.00000
2268 259287.003   4402957.8264    666835.8706   4550862.2301   6  15   0.0736   0.0544   0.0699   0.0366   0.0345   0.0624   0.00    0.0   -0.05769   -0.03235   -0.05710   0.00000  0.00000  0.00000  0.00000  0.00000  0.00000
2268 259288.003   4402957.8210    666835.8732   4550862.2247   6  16   0.0726   0.0535   0.0684   0.0361   0.0337   0.0613   0.00    0.0   -0.03923   -0.02430   -0.08953   0.00000  0.00000  0.00000  0.00000  0.00000  0.00000
2268 259289.003   4402957.8200    666835.8752   4550862.2239   6  16   0.0718   0.0527   0.0670   0.0357   0.0330   0.0603   0.00    0.0   -0.04805   -0.04826   -0.09848   0.00000  0.00000  0.00000  0.00000  0.00000  0.00000
2268 259290.003   4402957.8141    666835.8764   4550862.2183   6  16   0.0709   0.0519   0.0657   0.0352   0.0324   0.0594   0.00    0.0   -0.06136   -0.02382   -0.10094   0.00000  0.00000  0.00000  0.00000  0.00000  0.00000
2268 259291.003   4402957.8096    666835.8764   4550862.2123   6  16   0.0701   0.0512   0.0645   0.0348   0.0318   0.0585   0.00    0.0   -0.04667   -0.03001   -0.08002   0.00000  0.00000  0.00000  0.00000  0.00000  0.00000
2268 259292.003   4402957.8070    666835.8777   4550862.2089   6  16   0.0693   0.0503   0.0634   0.0343   0.0311   0.0577   0.00    0.0   -0.04117   -0.03583   -0.07262   0.00000  0.00000  0.00000  0.00000  0.00000  0.00000
2268 259293.003   4402957.8074    666835.8811   4550862.2082   6  16   0.0686   0.0495   0.0623   0.0337   0.0305   0.0569   0.00    0.0   -0.00443   -0.04041   -0.03081   0.00000  0.00000  0.00000  0.00000  0.00000  0.00000
2268 259294.003   4402957.8087    666835.8836   4550862.2097   6  16   0.0679   0.0488   0.0613   0.0333   0.0300   0.0561   0.00    0.0   -0.00168   -0.06147   -0.05717   0.00000  0.00000  0.00000  0.00000  0.00000  0.00000
2268 259295.003   4402957.8100    666835.8867   4550862.2114   6  16   0.0672   0.0480   0.0603   0.0328   0.0295   0.0554   0.00    0.0   -0.00701   -0.00237   -0.02076   0.00000  0.00000  0.00000  0.00000  0.00000  0.00000
2268 259296.003   4402957.8093    666835.8867   4550862.2101   6  16   0.0665   0.0473   0.0594   0.0325   0.0290   0.0547   0.00    0.0    0.02828   -0.02591   -0.06768   0.00000  0.00000  0.00000  0.00000  0.00000  0.00000
2268 259297.003   4402957.8115    666835.8894   4550862.2108   6  16   0.0659   0.0467   0.0585   0.0321   0.0286   0.0540   0.00    0.0    0.02394   -0.02712   -0.08801   0.00000  0.00000  0.00000  0.00000  0.00000  0.00000
2268 259298.003   4402957.8113    666835.8913   4550862.2100   6  16   0.0653   0.0461   0.0577   0.0318   0.0282   0.0534   0.00    0.0   -0.02313   -0.05539   -0.09810   0.00000  0.00000  0.00000  0.00000  0.00000  0.00000
2268 259299.003   4402957.8110    666835.8915   4550862.2079   6  16   0.0647   0.0455   0.0569   0.0315   0.0278   0.0528   0.00    0.0   -0.01023   -0.03951   -0.05513   0.00000  0.00000  0.00000  0.00000  0.00000  0.00000
2268 259300.003   4402957.8114    666835.8924   4550862.2072   6  16   0.0641   0.0449   0.0562   0.0312   0.0275   0.0523   0.00    0.0   -0.01824   -0.03414   -0.07489   0.00000  0.00000  0.00000  0.00000  0.00000  0.00000
2268 259301.003   4402957.8110    666835.8929   4550862.2070   6  16   0.0636   0.0443   0.0554   0.0309   0.0272   0.0517   0.00    0.0    0.01637   -0.04092   -0.05313   0.00000  0.00000  0.00000  0.00000  0.00000  0.00000
2268 259302.003   4402957.8095    666835.8921   4550862.2060   6  16   0.0631   0.0438   0.0547   0.0307   0.0269   0.0512   0.00    0.0    0.06981   -0.03743   -0.04385   0.00000  0.00000  0.00000  0.00000  0.00000  0.00000
2268 259303.003   4402957.8080    666835.8905   4550862.2041   6  16   0.0625   0.0433   0.0541   0.0305   0.0267   0.0507   0.00    0.0    0.02540   -0.03483   -0.03110   0.00000  0.00000  0.00000  0.00000  0.00000  0.00000
2268 259304.003   4402957.8056    666835.8892   4550862.2026   6  16   0.0620   0.0428   0.0534   0.0303   0.0264   0.0502   0.00    0.0   -0.00091   -0.02537   -0.05355   0.00000  0.00000  0.00000  0.00000  0.00000  0.00000
2268 259305.003   4402957.8048    666835.8894   4550862.2023   6  16   0.0616   0.0423   0.0528   0.0301   0.0262   0.0497   0.00    0.0   -0.01622   -0.01355   -0.06745   0.00000  0.00000  0.00000  0.00000  0.00000  0.00000
2268 259306.003   4402957.8063    666835.8915   4550862.2030   6  16   0.0611   0.0419   0.0522   0.0299   0.0260   0.0492   0.00    0.0    0.01300   -0.02817   -0.05082   0.00000  0.00000  0.00000  0.00000  0.00000  0.00000
2268 259307.003   4402957.8090    666835.8949   4550862.2044   6  16   0.0606   0.0415   0.0516   0.0297   0.0258   0.0488   0.00    0.0   -0.03161   -0.04455   -0.09640   0.00000  0.00000  0.00000  0.00000  0.00000  0.00000
2268 259308.003   4402957.8137    666835.8976   4550862.2082   6  16   0.0602   0.0410   0.0511   0.0296   0.0256   0.0483   0.00    0.0    0.06155   -0.01399   -0.02417   0.00000  0.00000  0.00000  0.00000  0.00000  0.00000
2268 259309.003   4402957.8176    666835.9009   4550862.2125   6  16   0.0598   0.0406   0.0505   0.0294   0.0254   0.0479   0.00    0.0    0.05887   -0.02639   -0.03957   0.00000  0.00000  0.00000  0.00000  0.00000  0.00000
2268 259310.003   4402957.8214    666835.9016   4550862.2153   6  16   0.0594   0.0403   0.0500   0.0293   0.0253   0.0475   0.00    0.0    0.02440   -0.03760   -0.05057   0.00000  0.00000  0.00000  0.00000  0.00000  0.00000
2268 259311.003   4402957.8226    666835.8999   4550862.2153   6  16   0.0589   0.0399   0.0495   0.0292   0.0251   0.0471   0.00    0.0   -0.02480   -0.05435   -0.08027   0.00000  0.00000  0.00000  0.00000  0.00000  0.00000
2268 259312.003   4402957.8249    666835.9006   4550862.2160   6  16   0.0586   0.0395   0.0490   0.0291   0.0250   0.0467   0.00    0.0    0.05401   -0.01344   -0.01801   0.00000  0.00000  0.00000  0.00000  0.00000  0.00000
2268 259313.003   4402957.8232    666835.9001   4550862.2141   6  16   0.0582   0.0392   0.0485   0.0289   0.0248   0.0464   0.00    0.0   -0.00200   -0.02592   -0.05867   0.00000  0.00000  0.00000  0.00000  0.00000  0.00000
2268 259314.003   4402957.8197    666835.8984   4550862.2109   6  16   0.0578   0.0389   0.0481   0.0288   0.0247   0.0460   0.00    0.0    0.01309   -0.01652   -0.04979   0.00000  0.00000  0.00000  0.00000  0.00000  0.00000
2268 259315.003   4402957.8152    666835.8958   4550862.2074   6  16   0.0574   0.0385   0.0476   0.0287   0.0246   0.0456   0.00    0.0   -0.01655   -0.04266   -0.05760   0.00000  0.00000  0.00000  0.00000  0.00000  0.00000
2268 259316.003   4402957.8113    666835.8932   4550862.2039   6  16   0.0570   0.0382   0.0472   0.0286   0.0244   0.0453   0.00    0.0   -0.01141   -0.04425   -0.06086   0.00000  0.00000  0.00000  0.00000  0.00000  0.00000
2268 259317.003   4402957.8067    666835.8903   4550862.1998   6  16   0.0567   0.0379   0.0467   0.0286   0.0243   0.0449   0.00    0.0    0.01366   -0.07056   -0.04934   0.00000  0.00000  0.00000  0.00000  0.00000  0.00000
2268 259318.003   4402957.8022    666835.8882   4550862.1972   6  16   0.0563   0.0376   0.0463   0.0285   0.0242   0.0446   0.00    0.0   -0.01251   -0.02823   -0.10490   0.00000  0.00000  0.00000  0.00000  0.00000  0.00000
2268 259319.003   4402957.7956    666835.8842   4550862.1914   6  16   0.0560   0.0373   0.0459   0.0284   0.0241   0.0443   0.00    0.0    0.05122   -0.00264   -0.04884   0.00000  0.00000  0.00000  0.00000  0.00000  0.00000
2268 259320.003   4402957.7947    666835.8837   4550862.1903   6  16   0.0557   0.0371   0.0455   0.0283   0.0240   0.0440   0.00    0.0   -0.00851   -0.07353   -0.09151   0.00000  0.00000  0.00000  0.00000  0.00000  0.00000
2268 259321.003   4402957.7957    666835.8856   4550862.1917   6  16   0.0553   0.0368   0.0452   0.0282   0.0239   0.0437   0.00    0.0   -0.02380   -0.05344   -0.08592   0.00000  0.00000  0.00000  0.00000  0.00000  0.00000
2268 259322.003   4402957.7970    666835.8879   4550862.1922   6  16   0.0550   0.0365   0.0448   0.0282   0.0238   0.0433   0.00    0.0    0.02210   -0.04434   -0.07045   0.00000  0.00000  0.00000  0.00000  0.00000  0.00000
2268 259323.003   4402957.7966    666835.8890   4550862.1911   6  16   0.0547   0.0363   0.0444   0.0281   0.0237   0.0430   0.00    0.0   -0.03203   -0.06323   -0.11245   0.00000  0.00000  0.00000  0.00000  0.00000  0.00000
2268 259324.003   4402957.7965    666835.8893   4550862.1903   6  16   0.0544   0.0360   0.0441   0.0280   0.0236   0.0428   0.00    0.0    0.01644   -0.04356   -0.03505   0.00000  0.00000  0.00000  0.00000  0.00000  0.00000
2268 259325.003   4402957.7966    666835.8899   4550862.1896   6  16   0.0541   0.0358   0.0437   0.0280   0.0235   0.0425   0.00    0.0    0.01095   -0.01637   -0.01669   0.00000  0.00000  0.00000  0.00000  0.00000  0.00000
2268 259326.003   4402957.7980    666835.8907   4550862.1899   6  16   0.0538   0.0356   0.0434   0.0279   0.0234   0.0422   0.00    0.0   -0.01029   -0.03107   -0.05223   0.00000  0.00000  0.00000  0.00000  0.00000  0.00000
2268 259327.003   4402957.7976    666835.8908   4550862.1885   6  16   0.0535   0.0353   0.0430   0.0279   0.0234   0.0419   0.00    0.0   -0.00665   -0.01480   -0.05098   0.00000  0.00000  0.00000  0.00000  0.00000  0.00000
2268 259328.003   4402957.7978    666835.8904   4550862.1864   6  16   0.0532   0.0351   0.0427   0.0278   0.0233   0.0416   0.00    0.0    0.01588   -0.04318   -0.04777   0.00000  0.00000  0.00000  0.00000  0.00000  0.00000
2268 259329.003   4402957.7990    666835.8912   4550862.1875   6  16   0.0529   0.0349   0.0424   0.0277   0.0232   0.0414   0.00    0.0   -0.00957    0.00186   -0.06658   0.00000  0.00000  0.00000  0.00000  0.00000  0.00000
2268 259330.003   4402957.7992    666835.8912   4550862.1883   6  16   0.0526   0.0347   0.0421   0.0277   0.0231   0.0411   0.00    0.0    0.03417   -0.03682   -0.04858   0.00000  0.00000  0.00000  0.00000  0.00000  0.00000
2268 259331.003   4402957.7967    666835.8901   4550862.1871   6  16   0.0524   0.0345   0.0418   0.0276   0.0230   0.0408   0.00    0.0    0.00063   -0.02178   -0.07258   0.00000  0.00000  0.00000  0.00000  0.00000  0.00000
2268 259332.003   4402957.7940    666835.8889   4550862.1858   6  16   0.0521   0.0343   0.0414   0.0276   0.0230   0.0406   0.00    0.0    0.01660   -0.04198   -0.05771   0.00000  0.00000  0.00000  0.00000  0.00000  0.00000
2268 259333.003   4402957.7913    666835.8868   4550862.1853   6  16   0.0518   0.0341   0.0411   0.0275   0.0229   0.0403   0.00    0.0   -0.01522   -0.02176   -0.04791   0.00000  0.00000  0.00000  0.00000  0.00000  0.00000
2268 259334.003   4402957.7907    666835.8857   4550862.1861   6  16   0.0516   0.0339   0.0409   0.0275   0.0228   0.0401   0.00    0.0    0.05428   -0.01286   -0.00711   0.00000  0.00000  0.00000  0.00000  0.00000  0.00000
2268 259335.003   4402957.7912    666835.8856   4550862.1875   6  16   0.0513   0.0337   0.0406   0.0275   0.0228   0.0398   0.00    0.0   -0.04305   -0.04179   -0.08947   0.00000  0.00000  0.00000  0.00000  0.00000  0.00000
2268 259336.003   4402957.7926    666835.8859   4550862.1897   6  16   0.0510   0.0336   0.0403   0.0274   0.0227   0.0396   0.00    0.0    0.00444   -0.02593   -0.05563   0.00000  0.00000  0.00000  0.00000  0.00000  0.00000
2268 259337.003   4402957.7941    666835.8865   4550862.1915   6  16   0.0508   0.0334   0.0400   0.0274   0.0226   0.0394   0.00    0.0    0.02911   -0.00822   -0.02591   0.00000  0.00000  0.00000  0.00000  0.00000  0.00000
2268 259338.003   4402957.7957    666835.8878   4550862.1928   6  16   0.0505   0.0332   0.0397   0.0273   0.0226   0.0391   0.00    0.0    0.02114   -0.02996   -0.03848   0.00000  0.00000  0.00000  0.00000  0.00000  0.00000
2268 259339.003   4402957.7974    666835.8889   4550862.1938   6  16   0.0503   0.0331   0.0395   0.0273   0.0225   0.0389   0.00    0.0   -0.00916   -0.03179   -0.08340   0.00000  0.00000  0.00000  0.00000  0.00000  0.00000
2268 259340.003   4402957.7986    666835.8894   4550862.1953   6  16   0.0500   0.0329   0.0392   0.0273   0.0224   0.0387   0.00    0.0    0.04270   -0.01399   -0.03860   0.00000  0.00000  0.00000  0.00000  0.00000  0.00000
2268 259341.003   4402957.7992    666835.8894   4550862.1956   6  16   0.0498   0.0327   0.0390   0.0272   0.0224   0.0384   0.00    0.0    0.00756   -0.03949   -0.03305   0.00000  0.00000  0.00000  0.00000  0.00000  0.00000
2268 259342.003   4402957.7979    666835.8892   4550862.1941   6  16   0.0496   0.0326   0.0387   0.0272   0.0223   0.0382   0.00    0.0    0.04897   -0.02175   -0.01248   0.00000  0.00000  0.00000  0.00000  0.00000  0.00000
2268 259343.003   4402957.7973    666835.8895   4550862.1942   6  16   0.0493   0.0324   0.0384   0.0272   0.0223   0.0380   0.00    0.0    0.04812   -0.02515   -0.01763   0.00000  0.00000  0.00000  0.00000  0.00000  0.00000
2268 259344.003   4402957.7977    666835.8903   4550862.1954   6  16   0.0491   0.0323   0.0382   0.0271   0.0222   0.0378   0.00    0.0    0.08000   -0.02574   -0.00896   0.00000  0.00000  0.00000  0.00000  0.00000  0.00000
2268 259345.003   4402957.7985    666835.8920   4550862.1970   6  16   0.0489   0.0321   0.0380   0.0271   0.0221   0.0376   0.00    0.0    0.02763   -0.06593   -0.03681   0.00000  0.00000  0.00000  0.00000  0.00000  0.00000
2268 259346.003   4402957.7986    666835.8931   4550862.1976   6  16   0.0487   0.0320   0.0377   0.0270   0.0221   0.0374   0.00    0.0    0.01115   -0.01386   -0.07245   0.00000  0.00000  0.00000  0.00000  0.00000  0.00000
2268 259347.003   4402957.7998    666835.8951   4550862.2003   6  16   0.0484   0.0318   0.0375   0.0270   0.0220   0.0372   0.00    0.0    0.03202   -0.03475   -0.06316   0.00000  0.00000  0.00000  0.00000  0.00000  0.00000
2268 259348.003   4402957.8029    666835.8977   4550862.2037   6  16   0.0482   0.0317   0.0373   0.0270   0.0220   0.0370   0.00    0.0   -0.03774   -0.04424   -0.09319   0.00000  0.00000  0.00000  0.00000  0.00000  0.00000
2268 259349.003   4402957.8055    666835.8995   4550862.2064   6  16   0.0480   0.0316   0.0370   0.0270   0.0219   0.0368   0.00    0.0   -0.03354   -0.04556   -0.09654   0.00000  0.00000  0.00000  0.00000  0.00000  0.00000
2268 259350.003   4402957.8075    666835.9008   4550862.2085   6  16   0.0478   0.0314   0.0368   0.0269   0.0219   0.0366   0.00    0.0   -0.00097   -0.05125   -0.04084   0.00000  0.00000  0.00000  0.00000  0.00000  0.00000
2268 259351.003   4402957.8085    666835.9019   4550862.2087   6  16   0.0476   0.0313   0.0366   0.0269   0.0218   0.0364   0.00    0.0    0.02388   -0.01661   -0.04700   0.00000  0.00000  0.00000  0.00000  0.00000  0.00000
2268 259352.003   4402957.8090    666835.9025   4550862.2082   6  16   0.0474   0.0312   0.0364   0.0269   0.0218   0.0362   0.00    0.0    0.02434   -0.04115   -0.10274   0.00000  0.00000  0.00000  0.00000  0.00000  0.00000
2268 259353.003   4402957.8099    666835.9037   4550862.2077   6  16   0.0472   0.0311   0.0361   0.0268   0.0217   0.0360   0.00    0.0    0.06137    0.00074   -0.02893   0.00000  0.00000  0.00000  0.00000  0.00000  0.00000
2268 259354.003   4402957.8101    666835.9044   4550862.2070   6  16   0.0470   0.0309   0.0359   0.0268   0.0217   0.0358   0.00    0.0    0.01234   -0.02714   -0.05841   0.00000  0.00000  0.00000  0.00000  0.00000  0.00000
2268 259355.003   4402957.8098    666835.9045   4550862.2061   6  16   0.0468   0.0308   0.0357   0.0268   0.0216   0.0356   0.00    0.0   -0.02926   -0.01713   -0.03556   0.00000  0.00000  0.00000  0.00000  0.00000  0.00000
2268 259356.003   4402957.8094    666835.9040   4550862.2056   6  16   0.0466   0.0307   0.0355   0.0267   0.0216   0.0354   0.00    0.0   -0.00739   -0.05210   -0.05088   0.00000  0.00000  0.00000  0.00000  0.00000  0.00000
2268 259357.003   4402957.8097    666835.9033   4550862.2051   6  16   0.0464   0.0306   0.0353   0.0267   0.0215   0.0352   0.00    0.0   -0.04835   -0.05946   -0.13416   0.00000  0.00000  0.00000  0.00000  0.00000  0.00000
2268 259358.003   4402957.8099    666835.9032   4550862.2044   6  16   0.0462   0.0305   0.0351   0.0267   0.0215   0.0350   0.00    0.0   -0.00479   -0.04099   -0.05434   0.00000  0.00000  0.00000  0.00000  0.00000  0.00000
2268 259359.003   4402957.8116    666835.9038   4550862.2045   6  16   0.0460   0.0304   0.0349   0.0267   0.0214   0.0349   0.00    0.0    0.02120   -0.01925   -0.03016   0.00000  0.00000  0.00000  0.00000  0.00000  0.00000
2268 259360.003   4402957.8148    666835.9059   4550862.2058   6  16   0.0458   0.0302   0.0347   0.0266   0.0214   0.0347   0.00    0.0    0.02813   -0.03723   -0.02614   0.00000  0.00000  0.00000  0.00000  0.00000  0.00000
2268 259361.003   4402957.8166    666835.9078   4550862.2061   6  16   0.0456   0.0301   0.0345   0.0266   0.0213   0.0345   0.00    0.0   -0.00649   -0.02398   -0.06809   0.00000  0.00000  0.00000  0.00000  0.00000  0.00000
2268 259362.003   4402957.8166    666835.9077   4550862.2048   6  16   0.0454   0.0300   0.0343   0.0266   0.0213   0.0343   0.00    0.0    0.00726   -0.00157   -0.06743   0.00000  0.00000  0.00000  0.00000  0.00000  0.00000
2268 259363.003   4402957.8163    666835.9068   4550862.2038   6  16   0.0452   0.0299   0.0342   0.0265   0.0213   0.0342   0.00    0.0   -0.00213   -0.04976   -0.09380   0.00000  0.00000  0.00000  0.00000  0.00000  0.00000
2268 259364.003   4402957.8144    666835.9055   4550862.2021   6  16   0.0450   0.0298   0.0340   0.0265   0.0212   0.0340   0.00    0.0    0.03209   -0.00152   -0.03545   0.00000  0.00000  0.00000  0.00000  0.00000  0.00000
2268 259375.000   4402957.8143    666835.9055   4550862.2022   6  18   0.0447   0.0297   0.0337   0.0264   0.0212   0.0337   0.00    0.0    0.02753    0.00783   -0.06090   0.00000  0.00000  0.00000  0.00000  0.00000  0.00000
2268 259376.000   4402957.8134    666835.9055   4550862.2012   6  17   0.0445   0.0296   0.0335   0.0264   0.0211   0.0335   0.00    0.0    0.02851   -0.00691   -0.06716   0.00000  0.00000  0.00000  0.00000  0.00000  0.00000
2268 259377.000   4402957.8108    666835.9038   4550862.1995   6  17   0.0442   0.0294   0.0332   0.0263   0.0210   0.0332   0.00    0.0    0.01495    0.00868   -0.04987   0.00000  0.00000  0.00000  0.00000  0.00000  0.00000
2268 259378.000   4402957.8081    666835.9028   4550862.1978   6  17   0.0439   0.0293   0.0330   0.0263   0.0210   0.0330   0.00    0.0    0.00747   -0.00760   -0.06133   0.00000  0.00000  0.00000  0.00000  0.00000  0.00000
2268 259379.000   4402957.8053    666835.9019   4550862.1964   6  17   0.0437   0.0292   0.0328   0.0262   0.0209   0.0327   0.00    0.0    0.00391   -0.00038   -0.09635   0.00000  0.00000  0.00000  0.00000  0.00000  0.00000
2268 259380.000   4402957.8030    666835.9007   4550862.1951   6  17   0.0434   0.0291   0.0326   0.0261   0.0208   0.0325   0.00    0.0    0.00411   -0.04332   -0.04791   0.00000  0.00000  0.00000  0.00000  0.00000  0.00000
2268 259381.000   4402957.8027    666835.8998   4550862.1940   6  17   0.0432   0.0290   0.0324   0.0260   0.0207   0.0323   0.00    0.0   -0.00464   -0.06308   -0.11364   0.00000  0.00000  0.00000  0.00000  0.00000  0.00000
2268 259382.000   4402957.8025    666835.8991   4550862.1942   6  17   0.0429   0.0288   0.0321   0.0259   0.0207   0.0320   0.00    0.0    0.00517   -0.02494   -0.07024   0.00000  0.00000  0.00000  0.00000  0.00000  0.00000
2268 259383.000   4402957.8035    666835.8998   4550862.1952   6  17   0.0426   0.0287   0.0319   0.0259   0.0206   0.0318   0.00    0.0    0.00530   -0.02287   -0.04989   0.00000  0.00000  0.00000  0.00000  0.00000  0.00000
2268 259384.000   4402957.8071    666835.9020   4550862.1975   6  18   0.0424   0.0286   0.0317   0.0258   0.0205   0.0316   0.00    0.0   -0.05376   -0.01697   -0.09465   0.00000  0.00000  0.00000  0.00000  0.00000  0.00000
2268 259385.000   4402957.8098    666835.9035   4550862.1995   6  18   0.0421   0.0284   0.0315   0.0257   0.0204   0.0313   0.00    0.0   -0.01831   -0.02473   -0.06448   0.00000  0.00000  0.00000  0.00000  0.00000  0.00000
2268 259386.000   4402957.8131    666835.9043   4550862.2021   6  18   0.0418   0.0283   0.0313   0.0256   0.0203   0.0311   0.00    0.0    0.00564   -0.01023   -0.06525   0.00000  0.00000  0.00000  0.00000  0.00000  0.00000
2268 259387.000   4402957.8168    666835.9067   4550862.2055   6  18   0.0415   0.0281   0.0311   0.0255   0.0202   0.0309   0.00    0.0    0.00048   -0.02549   -0.05357   0.00000  0.00000  0.00000  0.00000  0.00000  0.00000
2268 259388.000   4402957.8200    666835.9098   4550862.2088   6  18   0.0412   0.0280   0.0309   0.0254   0.0201   0.0306   0.00    0.0    0.04313    0.01559   -0.02567   0.00000  0.00000  0.00000  0.00000  0.00000  0.00000
2268 259389.000   4402957.8219    666835.9111   4550862.2105   6  18   0.0410   0.0279   0.0307   0.0253   0.0200   0.0304   0.00    0.0   -0.04941   -0.06166   -0.14952   0.00000  0.00000  0.00000  0.00000  0.00000  0.00000
2268 259390.000   4402957.8249    666835.9131   4550862.2127   6  18   0.0407   0.0277   0.0305   0.0251   0.0199   0.0302   0.00    0.0   -0.00219    0.00140   -0.06394   0.00000  0.00000  0.00000  0.00000  0.00000  0.00000
2268 259391.000   4402957.8285    666835.9153   4550862.2152   6  18   0.0404   0.0276   0.0303   0.0250   0.0198   0.0299   0.00    0.0    0.01670   -0.00233   -0.04069   0.00000  0.00000  0.00000  0.00000  0.00000  0.00000
2268 259392.000   4402957.8313    666835.9168   4550862.2173   6  18   0.0401   0.0274   0.0301   0.0249   0.0197   0.0297   0.00    0.0   -0.02170   -0.03355   -0.08215   0.00000  0.00000  0.00000  0.00000  0.00000  0.00000
2268 259393.000   4402957.8323    666835.9168   4550862.2178   6  18   0.0398   0.0272   0.0299   0.0247   0.0196   0.0294   0.00    0.0   -0.01342   -0.02713   -0.08303   0.00000  0.00000  0.00000  0.00000  0.00000  0.00000
2268 259394.000   4402957.8329    666835.9169   4550862.2191   6  19   0.0395   0.0271   0.0297   0.0246   0.0195   0.0292   0.00    0.0    0.06403   -0.01938   -0.00487   0.00000  0.00000  0.00000  0.00000  0.00000  0.00000
2268 259395.000   4402957.8327    666835.9166   4550862.2197   6  19   0.0392   0.0269   0.0295   0.0244   0.0193   0.0289   0.00    0.0    0.04423   -0.00383   -0.03191   0.00000  0.00000  0.00000  0.00000  0.00000  0.00000
2268 259396.000   4402957.8306    666835.9153   4550862.2187   6  19   0.0389   0.0267   0.0293   0.0242   0.0192   0.0287   0.00    0.0    0.03441   -0.00247   -0.01362   0.00000  0.00000  0.00000  0.00000  0.00000  0.00000
2268 259397.000   4402957.8294    666835.9146   4550862.2177   6  19   0.0386   0.0265   0.0290   0.0240   0.0190   0.0284   0.00    0.0    0.02222    0.00294   -0.02105   0.00000  0.00000  0.00000  0.00000  0.00000  0.00000
2268 259398.000   4402957.8281    666835.9138   4550862.2162   6  19   0.0383   0.0263   0.0288   0.0238   0.0189   0.0282   0.00    0.0   -0.01867   -0.01863   -0.05844   0.00000  0.00000  0.00000  0.00000  0.00000  0.00000
2268 259399.000   4402957.8274    666835.9127   4550862.2142   6  19   0.0380   0.0261   0.0286   0.0237   0.0187   0.0279   0.00    0.0   -0.00095    0.00181   -0.09275   0.00000  0.00000  0.00000  0.00000  0.00000  0.00000
2268 259400.000   4402957.8274    666835.9115   4550862.2123   6  19   0.0377   0.0259   0.0284   0.0235   0.0186   0.0277   0.00    0.0   -0.02338   -0.02109   -0.08785   0.00000  0.00000  0.00000  0.00000  0.00000  0.00000
2268 259401.000   4402957.8270    666835.9113   4550862.2116   6  19   0.0374   0.0257   0.0282   0.0233   0.0184   0.0274   0.00    0.0    0.04375   -0.00246   -0.04855   0.00000  0.00000  0.00000  0.00000  0.00000  0.00000
2268 259402.000   4402957.8263    666835.9106   4550862.2109   6  19   0.0371   0.0256   0.0280   0.0231   0.0183   0.0272   0.00    0.0    0.00915   -0.03828   -0.08336   0.00000  0.00000  0.00000  0.00000  0.00000  0.00000
2268 259403.000   4402957.8262    666835.9108   4550862.2111   6  19   0.0368   0.0254   0.0278   0.0229   0.0181   0.0269   0.00    0.0    0.01711    0.00026   -0.05917   0.00000  0.00000  0.00000  0.00000  0.00000  0.00000
2268 259404.000   4402957.8254    666835.9101   4550862.2112   6  19   0.0365   0.0252   0.0276   0.0227   0.0180   0.0267   0.00    0.0    0.05797   -0.01748   -0.01731   0.00000  0.00000  0.00000  0.00000  0.00000  0.00000
2268 259405.000   4402957.8238    666835.9090   4550862.2104   6  19   0.0362   0.0250   0.0274   0.0226   0.0179   0.0264   0.00    0.0   -0.00907   -0.02463   -0.09053   0.00000  0.00000  0.00000  0.00000  0.00000  0.00000
2268 259406.000   4402957.8234    666835.9082   4550862.2105   6  19   0.0360   0.0248   0.0273   0.0224   0.0177   0.0262   0.00    0.0    0.00299    0.00151   -0.02972   0.00000  0.00000  0.00000  0.00000  0.00000  0.00000
2268 259407.000   4402957.8224    666835.9076   4550862.2101   6  19   0.0357   0.0247   0.0271   0.0222   0.0176   0.0260   0.00    0.0    0.02266   -0.02078   -0.00398   0.00000  0.00000  0.00000  0.00000  0.00000  0.00000
2268 259408.000   4402957.8221    666835.9071   4550862.2098   6  19   0.0354   0.0245   0.0269   0.0220   0.0174   0.0257   0.00    0.0    0.01052   -0.02296   -0.04351   0.00000  0.00000  0.00000  0.00000  0.00000  0.00000
2268 259409.000   4402957.8227    666835.9068   4550862.2097   6  19   0.0351   0.0243   0.0267   0.0218   0.0173   0.0255   0.00    0.0   -0.01136   -0.00877   -0.06518   0.00000  0.00000  0.00000  0.00000  0.00000  0.00000
2268 259410.000   4402957.8232    666835.9070   4550862.2099   6  19   0.0348   0.0241   0.0265   0.0217   0.0171   0.0253   0.00    0.0    0.03683   -0.00504   -0.01930   0.00000  0.00000  0.00000  0.00000  0.00000  0.00000
2268 259411.000   4402957.8233    666835.9072   4550862.2099   6  19   0.0346   0.0240   0.0263   0.0215   0.0170   0.0250   0.00    0.0   -0.00764    0.00153   -0.10962   0.00000  0.00000  0.00000  0.00000  0.00000  0.00000
2268 259412.000   4402957.8220    666835.9064   4550862.2090   6  19   0.0343   0.0238   0.0262   0.0213   0.0169   0.0248   0.00    0.0   -0.02039   -0.00860   -0.11188   0.00000  0.00000  0.00000  0.00000  0.00000  0.00000
2268 259413.000   4402957.8206    666835.9062   4550862.2084   6  19   0.0340   0.0236   0.0260   0.0211   0.0167   0.0246   0.00    0.0   -0.00964   -0.00647   -0.06071   0.00000  0.00000  0.00000  0.00000  0.00000  0.00000
2268 259414.000   4402957.8203    666835.9063   4550862.2083   6  19   0.0338   0.0235   0.0258   0.0210   0.0166   0.0244   0.00    0.0   -0.00121   -0.02999   -0.07081   0.00000  0.00000  0.00000  0.00000  0.00000  0.00000
2268 259415.000   4402957.8205    666835.9063   4550862.2080   6  19   0.0335   0.0233   0.0256   0.0208   0.0165   0.0241   0.00    0.0    0.02759   -0.01807   -0.06507   0.00000  0.00000  0.00000  0.00000  0.00000  0.00000
2268 259416.000   4402957.8203    666835.9065   4550862.2081   6  19   0.0332   0.0232   0.0255   0.0206   0.0164   0.0239   0.00    0.0    0.00939   -0.01276   -0.04500   0.00000  0.00000  0.00000  0.00000  0.00000  0.00000
2268 259417.000   4402957.8196    666835.9070   4550862.2075   6  19   0.0330   0.0230   0.0253   0.0204   0.0162   0.0237   0.00    0.0   -0.00738   -0.01438   -0.08291   0.00000  0.00000  0.00000  0.00000  0.00000  0.00000
2268 259418.000   4402957.8190    666835.9074   4550862.2067   6  19   0.0327   0.0229   0.0251   0.0203   0.0161   0.0235   0.00    0.0   -0.01507   -0.04227   -0.09214   0.00000  0.00000  0.00000  0.00000  0.00000  0.00000
2268 259419.000   4402957.8183    666835.9076   4550862.2063   6  19   0.0325   0.0227   0.0250   0.0201   0.0160   0.0233   0.00    0.0    0.06752    0.01859   -0.00944   0.00000  0.00000  0.00000  0.00000  0.00000  0.00000
2268 259420.000   4402957.8164    666835.9066   4550862.2050   6  20   0.0322   0.0225   0.0248   0.0199   0.0158   0.0230   0.00    0.0    0.00683   -0.05114   -0.01723   0.00000  0.00000  0.00000  0.00000  0.00000  0.00000
2268 259421.000   4402957.8167    666835.9062   4550862.2048   6  20   0.0319   0.0223   0.0246   0.0196   0.0157   0.0228   0.00    0.0    0.00113   -0.02120   -0.06215   0.00000  0.00000  0.00000  0.00000  0.00000  0.00000
2268 259422.000   4402957.8164    666835.9059   4550862.2049   6  20   0.0316   0.0221   0.0244   0.0194   0.0155   0.0226   0.00    0.0    0.02425   -0.01936   -0.02570   0.00000  0.00000  0.00000  0.00000  0.00000  0.00000
2268 259423.000   4402957.8160    666835.9058   4550862.2050   6  20   0.0313   0.0219   0.0243   0.0192   0.0154   0.0223   0.00    0.0   -0.06176   -0.02239   -0.11669   0.00000  0.00000  0.00000  0.00000  0.00000  0.00000
2268 259424.000   4402957.8153    666835.9060   4550862.2048   6  20   0.0310   0.0217   0.0241   0.0190   0.0152   0.0221   0.00    0.0   -0.00296   -0.01103   -0.02424   0.00000  0.00000  0.00000  0.00000  0.00000  0.00000
2268 259425.000   4402957.8142    666835.9055   4550862.2044   6  20   0.0308   0.0215   0.0239   0.0188   0.0151   0.0219   0.00    0.0   -0.04163   -0.02382   -0.07913   0.00000  0.00000  0.00000  0.00000  0.00000  0.00000
2268 259426.000   4402957.8130    666835.9048   4550862.2035   6  20   0.0305   0.0214   0.0238   0.0186   0.0149   0.0217   0.00    0.0    0.00084   -0.01561   -0.06694   0.00000  0.00000  0.00000  0.00000  0.00000  0.00000
2268 259427.000   4402957.8116    666835.9038   4550862.2025   6  20   0.0302   0.0212   0.0236   0.0184   0.0148   0.0214   0.00    0.0   -0.03411   -0.01579   -0.07231   0.00000  0.00000  0.00000  0.00000  0.00000  0.00000
2268 259428.000   4402957.8099    666835.9024   4550862.2008   6  20   0.0300   0.0210   0.0235   0.0182   0.0147   0.0212   0.00    0.0   -0.06645   -0.04048   -0.13162   0.00000  0.00000  0.00000  0.00000  0.00000  0.00000
2268 259429.000   4402957.8088    666835.9015   4550862.1995   6  20   0.0297   0.0209   0.0233   0.0180   0.0145   0.0210   0.00    0.0   -0.03027   -0.00865   -0.09642   0.00000  0.00000  0.00000  0.00000  0.00000  0.00000
2268 259430.000   4402957.8081    666835.9008   4550862.1986   6  20   0.0295   0.0207   0.0232   0.0178   0.0144   0.0208   0.00    0.0    0.03793   -0.01914   -0.01756   0.00000  0.00000  0.00000  0.00000  0.00000  0.00000
2268 259431.000   4402957.8074    666835.9000   4550862.1978   6  20   0.0292   0.0205   0.0230   0.0176   0.0143   0.0206   0.00    0.0   -0.01347    0.00308   -0.06713   0.00000  0.00000  0.00000  0.00000  0.00000  0.00000
2268 259432.000   4402957.8063    666835.8993   4550862.1964   6  20   0.0290   0.0204   0.0229   0.0174   0.0142   0.0204   0.00    0.0    0.00036   -0.00310   -0.05399   0.00000  0.00000  0.00000  0.00000  0.00000  0.00000
2268 259433.000   4402957.8060    666835.8990   4550862.1956   6  20   0.0288   0.0202   0.0228   0.0172   0.0141   0.0202   0.00    0.0   -0.02866   -0.04595   -0.10369   0.00000  0.00000  0.00000  0.00000  0.00000  0.00000
2268 259434.000   4402957.8062    666835.8988   4550862.1953   6  20   0.0285   0.0201   0.0226   0.0171   0.0140   0.0200   0.00    0.0    0.00271   -0.02972   -0.02390   0.00000  0.00000  0.00000  0.00000  0.00000  0.00000
2268 259435.000   4402957.8060    666835.8987   4550862.1944   6  20   0.0283   0.0199   0.0225   0.0169   0.0138   0.0199   0.00    0.0   -0.05776   -0.05009   -0.12394   0.00000  0.00000  0.00000  0.00000  0.00000  0.00000
2268 259436.000   4402957.8060    666835.8989   4550862.1941   6  20   0.0281   0.0198   0.0223   0.0167   0.0137   0.0197   0.00    0.0    0.03116   -0.01035   -0.01513   0.00000  0.00000  0.00000  0.00000  0.00000  0.00000
2268 259437.000   4402957.8067    666835.8993   4550862.1940   6  18   0.0279   0.0197   0.0223   0.0166   0.0136   0.0195   0.00    0.0    0.02819   -0.00656   -0.00270   0.00000  0.00000  0.00000  0.00000  0.00000  0.00000
2268 259438.000   4402957.8079    666835.8998   4550862.1944   6  18   0.0277   0.0195   0.0222   0.0164   0.0135   0.0194   0.00    0.0   -0.01037   -0.01456   -0.04892   0.00000  0.00000  0.00000  0.00000  0.00000  0.00000
2268 259439.000   4402957.8091    666835.9007   4550862.1949   6  18   0.0275   0.0194   0.0221   0.0162   0.0134   0.0193   0.00    0.0   -0.02256   -0.04168   -0.07866   0.00000  0.00000  0.00000  0.00000  0.00000  0.00000
2268 259440.000   4402957.8102    666835.9017   4550862.1949   6  18   0.0273   0.0193   0.0221   0.0161   0.0133   0.0191   0.00    0.0   -0.01623   -0.01769   -0.01810   0.00000  0.00000  0.00000  0.00000  0.00000  0.00000
2268 259441.000   4402957.8108    666835.9028   4550862.1954   6  18   0.0271   0.0191   0.0220   0.0159   0.0132   0.0190   0.00    0.0   -0.00422   -0.00402   -0.03161   0.00000  0.00000  0.00000  0.00000  0.00000  0.00000
2268 259442.000   4402957.8114    666835.9039   4550862.1956   6  18   0.0269   0.0190   0.0219   0.0158   0.0131   0.0189   0.00    0.0   -0.02298   -0.03724   -0.06285   0.00000  0.00000  0.00000  0.00000  0.00000  0.00000
2268 259443.000   4402957.8113    666835.9046   4550862.1955   6  18   0.0268   0.0189   0.0219   0.0156   0.0130   0.0188   0.00    0.0   -0.04360   -0.03060   -0.05335   0.00000  0.00000  0.00000  0.00000  0.00000  0.00000
2268 259444.000   4402957.8106    666835.9045   4550862.1950   6  18   0.0266   0.0187   0.0218   0.0155   0.0129   0.0186   0.00    0.0    0.05537    0.01313    0.04079   0.00000  0.00000  0.00000  0.00000  0.00000  0.00000
2268 259445.000   4402957.8097    666835.9042   4550862.1945   6  18   0.0264   0.0186   0.0218   0.0153   0.0128   0.0185   0.00    0.0    0.00189   -0.03223   -0.04807   0.00000  0.00000  0.00000  0.00000  0.00000  0.00000
2268 259446.000   4402957.8099    666835.9044   4550862.1946   6  18   0.0263   0.0185   0.0217   0.0152   0.0127   0.0184   0.00    0.0    0.00970   -0.01610   -0.00551   0.00000  0.00000  0.00000  0.00000  0.00000  0.00000
2268 259447.000   4402957.8098    666835.9042   4550862.1944   6  18   0.0261   0.0184   0.0216   0.0150   0.0126   0.0183   0.00    0.0    0.04011   -0.02814   -0.00685   0.00000  0.00000  0.00000  0.00000  0.00000  0.00000
2268 259448.000   4402957.8098    666835.9042   4550862.1944   6  18   0.0259   0.0183   0.0216   0.0149   0.0125   0.0182   0.00    0.0   -0.00352   -0.00857    0.00166   0.00000  0.00000  0.00000  0.00000  0.00000  0.00000
2268 259449.000   4402957.8105    666835.9049   4550862.1949   6  18   0.0258   0.0182   0.0215   0.0148   0.0124   0.0180   0.00    0.0   -0.01982   -0.02339   -0.03968   0.00000  0.00000  0.00000  0.00000  0.00000  0.00000
2268 259450.000   4402957.8109    666835.9055   4550862.1949   6  18   0.0256   0.0180   0.0215   0.0146   0.0123   0.0179   0.00    0.0   -0.01062   -0.01842   -0.03279   0.00000  0.00000  0.00000  0.00000  0.00000  0.00000
2268 259451.000   4402957.8112    666835.9059   4550862.1948   6  18   0.0255   0.0179   0.0214   0.0145   0.0123   0.0178   0.00    0.0    0.01714    0.00521   -0.01974   0.00000  0.00000  0.00000  0.00000  0.00000  0.00000
2268 259452.000   4402957.8110    666835.9059   4550862.1941   6  18   0.0253   0.0178   0.0214   0.0144   0.0122   0.0177   0.00    0.0   -0.04704   -0.04778   -0.10259   0.00000  0.00000  0.00000  0.00000  0.00000  0.00000
2268 259453.000   4402957.8103    666835.9055   4550862.1936   6  18   0.0252   0.0177   0.0213   0.0143   0.0121   0.0176   0.00    0.0    0.01022    0.00442   -0.01768   0.00000  0.00000  0.00000  0.00000  0.00000  0.00000
2268 259454.000   4402957.8095    666835.9050   4550862.1931   6  18   0.0250   0.0176   0.0212   0.0141   0.0120   0.0175   0.00    0.0    0.01950   -0.00384    0.02089   0.00000  0.00000  0.00000  0.00000  0.00000  0.00000
2268 259455.000   4402957.8091    666835.9048   4550862.1931   6  18   0.0249   0.0175   0.0212   0.0140   0.0120   0.0174   0.00    0.0   -0.05241   -0.02766   -0.05290   0.00000  0.00000  0.00000  0.00000  0.00000  0.00000
2268 259456.000   4402957.8086    666835.9046   4550862.1930   6  18   0.0247   0.0174   0.0211   0.0139   0.0119   0.0173   0.00    0.0   -0.02310   -0.02801   -0.06008   0.00000  0.00000  0.00000  0.00000  0.00000  0.00000
2268 259457.000   4402957.8087    666835.9048   4550862.1932   6  18   0.0246   0.0173   0.0211   0.0138   0.0118   0.0172   0.00    0.0   -0.01344   -0.00833   -0.08095   0.00000  0.00000  0.00000  0.00000  0.00000  0.00000
2268 259458.000   4402957.8088    666835.9051   4550862.1941   6  18   0.0244   0.0172   0.0210   0.0137   0.0118   0.0171   0.00    0.0    0.01977   -0.04920   -0.03118   0.00000  0.00000  0.00000  0.00000  0.00000  0.00000
2268 259459.000   4402957.8088    666835.9051   4550862.1953   6  18   0.0243   0.0171   0.0209   0.0136   0.0117   0.0170   0.00    0.0    0.06626   -0.00008    0.07588   0.00000  0.00000  0.00000  0.00000  0.00000  0.00000
2268 259460.000   4402957.8092    666835.9055   4550862.1966   6  18   0.0242   0.0170   0.0209   0.0135   0.0117   0.0169   0.00    0.0   -0.04171   -0.05669   -0.06944   0.00000  0.00000  0.00000  0.00000  0.00000  0.00000
2268 259461.000   4402957.8096    666835.9061   4550862.1978   6  18   0.0240   0.0169   0.0208   0.0134   0.0116   0.0167   0.00    0.0    0.00656   -0.00711   -0.01962   0.00000  0.00000  0.00000  0.00000  0.00000  0.00000
2268 259462.000   4402957.8096    666835.9068   4550862.1988   6  18   0.0239   0.0168   0.0208   0.0133   0.0115   0.0166   0.00    0.0    0.03461   -0.01878    0.00165   0.00000  0.00000  0.00000  0.00000  0.00000  0.00000
2268 259463.000   4402957.8097    666835.9070   4550862.1995   6  18   0.0238   0.0167   0.0207   0.0131   0.0115   0.0165   0.00    0.0    0.03233    0.02064    0.02956   0.00000  0.00000  0.00000  0.00000  0.00000  0.00000
2268 259464.000   4402957.8094    666835.9069   4550862.1996   6  18   0.0236   0.0166   0.0206   0.0130   0.0114   0.0164   0.00    0.0   -0.06103   -0.01249   -0.09438   0.00000  0.00000  0.00000  0.00000  0.00000  0.00000
2268 259465.000   4402957.8092    666835.9068   4550862.1995   6  18   0.0235   0.0165   0.0206   0.0129   0.0114   0.0163   0.00    0.0    0.01059   -0.02943   -0.01806   0.00000  0.00000  0.00000  0.00000  0.00000  0.00000
2268 259466.000   4402957.8088    666835.9064   4550862.1993   6  18   0.0234   0.0164   0.0205   0.0128   0.0113   0.0162   0.00    0.0   -0.02814   -0.00552   -0.03863   0.00000  0.00000  0.00000  0.00000  0.00000  0.00000
2268 259467.000   4402957.8088    666835.9064   4550862.1998   6  18   0.0233   0.0164   0.0204   0.0128   0.0113   0.0161   0.00    0.0   -0.05557   -0.02625   -0.08867   0.00000  0.00000  0.00000  0.00000  0.00000  0.00000
2268 259468.000   4402957.8085    666835.9066   4550862.2000   6  18   0.0231   0.0163   0.0204   0.0127   0.0112   0.0160   0.00    0.0    0.01710   -0.00358   -0.00861   0.00000  0.00000  0.00000  0.00000  0.00000  0.00000
2268 259469.000   4402957.8088    666835.9071   4550862.2006   6  18   0.0230   0.0162   0.0203   0.0126   0.0112   0.0159   0.00    0.0    0.02239   -0.00097    0.03990   0.00000  0.00000  0.00000  0.00000  0.00000  0.00000
2268 259470.000   4402957.8095    666835.9078   4550862.2015   6  18   0.0229   0.0161   0.0202   0.0125   0.0111   0.0158   0.00    0.0   -0.01105   -0.00373   -0.02203   0.00000  0.00000  0.00000  0.00000  0.00000  0.00000
2268 259471.000   4402957.8100    666835.9085   4550862.2021   6  18   0.0228   0.0160   0.0202   0.0124   0.0111   0.0157   0.00    0.0    0.00665   -0.02801    0.04578   0.00000  0.00000  0.00000  0.00000  0.00000  0.00000
2268 259472.000   4402957.8104    666835.9091   4550862.2026   6  18   0.0227   0.0159   0.0201   0.0123   0.0111   0.0156   0.00    0.0    0.01070   -0.01254    0.00070   0.00000  0.00000  0.00000  0.00000  0.00000  0.00000
2268 259473.000   4402957.8106    666835.9094   4550862.2030   6  18   0.0225   0.0159   0.0200   0.0122   0.0110   0.0155   0.00    0.0    0.00878   -0.01505   -0.01254   0.00000  0.00000  0.00000  0.00000  0.00000  0.00000
2268 259474.000   4402957.8105    666835.9092   4550862.2029   6  18   0.0224   0.0158   0.0200   0.0121   0.0110   0.0154   0.00    0.0    0.01963    0.00877   -0.02941   0.00000  0.00000  0.00000  0.00000  0.00000  0.00000
2268 259475.000   4402957.8107    666835.9091   4550862.2026   6  18   0.0223   0.0157   0.0199   0.0120   0.0109   0.0153   0.00    0.0   -0.01925   -0.00361   -0.05402   0.00000  0.00000  0.00000  0.00000  0.00000  0.00000
2268 259476.000   4402957.8109    666835.9093   4550862.2022   6  18   0.0222   0.0156   0.0198   0.0119   0.0109   0.0152   0.00    0.0   -0.00771    0.00089   -0.02587   0.00000  0.00000  0.00000  0.00000  0.00000  0.00000
2268 259477.000   4402957.8112    666835.9094   4550862.2014   6  18   0.0221   0.0156   0.0198   0.0119   0.0109   0.0151   0.00    0.0    0.05391    0.00245    0.04717   0.00000  0.00000  0.00000  0.00000  0.00000  0.00000
2268 259478.000   4402957.8114    666835.9094   4550862.2011   6  18   0.0220   0.0155   0.0197   0.0118   0.0108   0.0150   0.00    0.0   -0.02559   -0.03259   -0.02177   0.00000  0.00000  0.00000  0.00000  0.00000  0.00000
2268 259479.000   4402957.8117    666835.9096   4550862.2012   6  18   0.0219   0.0154   0.0196   0.0117   0.0108   0.0149   0.00    0.0    0.01647    0.02173    0.02985   0.00000  0.00000  0.00000  0.00000  0.00000  0.00000
