% program   : GINav v0.1.0
% obs start : 2023/06/28 00:00:20.0
% obs end   : 2023/06/28 01:37:29.0
% mode      : PPP Kinematic
% system    : GPS GALILEO 
% nfreqs    : 2
% elev mask : 10.0 deg
% ephemeris : broadcast
% ionos opt : estimation
% trops opt : ZTD estimation
%
%  GPST              x-ecef(m)      y-ecef(m)      z-ecef(m)   Q  ns   sdx(m)   sdy(m)   sdz(m)  sdxy(m)  sdyz(m)  sdzx(m) age(s)  ratio    vx(m/s)    vy(m/s)    vz(m/s)      sdvx     sdvy     sdvz    sdvxy    sdvyz    sdvzx
2268 259219.996   4402957.9139    666835.5171   4550862.0674   6   8   8.9849   4.2817   8.5840   5.2236   3.5457   7.6857   0.00    0.0    0.02484    0.00163   -0.07219   0.00000  0.00000  0.00000  0.00000  0.00000  0.00000
2268 259220.996   4402958.0977    666835.6051   4550862.1062   6   9   3.9096   2.6505   2.5876   2.4041  -1.7296   1.2358   0.00    0.0   -0.03911   -0.04169   -0.12352   0.00000  0.00000  0.00000  0.00000  0.00000  0.00000
2268 259221.996   4402957.9720    666835.5604   4550862.1105   6  10   2.9449   1.9935   2.0715   1.6636  -1.3644   1.1147   0.00    0.0   -0.05280   -0.01606   -0.13426   0.00000  0.00000  0.00000  0.00000  0.00000  0.00000
2268 259222.996   4402957.9218    666835.5667   4550862.1096   6  10   2.5011   1.6950   1.7896   1.3753  -1.1782   0.9951   0.00    0.0    0.01444   -0.03301   -0.05560   0.00000  0.00000  0.00000  0.00000  0.00000  0.00000
2268 259223.996   4402957.9493    666835.6353   4550862.1067   6  10   2.2225   1.5128   1.6058   1.2102  -1.0623   0.9062   0.00    0.0    0.00201   -0.03515   -0.05228   0.00000  0.00000  0.00000  0.00000  0.00000  0.00000
2268 259224.996   4402957.9968    666835.6822   4550862.0690   6  11   1.9988   1.3655   1.4708   1.0640  -0.9707   0.8553   0.00    0.0    0.00454   -0.00151   -0.05933   0.00000  0.00000  0.00000  0.00000  0.00000  0.00000
2268 259225.996   4402958.0323    666835.6403   4550862.1035   6  11   1.8394   1.2597   1.3666   0.9683  -0.9027   0.8097   0.00    0.0    0.00749   -0.02447    0.00008   0.00000  0.00000  0.00000  0.00000  0.00000  0.00000
2268 259226.996   4402958.1094    666835.6498   4550862.1123   6  11   1.7172   1.1809   1.2845   0.9005  -0.8523   0.7696   0.00    0.0    0.01177   -0.02317   -0.03866   0.00000  0.00000  0.00000  0.00000  0.00000  0.00000
2268 259227.996   4402958.0670    666835.5850   4550862.1261   6  12   1.4361   1.0773   1.2173   0.7036  -0.8115   0.7382   0.00    0.0    0.01686   -0.02190   -0.07632   0.00000  0.00000  0.00000  0.00000  0.00000  0.00000
2268 259228.996   4402958.0667    666835.6234   4550862.1294   6  12   1.2645   0.9583   1.1386   0.5542  -0.7318   0.7298   0.00    0.0   -0.00665    0.00601   -0.11853   0.00000  0.00000  0.00000  0.00000  0.00000  0.00000
2268 259229.996   4402958.0312    666835.6057   4550862.1003   6  12   1.1520   0.8894   1.0815   0.4708  -0.6880   0.7068   0.00    0.0    0.04219   -0.03474   -0.02036   0.00000  0.00000  0.00000  0.00000  0.00000  0.00000
2268 259230.996   4402958.0076    666835.6264   4550862.1215   6  12   1.0693   0.8388   1.0343   0.4146  -0.6558   0.6839   0.00    0.0   -0.03300   -0.01575   -0.07759   0.00000  0.00000  0.00000  0.00000  0.00000  0.00000
2268 259231.996   4402957.9593    666835.6182   4550862.0681   6  12   1.0049   0.7981   0.9938   0.3737  -0.6298   0.6629   0.00    0.0    0.01562   -0.03694    0.00243   0.00000  0.00000  0.00000  0.00000  0.00000  0.00000
2268 259232.996   4402957.9508    666835.6116   4550862.0138   6  12   0.9526   0.7639   0.9582   0.3425  -0.6079   0.6441   0.00    0.0   -0.00569   -0.02061   -0.07048   0.00000  0.00000  0.00000  0.00000  0.00000  0.00000
2268 259233.996   4402957.9219    666835.6027   4550861.9760   6  12   0.9091   0.7345   0.9267   0.3180  -0.5888   0.6271   0.00    0.0   -0.05156   -0.03579   -0.08356   0.00000  0.00000  0.00000  0.00000  0.00000  0.00000
2268 259234.996   4402957.8696    666835.5758   4550861.8973   6  12   0.8722   0.7087   0.8984   0.2983  -0.5720   0.6118   0.00    0.0   -0.01416   -0.03533   -0.08753   0.00000  0.00000  0.00000  0.00000  0.00000  0.00000
2268 259235.996   4402957.8311    666835.5179   4550861.8482   6  12   0.8402   0.6857   0.8729   0.2821  -0.5570   0.5979   0.00    0.0   -0.01517   -0.01976   -0.08198   0.00000  0.00000  0.00000  0.00000  0.00000  0.00000
2268 259236.996   4402957.7664    666835.4692   4550861.7689   6  12   0.8122   0.6651   0.8497   0.2686  -0.5434   0.5852   0.00    0.0    0.00790   -0.01139   -0.04598   0.00000  0.00000  0.00000  0.00000  0.00000  0.00000
2268 259237.996   4402957.7409    666835.4338   4550861.7330   6  13   0.7869   0.6352   0.8184   0.2637  -0.5163   0.5705   0.00    0.0    0.00089   -0.00843   -0.02921   0.00000  0.00000  0.00000  0.00000  0.00000  0.00000
2268 259238.996   4402957.7083    666835.4177   4550861.6836   6  13   0.7645   0.6083   0.7906   0.2591  -0.4923   0.5574   0.00    0.0   -0.04716   -0.01346   -0.05180   0.00000  0.00000  0.00000  0.00000  0.00000  0.00000
2268 259239.996   4402957.6716    666835.3879   4550861.5976   6  13   0.7442   0.5835   0.7653   0.2555  -0.4702   0.5453   0.00    0.0    0.05197   -0.03469    0.00929   0.00000  0.00000  0.00000  0.00000  0.00000  0.00000
2268 259240.996   4402957.6571    666835.3968   4550861.5553   6  13   0.7258   0.5598   0.7413   0.2529  -0.4488   0.5340   0.00    0.0    0.02328   -0.02600   -0.02987   0.00000  0.00000  0.00000  0.00000  0.00000  0.00000
2268 259241.996   4402957.6267    666835.3875   4550861.5016   6  13   0.7089   0.5368   0.7182   0.2516  -0.4274   0.5231   0.00    0.0    0.02278    0.00506   -0.02092   0.00000  0.00000  0.00000  0.00000  0.00000  0.00000
2268 259242.996   4402957.6174    666835.4263   4550861.4317   6  13   0.6934   0.5141   0.6956   0.2514  -0.4055   0.5126   0.00    0.0   -0.03621   -0.01532   -0.03536   0.00000  0.00000  0.00000  0.00000  0.00000  0.00000
2268 259243.996   4402957.5772    666835.4920   4550861.3141   6  13   0.6789   0.4918   0.6733   0.2522  -0.3831   0.5021   0.00    0.0    0.01985   -0.03224   -0.04822   0.00000  0.00000  0.00000  0.00000  0.00000  0.00000
2268 259244.996   4402957.5801    666835.5352   4550861.2206   6  13   0.6654   0.4699   0.6513   0.2538  -0.3601   0.4918   0.00    0.0    0.02812   -0.02230   -0.07460   0.00000  0.00000  0.00000  0.00000  0.00000  0.00000
2268 259245.996   4402957.5986    666835.5538   4550861.1861   6  13   0.6528   0.4484   0.6296   0.2558  -0.3366   0.4817   0.00    0.0   -0.02559   -0.05191   -0.08529   0.00000  0.00000  0.00000  0.00000  0.00000  0.00000
2268 259246.996   4402957.5975    666835.6035   4550861.0862   6  13   0.6408   0.4277   0.6083   0.2582  -0.3128   0.4718   0.00    0.0   -0.05914   -0.02766   -0.06315   0.00000  0.00000  0.00000  0.00000  0.00000  0.00000
2268 259247.996   4402957.6025    666835.6418   4550861.0337   6  13   0.6296   0.4078   0.5877   0.2607  -0.2890   0.4621   0.00    0.0    0.01702   -0.00586   -0.05938   0.00000  0.00000  0.00000  0.00000  0.00000  0.00000
2268 259248.996   4402957.6032    666835.6658   4550860.9827   6  13   0.6190   0.3890   0.5677   0.2632  -0.2652   0.4527   0.00    0.0   -0.03472   -0.03820   -0.05316   0.00000  0.00000  0.00000  0.00000  0.00000  0.00000
2268 259249.996   4402957.6146    666835.6549   4550860.9844   6  13   0.6090   0.3712   0.5486   0.2654  -0.2415   0.4437   0.00    0.0   -0.09217   -0.02033   -0.11835   0.00000  0.00000  0.00000  0.00000  0.00000  0.00000
2268 259250.996   4402957.6108    666835.6617   4550860.9257   6  13   0.5995   0.3546   0.5303   0.2675  -0.2181   0.4350   0.00    0.0    0.00966    0.01072   -0.04859   0.00000  0.00000  0.00000  0.00000  0.00000  0.00000
2268 259251.996   4402957.6232    666835.7056   4550860.8871   6  13   0.5905   0.3392   0.5130   0.2693  -0.1949   0.4267   0.00    0.0   -0.00720   -0.00055   -0.04782   0.00000  0.00000  0.00000  0.00000  0.00000  0.00000
2268 259252.996   4402957.6336    666835.7293   4550860.8388   6  13   0.5820   0.3250   0.4967   0.2707  -0.1717   0.4188   0.00    0.0   -0.05264   -0.06605   -0.11735   0.00000  0.00000  0.00000  0.00000  0.00000  0.00000
2268 259253.996   4402957.6084    666835.7735   4550860.7725   6  13   0.5739   0.3120   0.4814   0.2719  -0.1485   0.4114   0.00    0.0    0.03267   -0.01495   -0.02964   0.00000  0.00000  0.00000  0.00000  0.00000  0.00000
2268 259254.996   4402957.5974    666835.7833   4550860.7428   6  13   0.5662   0.3000   0.4669   0.2728  -0.1245   0.4043   0.00    0.0   -0.03499   -0.03131   -0.02578   0.00000  0.00000  0.00000  0.00000  0.00000  0.00000
2268 259255.996   4402957.5921    666835.8238   4550860.6921   6  13   0.5589   0.2891   0.4535   0.2734  -0.0990   0.3976   0.00    0.0    0.03275   -0.02696   -0.04249   0.00000  0.00000  0.00000  0.00000  0.00000  0.00000
2268 259256.996   4402957.5928    666835.8451   4550860.6375   6  13   0.5520   0.2791   0.4409   0.2738  -0.0695   0.3912   0.00    0.0    0.06462   -0.03081    0.01997   0.00000  0.00000  0.00000  0.00000  0.00000  0.00000
2268 259257.996   4402957.5886    666835.8682   4550860.5912   6  13   0.5453   0.2700   0.4290   0.2740  -0.0226   0.3852   0.00    0.0   -0.04077   -0.01416   -0.12655   0.00000  0.00000  0.00000  0.00000  0.00000  0.00000
2268 259258.996   4402957.5912    666835.8794   4550860.5598   6  13   0.5390   0.2616   0.4180   0.2740   0.0569   0.3795   0.00    0.0    0.03831    0.01407   -0.01184   0.00000  0.00000  0.00000  0.00000  0.00000  0.00000
2268 259259.996   4402957.6042    666835.8578   4550860.5517   6  13   0.5330   0.2540   0.4077   0.2739   0.0805   0.3741   0.00    0.0   -0.01721   -0.02692   -0.09483   0.00000  0.00000  0.00000  0.00000  0.00000  0.00000
2268 259260.996   4402957.6277    666835.8723   4550860.5447   6  13   0.5272   0.2471   0.3980   0.2736   0.0964   0.3690   0.00    0.0    0.00124   -0.02218   -0.07562   0.00000  0.00000  0.00000  0.00000  0.00000  0.00000
2268 259261.996   4402957.6245    666835.8708   4550860.5486   6  14   0.5208   0.2407   0.3889   0.2729   0.1082   0.3640   0.00    0.0   -0.00441   -0.01845   -0.01450   0.00000  0.00000  0.00000  0.00000  0.00000  0.00000
2268 259262.996   4402957.6102    666835.8679   4550860.5331   6  14   0.5148   0.2348   0.3802   0.2722   0.1173   0.3592   0.00    0.0   -0.00956   -0.05124   -0.05375   0.00000  0.00000  0.00000  0.00000  0.00000  0.00000
2268 259263.996   4402957.5796    666835.8801   4550860.4784   6  14   0.5090   0.2294   0.3716   0.2713   0.1242   0.3545   0.00    0.0   -0.00206   -0.00167   -0.04504   0.00000  0.00000  0.00000  0.00000  0.00000  0.00000
2268 259264.996   4402957.5455    666835.8725   4550860.4456   6  14   0.5034   0.2242   0.3630   0.2702   0.1292   0.3496   0.00    0.0   -0.05981   -0.04398   -0.02586   0.00000  0.00000  0.00000  0.00000  0.00000  0.00000
2268 259265.996   4402957.5199    666835.8819   4550860.4056   6  14   0.4979   0.2191   0.3545   0.2689   0.1325   0.3446   0.00    0.0    0.00387   -0.01837   -0.02602   0.00000  0.00000  0.00000  0.00000  0.00000  0.00000
2268 259266.996   4402957.5150    666835.8915   4550860.3942   6  14   0.4924   0.2141   0.3461   0.2672   0.1347   0.3396   0.00    0.0   -0.05900   -0.01820   -0.12693   0.00000  0.00000  0.00000  0.00000  0.00000  0.00000
2268 259267.996   4402957.5277    666835.9039   4550860.4075   6  14   0.4869   0.2093   0.3382   0.2654   0.1359   0.3345   0.00    0.0   -0.02554   -0.00454   -0.02693   0.00000  0.00000  0.00000  0.00000  0.00000  0.00000
2268 259268.996   4402957.5335    666835.9255   4550860.4028   6  14   0.4815   0.2045   0.3307   0.2633   0.1367   0.3295   0.00    0.0   -0.00193   -0.00872   -0.03239   0.00000  0.00000  0.00000  0.00000  0.00000  0.00000
2268 259269.996   4402957.5245    666835.9248   4550860.4188   6  15   0.4754   0.1992   0.3237   0.2602   0.1376   0.3249   0.00    0.0    0.01640   -0.02095   -0.10032   0.00000  0.00000  0.00000  0.00000  0.00000  0.00000
2268 259270.996   4402957.5122    666835.9045   4550860.4422   6  15   0.4691   0.1935   0.3169   0.2566   0.1390   0.3208   0.00    0.0   -0.04557   -0.04578   -0.11751   0.00000  0.00000  0.00000  0.00000  0.00000  0.00000
2268 259271.996   4402957.5034    666835.8845   4550860.4729   6  15   0.4626   0.1876   0.3103   0.2526   0.1405   0.3171   0.00    0.0   -0.00902   -0.03109   -0.06686   0.00000  0.00000  0.00000  0.00000  0.00000  0.00000
2268 259272.996   4402957.4772    666835.8832   4550860.4747   6  15   0.4561   0.1816   0.3039   0.2484   0.1424   0.3138   0.00    0.0    0.00958   -0.01704   -0.04219   0.00000  0.00000  0.00000  0.00000  0.00000  0.00000
2268 259273.996   4402957.4265    666835.8616   4550860.4877   6  15   0.4493   0.1756   0.2977   0.2438   0.1445   0.3110   0.00    0.0   -0.00002   -0.00077   -0.05414   0.00000  0.00000  0.00000  0.00000  0.00000  0.00000
2268 259274.996   4402957.3811    666835.8309   4550860.5269   6  15   0.4425   0.1697   0.2916   0.2392   0.1465   0.3085   0.00    0.0   -0.00132   -0.00988   -0.05828   0.00000  0.00000  0.00000  0.00000  0.00000  0.00000
2268 259275.996   4402957.3263    666835.7781   4550860.5852   6  15   0.4357   0.1641   0.2857   0.2347   0.1485   0.3061   0.00    0.0    0.00118   -0.02681   -0.03665   0.00000  0.00000  0.00000  0.00000  0.00000  0.00000
2268 259276.996   4402957.2818    666835.7622   4550860.5865   6  15   0.4291   0.1588   0.2800   0.2302   0.1501   0.3038   0.00    0.0    0.01937   -0.01273   -0.05856   0.00000  0.00000  0.00000  0.00000  0.00000  0.00000
2268 259277.996   4402957.2282    666835.7312   4550860.6267   6  15   0.4227   0.1541   0.2745   0.2261   0.1514   0.3015   0.00    0.0   -0.01961   -0.00072   -0.03479   0.00000  0.00000  0.00000  0.00000  0.00000  0.00000
2268 259278.996   4402957.1713    666835.6973   4550860.6761   6  15   0.4165   0.1497   0.2693   0.2222   0.1524   0.2991   0.00    0.0    0.00619    0.00203   -0.08877   0.00000  0.00000  0.00000  0.00000  0.00000  0.00000
2268 259279.996   4402957.1197    666835.6762   4550860.6942   6  15   0.4105   0.1458   0.2644   0.2187   0.1530   0.2966   0.00    0.0    0.03106    0.01373   -0.02907   0.00000  0.00000  0.00000  0.00000  0.00000  0.00000
2268 259280.996   4402957.0984    666835.6688   4550860.7238   6  15   0.4047   0.1423   0.2597   0.2154   0.1532   0.2941   0.00    0.0    0.06266    0.00939   -0.00541   0.00000  0.00000  0.00000  0.00000  0.00000  0.00000
2268 259281.996   4402957.0467    666835.6467   4550860.7447   6  15   0.3992   0.1391   0.2552   0.2124   0.1532   0.2915   0.00    0.0   -0.01691    0.00985   -0.10128   0.00000  0.00000  0.00000  0.00000  0.00000  0.00000
2268 259282.996   4402956.9870    666835.6164   4550860.7679   6  15   0.3939   0.1364   0.2509   0.2096   0.1530   0.2888   0.00    0.0    0.01253   -0.01562   -0.03061   0.00000  0.00000  0.00000  0.00000  0.00000  0.00000
2268 259283.996   4402956.9448    666835.5988   4550860.7791   6  15   0.3888   0.1339   0.2468   0.2070   0.1525   0.2860   0.00    0.0   -0.08010   -0.07835   -0.13115   0.00000  0.00000  0.00000  0.00000  0.00000  0.00000
2268 259284.996   4402956.9212    666835.5826   4550860.8013   6  15   0.3838   0.1315   0.2429   0.2045   0.1519   0.2832   0.00    0.0   -0.00286   -0.00282   -0.02123   0.00000  0.00000  0.00000  0.00000  0.00000  0.00000
2268 259285.996   4402956.9002    666835.5699   4550860.8250   6  15   0.3790   0.1294   0.2392   0.2022   0.1512   0.2803   0.00    0.0    0.01851   -0.02695   -0.04731   0.00000  0.00000  0.00000  0.00000  0.00000  0.00000
2268 259286.996   4402956.8748    666835.5681   4550860.8431   6  15   0.3744   0.1274   0.2355   0.2000   0.1504   0.2774   0.00    0.0    0.00968   -0.00353   -0.05702   0.00000  0.00000  0.00000  0.00000  0.00000  0.00000
2268 259287.996   4402956.8576    666835.5647   4550860.8651   6  15   0.3699   0.1256   0.2320   0.1979   0.1494   0.2745   0.00    0.0   -0.02560   -0.00837   -0.04522   0.00000  0.00000  0.00000  0.00000  0.00000  0.00000
2268 259288.996   4402956.8504    666835.5624   4550860.8897   6  15   0.3655   0.1240   0.2286   0.1959   0.1485   0.2715   0.00    0.0    0.02149    0.02170   -0.00425   0.00000  0.00000  0.00000  0.00000  0.00000  0.00000
2268 259289.996   4402956.8299    666835.5521   4550860.9070   6  15   0.3611   0.1223   0.2252   0.1940   0.1473   0.2685   0.00    0.0    0.03807   -0.00589    0.00558   0.00000  0.00000  0.00000  0.00000  0.00000  0.00000
2268 259290.996   4402956.7922    666835.5445   4550860.9215   6  15   0.3569   0.1208   0.2219   0.1921   0.1461   0.2656   0.00    0.0   -0.01535   -0.00047   -0.10339   0.00000  0.00000  0.00000  0.00000  0.00000  0.00000
2268 259291.996   4402956.7694    666835.5381   4550860.9213   6  14   0.3537   0.1196   0.2197   0.1907   0.1456   0.2635   0.00    0.0    0.07082   -0.03880   -0.02800   0.00000  0.00000  0.00000  0.00000  0.00000  0.00000
2268 259292.996   4402956.7531    666835.5389   4550860.9204   6  14   0.3508   0.1186   0.2177   0.1896   0.1450   0.2617   0.00    0.0    0.01078   -0.05755   -0.08362   0.00000  0.00000  0.00000  0.00000  0.00000  0.00000
2268 259293.996   4402956.7367    666835.5345   4550860.9399   6  14   0.3479   0.1175   0.2158   0.1884   0.1444   0.2600   0.00    0.0    0.01168   -0.02219   -0.05516   0.00000  0.00000  0.00000  0.00000  0.00000  0.00000
2268 259294.996   4402956.7270    666835.5321   4550860.9543   6  14   0.3452   0.1166   0.2139   0.1873   0.1437   0.2582   0.00    0.0   -0.00558   -0.02326   -0.13588   0.00000  0.00000  0.00000  0.00000  0.00000  0.00000
2268 259295.996   4402956.7196    666835.5361   4550860.9757   6  14   0.3425   0.1156   0.2121   0.1862   0.1431   0.2564   0.00    0.0    0.01979   -0.00214   -0.01684   0.00000  0.00000  0.00000  0.00000  0.00000  0.00000
2268 259296.996   4402956.7177    666835.5313   4550860.9810   6  14   0.3397   0.1148   0.2103   0.1852   0.1424   0.2547   0.00    0.0   -0.00534   -0.03833   -0.10806   0.00000  0.00000  0.00000  0.00000  0.00000  0.00000
2268 259297.996   4402956.7134    666835.5313   4550860.9946   6  14   0.3371   0.1140   0.2086   0.1841   0.1418   0.2529   0.00    0.0    0.02182    0.00019   -0.12704   0.00000  0.00000  0.00000  0.00000  0.00000  0.00000
2268 259298.996   4402956.7062    666835.5285   4550861.0051   6  14   0.3345   0.1131   0.2069   0.1831   0.1411   0.2512   0.00    0.0   -0.02535   -0.01621   -0.13030   0.00000  0.00000  0.00000  0.00000  0.00000  0.00000
2268 259299.996   4402956.7150    666835.5320   4550861.0253   6  14   0.3319   0.1124   0.2053   0.1821   0.1404   0.2494   0.00    0.0    0.01719    0.01072   -0.02584   0.00000  0.00000  0.00000  0.00000  0.00000  0.00000
2268 259300.996   4402956.7337    666835.5369   4550861.0537   6  14   0.3293   0.1116   0.2037   0.1811   0.1397   0.2477   0.00    0.0    0.04914   -0.02769   -0.03472   0.00000  0.00000  0.00000  0.00000  0.00000  0.00000
2268 259301.996   4402956.7379    666835.5417   4550861.0648   6  14   0.3268   0.1108   0.2022   0.1801   0.1390   0.2460   0.00    0.0   -0.03306   -0.04008   -0.14685   0.00000  0.00000  0.00000  0.00000  0.00000  0.00000
2268 259302.996   4402956.7480    666835.5402   4550861.0809   6  14   0.3243   0.1102   0.2006   0.1791   0.1383   0.2443   0.00    0.0   -0.01995   -0.00299   -0.05292   0.00000  0.00000  0.00000  0.00000  0.00000  0.00000
2268 259303.996   4402956.7586    666835.5432   4550861.1048   6  14   0.3219   0.1094   0.1991   0.1781   0.1376   0.2426   0.00    0.0    0.02751   -0.01186   -0.02324   0.00000  0.00000  0.00000  0.00000  0.00000  0.00000
2268 259304.996   4402956.7490    666835.5406   4550861.1065   6  14   0.3195   0.1088   0.1977   0.1771   0.1369   0.2409   0.00    0.0   -0.01217   -0.03838   -0.07844   0.00000  0.00000  0.00000  0.00000  0.00000  0.00000
2268 259305.996   4402956.7370    666835.5368   4550861.1050   6  14   0.3171   0.1081   0.1963   0.1761   0.1362   0.2393   0.00    0.0   -0.00020   -0.00960   -0.06660   0.00000  0.00000  0.00000  0.00000  0.00000  0.00000
2268 259306.996   4402956.7414    666835.5382   4550861.1115   6  14   0.3148   0.1076   0.1949   0.1753   0.1355   0.2376   0.00    0.0    0.02363   -0.00573    0.00744   0.00000  0.00000  0.00000  0.00000  0.00000  0.00000
2268 259307.996   4402956.7313    666835.5360   4550861.1121   6  14   0.3124   0.1070   0.1935   0.1743   0.1348   0.2360   0.00    0.0    0.01728   -0.00487   -0.07527   0.00000  0.00000  0.00000  0.00000  0.00000  0.00000
2268 259308.996   4402956.7338    666835.5409   4550861.1173   6  14   0.3101   0.1064   0.1921   0.1734   0.1341   0.2344   0.00    0.0   -0.01282    0.00763   -0.08490   0.00000  0.00000  0.00000  0.00000  0.00000  0.00000
2268 259309.996   4402956.7284    666835.5376   4550861.1195   6  14   0.3078   0.1057   0.1908   0.1725   0.1334   0.2328   0.00    0.0   -0.00568   -0.01000   -0.07599   0.00000  0.00000  0.00000  0.00000  0.00000  0.00000
2268 259310.996   4402956.7103    666835.5318   4550861.1121   6  14   0.3056   0.1052   0.1894   0.1716   0.1327   0.2312   0.00    0.0   -0.01184   -0.00806   -0.06586   0.00000  0.00000  0.00000  0.00000  0.00000  0.00000
2268 259311.996   4402956.7036    666835.5292   4550861.1086   6  14   0.3034   0.1046   0.1882   0.1706   0.1320   0.2296   0.00    0.0   -0.07032   -0.02796   -0.11277   0.00000  0.00000  0.00000  0.00000  0.00000  0.00000
2268 259312.996   4402956.6927    666835.5263   4550861.1016   6  14   0.3011   0.1041   0.1869   0.1698   0.1314   0.2281   0.00    0.0    0.02528   -0.03446   -0.06471   0.00000  0.00000  0.00000  0.00000  0.00000  0.00000
2268 259313.996   4402956.6894    666835.5237   4550861.1048   6  14   0.2990   0.1035   0.1856   0.1689   0.1307   0.2265   0.00    0.0   -0.01364   -0.01215   -0.07520   0.00000  0.00000  0.00000  0.00000  0.00000  0.00000
2268 259314.996   4402956.6752    666835.5189   4550861.0955   6  14   0.2968   0.1031   0.1844   0.1680   0.1300   0.2250   0.00    0.0    0.06335   -0.02479   -0.02008   0.00000  0.00000  0.00000  0.00000  0.00000  0.00000
2268 259315.996   4402956.6728    666835.5199   4550861.1042   6  14   0.2947   0.1025   0.1832   0.1671   0.1293   0.2235   0.00    0.0    0.00950   -0.01038   -0.02005   0.00000  0.00000  0.00000  0.00000  0.00000  0.00000
2268 259316.996   4402956.6635    666835.5174   4550861.0983   6  15   0.2918   0.1019   0.1816   0.1658   0.1283   0.2214   0.00    0.0    0.02312   -0.00251   -0.03047   0.00000  0.00000  0.00000  0.00000  0.00000  0.00000
2268 259317.996   4402956.6571    666835.5202   4550861.0993   6  15   0.2888   0.1009   0.1799   0.1643   0.1272   0.2192   0.00    0.0   -0.00570   -0.01613   -0.11024   0.00000  0.00000  0.00000  0.00000  0.00000  0.00000
2268 259318.996   4402956.6487    666835.5163   4550861.0956   6  15   0.2858   0.0998   0.1783   0.1628   0.1261   0.2171   0.00    0.0   -0.00582   -0.03402   -0.06032   0.00000  0.00000  0.00000  0.00000  0.00000  0.00000
2268 259319.996   4402956.6506    666835.5169   4550861.1048   6  15   0.2828   0.0990   0.1766   0.1613   0.1250   0.2149   0.00    0.0   -0.00230   -0.00468   -0.07302   0.00000  0.00000  0.00000  0.00000  0.00000  0.00000
2268 259320.996   4402956.6361    666835.5118   4550861.0982   6  15   0.2796   0.0982   0.1749   0.1597   0.1239   0.2126   0.00    0.0    0.02423   -0.03597   -0.05744   0.00000  0.00000  0.00000  0.00000  0.00000  0.00000
2268 259321.996   4402956.6398    666835.5137   4550861.1034   6  15   0.2762   0.0971   0.1732   0.1581   0.1226   0.2102   0.00    0.0    0.02549   -0.00220   -0.06679   0.00000  0.00000  0.00000  0.00000  0.00000  0.00000
2268 259322.996   4402956.6465    666835.5154   4550861.1113   6  15   0.2727   0.0962   0.1714   0.1562   0.1213   0.2077   0.00    0.0   -0.02574   -0.03834   -0.06718   0.00000  0.00000  0.00000  0.00000  0.00000  0.00000
2268 259323.996   4402956.6437    666835.5149   4550861.1119   6  15   0.2690   0.0951   0.1695   0.1543   0.1200   0.2050   0.00    0.0   -0.05051   -0.03868   -0.12389   0.00000  0.00000  0.00000  0.00000  0.00000  0.00000
2268 259324.996   4402956.6542    666835.5195   4550861.1207   6  15   0.2650   0.0938   0.1675   0.1523   0.1185   0.2022   0.00    0.0    0.03505   -0.00740   -0.00285   0.00000  0.00000  0.00000  0.00000  0.00000  0.00000
2268 259325.996   4402956.6752    666835.5270   4550861.1322   6  15   0.2609   0.0928   0.1655   0.1501   0.1169   0.1993   0.00    0.0    0.01359   -0.01693   -0.09024   0.00000  0.00000  0.00000  0.00000  0.00000  0.00000
2268 259326.996   4402956.6965    666835.5337   4550861.1495   6  15   0.2565   0.0914   0.1634   0.1478   0.1153   0.1963   0.00    0.0   -0.00484   -0.04015   -0.11536   0.00000  0.00000  0.00000  0.00000  0.00000  0.00000
2268 259327.996   4402956.7079    666835.5400   4550861.1618   6  15   0.2519   0.0900   0.1611   0.1453   0.1136   0.1931   0.00    0.0    0.02349   -0.00662   -0.04798   0.00000  0.00000  0.00000  0.00000  0.00000  0.00000
2268 259328.996   4402956.7358    666835.5487   4550861.1832   6  15   0.2472   0.0886   0.1589   0.1428   0.1119   0.1898   0.00    0.0   -0.02465   -0.00761   -0.08792   0.00000  0.00000  0.00000  0.00000  0.00000  0.00000
2268 259329.996   4402956.7576    666835.5560   4550861.1964   6  15   0.2422   0.0872   0.1565   0.1401   0.1099   0.1864   0.00    0.0   -0.02440   -0.02402   -0.06955   0.00000  0.00000  0.00000  0.00000  0.00000  0.00000
2268 259330.996   4402956.7701    666835.5596   4550861.2054   6  16   0.2371   0.0856   0.1541   0.1373   0.1080   0.1828   0.00    0.0    0.01286   -0.02227   -0.04641   0.00000  0.00000  0.00000  0.00000  0.00000  0.00000
2268 259331.996   4402956.7807    666835.5654   4550861.2105   6  16   0.2318   0.0840   0.1515   0.1345   0.1061   0.1790   0.00    0.0    0.08405   -0.00530   -0.01015   0.00000  0.00000  0.00000  0.00000  0.00000  0.00000
2268 259332.996   4402956.7959    666835.5713   4550861.2183   6  16   0.2264   0.0825   0.1489   0.1315   0.1039   0.1752   0.00    0.0    0.04262   -0.01130   -0.00463   0.00000  0.00000  0.00000  0.00000  0.00000  0.00000
2268 259333.996   4402956.8023    666835.5751   4550861.2232   6  16   0.2209   0.0809   0.1463   0.1285   0.1017   0.1714   0.00    0.0   -0.01105   -0.01188   -0.06890   0.00000  0.00000  0.00000  0.00000  0.00000  0.00000
2268 259334.996   4402956.8293    666835.5834   4550861.2359   6  16   0.2154   0.0791   0.1436   0.1254   0.0996   0.1675   0.00    0.0    0.05925   -0.00049    0.03143   0.00000  0.00000  0.00000  0.00000  0.00000  0.00000
2268 259335.996   4402956.8373    666835.5869   4550861.2423   6  16   0.2098   0.0773   0.1410   0.1222   0.0974   0.1636   0.00    0.0    0.02001    0.01802   -0.05023   0.00000  0.00000  0.00000  0.00000  0.00000  0.00000
2268 259336.996   4402956.8522    666835.5924   4550861.2535   6  16   0.2043   0.0755   0.1385   0.1192   0.0952   0.1597   0.00    0.0    0.00400   -0.06250   -0.03622   0.00000  0.00000  0.00000  0.00000  0.00000  0.00000
2268 259337.996   4402956.8742    666835.5989   4550861.2682   6  16   0.1987   0.0738   0.1358   0.1160   0.0930   0.1559   0.00    0.0    0.03415   -0.00083    0.01982   0.00000  0.00000  0.00000  0.00000  0.00000  0.00000
2268 259338.996   4402956.9043    666835.6102   4550861.2821   6  16   0.1931   0.0720   0.1332   0.1128   0.0909   0.1521   0.00    0.0    0.01976   -0.00473   -0.03715   0.00000  0.00000  0.00000  0.00000  0.00000  0.00000
2268 259339.996   4402956.9282    666835.6187   4550861.2940   6  16   0.1877   0.0703   0.1308   0.1098   0.0886   0.1483   0.00    0.0   -0.00440   -0.02867   -0.04967   0.00000  0.00000  0.00000  0.00000  0.00000  0.00000
2268 259340.996   4402956.9378    666835.6245   4550861.3039   6  16   0.1824   0.0685   0.1284   0.1067   0.0865   0.1446   0.00    0.0    0.01732   -0.02839   -0.05939   0.00000  0.00000  0.00000  0.00000  0.00000  0.00000
2268 259341.996   4402956.9526    666835.6273   4550861.3085   6  16   0.1772   0.0669   0.1260   0.1036   0.0844   0.1409   0.00    0.0   -0.03624   -0.04377   -0.07783   0.00000  0.00000  0.00000  0.00000  0.00000  0.00000
2268 259342.996   4402956.9657    666835.6310   4550861.3133   6  16   0.1722   0.0652   0.1237   0.1006   0.0825   0.1374   0.00    0.0   -0.00209   -0.00394   -0.02524   0.00000  0.00000  0.00000  0.00000  0.00000  0.00000
2268 259343.996   4402956.9745    666835.6366   4550861.3178   6  16   0.1672   0.0634   0.1214   0.0978   0.0804   0.1340   0.00    0.0    0.02163   -0.02475   -0.03731   0.00000  0.00000  0.00000  0.00000  0.00000  0.00000
2268 259344.996   4402956.9873    666835.6421   4550861.3219   6  16   0.1624   0.0615   0.1192   0.0950   0.0783   0.1307   0.00    0.0    0.02540   -0.01200   -0.01963   0.00000  0.00000  0.00000  0.00000  0.00000  0.00000
2268 259345.996   4402957.0016    666835.6500   4550861.3287   6  16   0.1578   0.0602   0.1173   0.0922   0.0765   0.1274   0.00    0.0   -0.01870    0.00197   -0.07212   0.00000  0.00000  0.00000  0.00000  0.00000  0.00000
2268 259346.996   4402957.0124    666835.6553   4550861.3348   6  16   0.1533   0.0583   0.1152   0.0896   0.0745   0.1244   0.00    0.0   -0.00541   -0.00376   -0.03642   0.00000  0.00000  0.00000  0.00000  0.00000  0.00000
2268 259347.996   4402957.0186    666835.6592   4550861.3386   6  16   0.1490   0.0572   0.1132   0.0870   0.0727   0.1215   0.00    0.0    0.03110   -0.01147   -0.04163   0.00000  0.00000  0.00000  0.00000  0.00000  0.00000
2268 259348.996   4402957.0323    666835.6652   4550861.3485   6  16   0.1449   0.0557   0.1112   0.0845   0.0710   0.1186   0.00    0.0    0.03473   -0.00381   -0.05751   0.00000  0.00000  0.00000  0.00000  0.00000  0.00000
2268 259349.996   4402957.0346    666835.6665   4550861.3540   6  16   0.1409   0.0542   0.1097   0.0822   0.0695   0.1160   0.00    0.0    0.02706   -0.02827   -0.07445   0.00000  0.00000  0.00000  0.00000  0.00000  0.00000
2268 259350.996   4402957.0457    666835.6700   4550861.3569   6  16   0.1371   0.0531   0.1078   0.0800   0.0676   0.1134   0.00    0.0    0.00173   -0.03542   -0.04429   0.00000  0.00000  0.00000  0.00000  0.00000  0.00000
2268 259351.996   4402957.0603    666835.6775   4550861.3678   6  16   0.1335   0.0517   0.1063   0.0777   0.0661   0.1109   0.00    0.0   -0.00594   -0.02126   -0.04186   0.00000  0.00000  0.00000  0.00000  0.00000  0.00000
2268 259352.996   4402957.0691    666835.6794   4550861.3756   6  16   0.1302   0.0501   0.1047   0.0757   0.0647   0.1085   0.00    0.0   -0.02704   -0.03937   -0.02067   0.00000  0.00000  0.00000  0.00000  0.00000  0.00000
2268 259353.996   4402957.0777    666835.6852   4550861.3765   6  16   0.1269   0.0493   0.1033   0.0736   0.0633   0.1062   0.00    0.0    0.01461   -0.02578   -0.03523   0.00000  0.00000  0.00000  0.00000  0.00000  0.00000
2268 259354.996   4402957.0955    666835.6927   4550861.3888   6  16   0.1236   0.0480   0.1018   0.0717   0.0619   0.1041   0.00    0.0   -0.01745   -0.02537   -0.04704   0.00000  0.00000  0.00000  0.00000  0.00000  0.00000
2268 259355.996   4402957.1082    666835.7006   4550861.3975   6  16   0.1208   0.0469   0.1006   0.0698   0.0606   0.1021   0.00    0.0    0.02867   -0.01137   -0.02153   0.00000  0.00000  0.00000  0.00000  0.00000  0.00000
2268 259356.996   4402957.1193    666835.7071   4550861.4035   6  16   0.1177   0.0462   0.0992   0.0680   0.0593   0.1001   0.00    0.0   -0.00128   -0.03010   -0.02737   0.00000  0.00000  0.00000  0.00000  0.00000  0.00000
2268 259357.996   4402957.1248    666835.7108   4550861.4057   6  16   0.1151   0.0445   0.0981   0.0664   0.0581   0.0983   0.00    0.0    0.01313   -0.01972   -0.04869   0.00000  0.00000  0.00000  0.00000  0.00000  0.00000
2268 259358.996   4402957.1297    666835.7101   4550861.4060   6  16   0.1125   0.0436   0.0969   0.0647   0.0569   0.0965   0.00    0.0    0.04231    0.00359   -0.02165   0.00000  0.00000  0.00000  0.00000  0.00000  0.00000
2268 259359.996   4402957.1305    666835.7118   4550861.4102   6  16   0.1100   0.0427   0.0957   0.0631   0.0556   0.0950   0.00    0.0   -0.03026   -0.02690   -0.06446   0.00000  0.00000  0.00000  0.00000  0.00000  0.00000
2268 259360.996   4402957.1331    666835.7120   4550861.4038   6  16   0.1077   0.0418   0.0946   0.0617   0.0547   0.0933   0.00    0.0    0.04982   -0.03162   -0.05259   0.00000  0.00000  0.00000  0.00000  0.00000  0.00000
2268 259361.996   4402957.1267    666835.7125   4550861.4049   6  16   0.1055   0.0411   0.0937   0.0603   0.0537   0.0917   0.00    0.0   -0.01475    0.00881   -0.05168   0.00000  0.00000  0.00000  0.00000  0.00000  0.00000
2268 259362.996   4402957.1273    666835.7147   4550861.4045   6  16   0.1033   0.0403   0.0926   0.0590   0.0528   0.0903   0.00    0.0   -0.00641   -0.01931   -0.06587   0.00000  0.00000  0.00000  0.00000  0.00000  0.00000
2268 259363.996   4402957.1260    666835.7121   4550861.4037   6  16   0.1012   0.0394   0.0917   0.0576   0.0518   0.0890   0.00    0.0    0.00328   -0.05004   -0.01831   0.00000  0.00000  0.00000  0.00000  0.00000  0.00000
2268 259375.000   4402957.1256    666835.6957   4550861.3538   6  16   0.1017   0.0406   0.0955   0.0526   0.0536   0.0832   0.00    0.0   -0.02946   -0.02148   -0.02851   0.00000  0.00000  0.00000  0.00000  0.00000  0.00000
2268 259376.000   4402957.1210    666835.6975   4550861.3527   6  16   0.1001   0.0377   0.0919   0.0521   0.0503   0.0828   0.00    0.0    0.00138   -0.01808   -0.04061   0.00000  0.00000  0.00000  0.00000  0.00000  0.00000
2268 259377.000   4402957.1237    666835.6942   4550861.3448   6  16   0.0987   0.0361   0.0904   0.0509   0.0485   0.0821   0.00    0.0    0.01739   -0.03224   -0.03725   0.00000  0.00000  0.00000  0.00000  0.00000  0.00000
2268 259378.000   4402957.1238    666835.6913   4550861.3372   6  16   0.0977   0.0348   0.0891   0.0501   0.0472   0.0814   0.00    0.0   -0.05790   -0.02368   -0.09955   0.00000  0.00000  0.00000  0.00000  0.00000  0.00000
2268 259379.000   4402957.1310    666835.6942   4550861.3405   6  16   0.0967   0.0339   0.0883   0.0492   0.0461   0.0807   0.00    0.0    0.02463   -0.03301   -0.01390   0.00000  0.00000  0.00000  0.00000  0.00000  0.00000
2268 259380.000   4402957.1322    666835.6958   4550861.3351   6  16   0.0959   0.0332   0.0875   0.0485   0.0452   0.0800   0.00    0.0    0.00249    0.00231   -0.00518   0.00000  0.00000  0.00000  0.00000  0.00000  0.00000
2268 259381.000   4402957.1399    666835.6998   4550861.3347   6  16   0.0952   0.0325   0.0869   0.0477   0.0445   0.0794   0.00    0.0    0.05615    0.02234    0.02231   0.00000  0.00000  0.00000  0.00000  0.00000  0.00000
2268 259382.000   4402957.1419    666835.6975   4550861.3272   6  17   0.0945   0.0320   0.0865   0.0470   0.0436   0.0789   0.00    0.0    0.01423   -0.01636   -0.01598   0.00000  0.00000  0.00000  0.00000  0.00000  0.00000
2268 259383.000   4402957.1488    666835.6997   4550861.3233   6  17   0.0940   0.0310   0.0861   0.0464   0.0432   0.0785   0.00    0.0   -0.00736    0.00613   -0.06053   0.00000  0.00000  0.00000  0.00000  0.00000  0.00000
2268 259384.000   4402957.1484    666835.6969   4550861.3175   6  17   0.0934   0.0301   0.0860   0.0457   0.0425   0.0780   0.00    0.0    0.02189    0.00613    0.00565   0.00000  0.00000  0.00000  0.00000  0.00000  0.00000
2268 259385.000   4402957.1527    666835.6975   4550861.3138   6  17   0.0928   0.0299   0.0854   0.0454   0.0421   0.0776   0.00    0.0    0.04643   -0.03620   -0.04806   0.00000  0.00000  0.00000  0.00000  0.00000  0.00000
2268 259386.000   4402957.1503    666835.6956   4550861.3054   6  17   0.0924   0.0293   0.0851   0.0452   0.0417   0.0773   0.00    0.0    0.04164    0.00913   -0.00116   0.00000  0.00000  0.00000  0.00000  0.00000  0.00000
2268 259387.000   4402957.1529    666835.6931   4550861.3018   6  17   0.0919   0.0289   0.0848   0.0446   0.0412   0.0770   0.00    0.0   -0.02379   -0.00581   -0.02499   0.00000  0.00000  0.00000  0.00000  0.00000  0.00000
2268 259388.000   4402957.1534    666835.6942   4550861.2952   6  17   0.0917   0.0283   0.0845   0.0441   0.0406   0.0766   0.00    0.0    0.01718   -0.00989   -0.02245   0.00000  0.00000  0.00000  0.00000  0.00000  0.00000
2268 259389.000   4402957.1549    666835.6944   4550861.2920   6  17   0.0913   0.0278   0.0842   0.0437   0.0405   0.0762   0.00    0.0    0.01357   -0.00380   -0.01683   0.00000  0.00000  0.00000  0.00000  0.00000  0.00000
2268 259390.000   4402957.1597    666835.6928   4550861.2904   6  17   0.0909   0.0280   0.0841   0.0435   0.0404   0.0761   0.00    0.0    0.03623   -0.01556   -0.00450   0.00000  0.00000  0.00000  0.00000  0.00000  0.00000
2268 259391.000   4402957.1620    666835.6917   4550861.2842   6  17   0.0906   0.0274   0.0838   0.0432   0.0397   0.0758   0.00    0.0    0.03346   -0.02291   -0.01593   0.00000  0.00000  0.00000  0.00000  0.00000  0.00000
2268 259392.000   4402957.1611    666835.6904   4550861.2821   6  17   0.0901   0.0270   0.0838   0.0428   0.0394   0.0756   0.00    0.0    0.03573   -0.00235    0.01014   0.00000  0.00000  0.00000  0.00000  0.00000  0.00000
2268 259393.000   4402957.1646    666835.6885   4550861.2773   6  17   0.0898   0.0271   0.0835   0.0426   0.0395   0.0755   0.00    0.0    0.01916    0.00357   -0.02610   0.00000  0.00000  0.00000  0.00000  0.00000  0.00000
2268 259394.000   4402957.1608    666835.6876   4550861.2698   6  17   0.0896   0.0265   0.0833   0.0422   0.0392   0.0752   0.00    0.0   -0.01871   -0.02615   -0.08166   0.00000  0.00000  0.00000  0.00000  0.00000  0.00000
2268 259395.000   4402957.1625    666835.6827   4550861.2665   6  17   0.0892   0.0258   0.0833   0.0421   0.0391   0.0749   0.00    0.0    0.00716   -0.01472   -0.06224   0.00000  0.00000  0.00000  0.00000  0.00000  0.00000
2268 259396.000   4402957.1646    666835.6860   4550861.2651   6  17   0.0888   0.0262   0.0832   0.0417   0.0388   0.0748   0.00    0.0    0.02291   -0.00162    0.00516   0.00000  0.00000  0.00000  0.00000  0.00000  0.00000
2268 259397.000   4402957.1718    666835.6860   4550861.2647   6  17   0.0885   0.0258   0.0829   0.0417   0.0385   0.0746   0.00    0.0    0.03083   -0.03522   -0.05564   0.00000  0.00000  0.00000  0.00000  0.00000  0.00000
2268 259398.000   4402957.1696    666835.6835   4550861.2600   6  17   0.0880   0.0256   0.0826   0.0413   0.0382   0.0745   0.00    0.0    0.00053   -0.03391   -0.01050   0.00000  0.00000  0.00000  0.00000  0.00000  0.00000
2268 259399.000   4402957.1751    666835.6829   4550861.2582   6  17   0.0877   0.0254   0.0824   0.0409   0.0382   0.0742   0.00    0.0    0.02561   -0.01865    0.00134   0.00000  0.00000  0.00000  0.00000  0.00000  0.00000
2268 259400.000   4402957.1764    666835.6790   4550861.2549   6  17   0.0874   0.0254   0.0824   0.0411   0.0382   0.0739   0.00    0.0    0.01147   -0.03343   -0.05382   0.00000  0.00000  0.00000  0.00000  0.00000  0.00000
2268 259401.000   4402957.1830    666835.6803   4550861.2567   6  17   0.0868   0.0246   0.0822   0.0407   0.0379   0.0739   0.00    0.0    0.02515    0.02827   -0.01943   0.00000  0.00000  0.00000  0.00000  0.00000  0.00000
2268 259402.000   4402957.1826    666835.6804   4550861.2532   6  17   0.0865   0.0249   0.0819   0.0405   0.0380   0.0736   0.00    0.0    0.02641   -0.00791   -0.01246   0.00000  0.00000  0.00000  0.00000  0.00000  0.00000
2268 259403.000   4402957.1844    666835.6760   4550861.2483   6  17   0.0862   0.0243   0.0819   0.0403   0.0378   0.0732   0.00    0.0    0.00899   -0.00744   -0.04062   0.00000  0.00000  0.00000  0.00000  0.00000  0.00000
2268 259404.000   4402957.1900    666835.6775   4550861.2519   6  17   0.0856   0.0243   0.0816   0.0401   0.0375   0.0731   0.00    0.0    0.04377    0.01073   -0.03263   0.00000  0.00000  0.00000  0.00000  0.00000  0.00000
2268 259405.000   4402957.1933    666835.6749   4550861.2534   6  17   0.0852   0.0242   0.0814   0.0401   0.0375   0.0729   0.00    0.0    0.01045   -0.00846   -0.04083   0.00000  0.00000  0.00000  0.00000  0.00000  0.00000
2268 259406.000   4402957.2025    666835.6775   4550861.2592   6  17   0.0846   0.0243   0.0811   0.0398   0.0371   0.0726   0.00    0.0    0.03178   -0.00221    0.01199   0.00000  0.00000  0.00000  0.00000  0.00000  0.00000
2268 259407.000   4402957.2061    666835.6746   4550861.2615   6  17   0.0842   0.0237   0.0811   0.0394   0.0373   0.0723   0.00    0.0    0.00107   -0.01982   -0.05269   0.00000  0.00000  0.00000  0.00000  0.00000  0.00000
2268 259408.000   4402957.2098    666835.6749   4550861.2653   6  17   0.0835   0.0239   0.0807   0.0392   0.0369   0.0722   0.00    0.0    0.02090    0.00676   -0.05563   0.00000  0.00000  0.00000  0.00000  0.00000  0.00000
2268 259409.000   4402957.2134    666835.6769   4550861.2702   6  17   0.0831   0.0235   0.0804   0.0393   0.0368   0.0717   0.00    0.0    0.00339   -0.02737   -0.04388   0.00000  0.00000  0.00000  0.00000  0.00000  0.00000
2268 259410.000   4402957.2211    666835.6767   4550861.2780   6  17   0.0826   0.0238   0.0801   0.0389   0.0366   0.0713   0.00    0.0    0.02988    0.00850    0.01070   0.00000  0.00000  0.00000  0.00000  0.00000  0.00000
2268 259411.000   4402957.2321    666835.6802   4550861.2865   6  17   0.0820   0.0237   0.0797   0.0388   0.0366   0.0710   0.00    0.0    0.03498    0.00606    0.00388   0.00000  0.00000  0.00000  0.00000  0.00000  0.00000
2268 259412.000   4402957.2350    666835.6781   4550861.2883   6  17   0.0814   0.0238   0.0793   0.0385   0.0365   0.0707   0.00    0.0    0.00747    0.00053   -0.01115   0.00000  0.00000  0.00000  0.00000  0.00000  0.00000
2268 259413.000   4402957.2490    666835.6825   4550861.3028   6  17   0.0807   0.0233   0.0790   0.0383   0.0357   0.0703   0.00    0.0   -0.00107    0.00878   -0.01066   0.00000  0.00000  0.00000  0.00000  0.00000  0.00000
2268 259414.000   4402957.2589    666835.6802   4550861.3102   6  17   0.0800   0.0232   0.0786   0.0377   0.0359   0.0699   0.00    0.0   -0.01189    0.00870   -0.04849   0.00000  0.00000  0.00000  0.00000  0.00000  0.00000
2268 259415.000   4402957.2683    666835.6810   4550861.3216   6  17   0.0794   0.0232   0.0784   0.0377   0.0356   0.0693   0.00    0.0   -0.00971   -0.03124   -0.05079   0.00000  0.00000  0.00000  0.00000  0.00000  0.00000
2268 259416.000   4402957.2808    666835.6849   4550861.3374   6  17   0.0787   0.0232   0.0779   0.0374   0.0354   0.0689   0.00    0.0    0.02472   -0.03076   -0.03594   0.00000  0.00000  0.00000  0.00000  0.00000  0.00000
2268 259417.000   4402957.2943    666835.6856   4550861.3513   6  17   0.0780   0.0227   0.0776   0.0371   0.0352   0.0686   0.00    0.0    0.01395    0.00207   -0.00761   0.00000  0.00000  0.00000  0.00000  0.00000  0.00000
2268 259418.000   4402957.2964    666835.6859   4550861.3586   6  17   0.0773   0.0220   0.0771   0.0368   0.0350   0.0680   0.00    0.0    0.02350   -0.02200    0.00228   0.00000  0.00000  0.00000  0.00000  0.00000  0.00000
2268 259419.000   4402957.3106    666835.6906   4550861.3768   6  17   0.0766   0.0226   0.0765   0.0367   0.0349   0.0675   0.00    0.0   -0.00313   -0.00095   -0.01550   0.00000  0.00000  0.00000  0.00000  0.00000  0.00000
2268 259420.000   4402957.3223    666835.6903   4550861.3877   6  17   0.0759   0.0218   0.0758   0.0363   0.0346   0.0669   0.00    0.0    0.02478   -0.00364    0.00795   0.00000  0.00000  0.00000  0.00000  0.00000  0.00000
2268 259421.000   4402957.3431    666835.6941   4550861.4117   6  17   0.0751   0.0219   0.0755   0.0360   0.0341   0.0664   0.00    0.0    0.05288    0.00863    0.03036   0.00000  0.00000  0.00000  0.00000  0.00000  0.00000
2268 259422.000   4402957.3535    666835.6969   4550861.4216   6  17   0.0744   0.0220   0.0751   0.0357   0.0343   0.0659   0.00    0.0   -0.01268    0.00046   -0.03365   0.00000  0.00000  0.00000  0.00000  0.00000  0.00000
2268 259423.000   4402957.3718    666835.7028   4550861.4439   6  17   0.0738   0.0219   0.0746   0.0355   0.0336   0.0652   0.00    0.0   -0.00362   -0.00553   -0.04315   0.00000  0.00000  0.00000  0.00000  0.00000  0.00000
2268 259424.000   4402957.3876    666835.7004   4550861.4627   6  17   0.0729   0.0216   0.0738   0.0350   0.0335   0.0646   0.00    0.0    0.00965   -0.03360    0.04657   0.00000  0.00000  0.00000  0.00000  0.00000  0.00000
2268 259425.000   4402957.3989    666835.7060   4550861.4752   6  17   0.0721   0.0215   0.0732   0.0347   0.0333   0.0640   0.00    0.0    0.00245   -0.03630   -0.04957   0.00000  0.00000  0.00000  0.00000  0.00000  0.00000
2268 259426.000   4402957.4165    666835.7115   4550861.4976   6  17   0.0713   0.0214   0.0726   0.0342   0.0332   0.0634   0.00    0.0    0.07873    0.00900    0.04368   0.00000  0.00000  0.00000  0.00000  0.00000  0.00000
2268 259427.000   4402957.4263    666835.7110   4550861.5125   6  17   0.0704   0.0207   0.0723   0.0341   0.0329   0.0628   0.00    0.0   -0.00931   -0.02397   -0.02707   0.00000  0.00000  0.00000  0.00000  0.00000  0.00000
2268 259428.000   4402957.4361    666835.7124   4550861.5234   6  17   0.0696   0.0206   0.0714   0.0340   0.0323   0.0620   0.00    0.0   -0.01307   -0.03229   -0.00549   0.00000  0.00000  0.00000  0.00000  0.00000  0.00000
2268 259429.000   4402957.4545    666835.7190   4550861.5455   6  17   0.0688   0.0220   0.0709   0.0334   0.0324   0.0615   0.00    0.0    0.02781    0.02224    0.02141   0.00000  0.00000  0.00000  0.00000  0.00000  0.00000
2268 259430.000   4402957.4711    666835.7241   4550861.5668   6  17   0.0679   0.0208   0.0702   0.0331   0.0313   0.0607   0.00    0.0    0.00697    0.00375   -0.00237   0.00000  0.00000  0.00000  0.00000  0.00000  0.00000
2268 259431.000   4402957.4836    666835.7272   4550861.5816   6  17   0.0672   0.0205   0.0695   0.0326   0.0314   0.0601   0.00    0.0    0.02222   -0.00286   -0.03720   0.00000  0.00000  0.00000  0.00000  0.00000  0.00000
2268 259432.000   4402957.4979    666835.7318   4550861.6050   6  17   0.0663   0.0204   0.0687   0.0328   0.0310   0.0594   0.00    0.0    0.02948    0.01591    0.02899   0.00000  0.00000  0.00000  0.00000  0.00000  0.00000
2268 259433.000   4402957.5174    666835.7374   4550861.6212   6  17   0.0656   0.0203   0.0686   0.0321   0.0308   0.0587   0.00    0.0    0.00585    0.02519   -0.05681   0.00000  0.00000  0.00000  0.00000  0.00000  0.00000
2268 259434.000   4402957.5307    666835.7399   4550861.6405   6  17   0.0649   0.0205   0.0673   0.0319   0.0306   0.0579   0.00    0.0   -0.01571   -0.01453   -0.04376   0.00000  0.00000  0.00000  0.00000  0.00000  0.00000
2268 259435.000   4402957.5432    666835.7452   4550861.6583   6  17   0.0641   0.0198   0.0668   0.0317   0.0299   0.0572   0.00    0.0   -0.00409   -0.00094   -0.03808   0.00000  0.00000  0.00000  0.00000  0.00000  0.00000
2268 259436.000   4402957.5632    666835.7487   4550861.6845   6  17   0.0631   0.0194   0.0661   0.0307   0.0294   0.0566   0.00    0.0    0.04552    0.00774    0.02287   0.00000  0.00000  0.00000  0.00000  0.00000  0.00000
2268 259437.000   4402957.5768    666835.7565   4550861.6884   6  15   0.0632   0.0201   0.0687   0.0303   0.0283   0.0574   0.00    0.0    0.01337   -0.01231   -0.02100   0.00000  0.00000  0.00000  0.00000  0.00000  0.00000
2268 259438.000   4402957.5937    666835.7596   4550861.7100   6  15   0.0628   0.0202   0.0681   0.0300   0.0279   0.0568   0.00    0.0    0.01062    0.00075   -0.07484   0.00000  0.00000  0.00000  0.00000  0.00000  0.00000
2268 259439.000   4402957.6029    666835.7524   4550861.7257   6  15   0.0623   0.0200   0.0674   0.0299   0.0277   0.0563   0.00    0.0    0.03499   -0.02052    0.00046   0.00000  0.00000  0.00000  0.00000  0.00000  0.00000
2268 259440.000   4402957.6206    666835.7597   4550861.7411   6  15   0.0618   0.0198   0.0671   0.0297   0.0275   0.0558   0.00    0.0    0.03414   -0.00749   -0.03290   0.00000  0.00000  0.00000  0.00000  0.00000  0.00000
2268 259441.000   4402957.6292    666835.7621   4550861.7522   6  15   0.0613   0.0196   0.0664   0.0294   0.0273   0.0551   0.00    0.0    0.01332   -0.01711   -0.07718   0.00000  0.00000  0.00000  0.00000  0.00000  0.00000
2268 259442.000   4402957.6458    666835.7699   4550861.7688   6  15   0.0608   0.0196   0.0659   0.0291   0.0270   0.0546   0.00    0.0    0.03293    0.02934    0.01413   0.00000  0.00000  0.00000  0.00000  0.00000  0.00000
2268 259443.000   4402957.6556    666835.7728   4550861.7768   6  15   0.0602   0.0194   0.0651   0.0287   0.0267   0.0541   0.00    0.0    0.02551    0.02200    0.02379   0.00000  0.00000  0.00000  0.00000  0.00000  0.00000
2268 259444.000   4402957.6733    666835.7757   4550861.8014   6  15   0.0597   0.0192   0.0647   0.0286   0.0261   0.0534   0.00    0.0    0.00345   -0.01836    0.04887   0.00000  0.00000  0.00000  0.00000  0.00000  0.00000
2268 259445.000   4402957.6905    666835.7792   4550861.8159   6  15   0.0592   0.0192   0.0641   0.0283   0.0261   0.0529   0.00    0.0   -0.00005   -0.02183   -0.08906   0.00000  0.00000  0.00000  0.00000  0.00000  0.00000
2268 259446.000   4402957.7069    666835.7825   4550861.8374   6  15   0.0587   0.0191   0.0637   0.0283   0.0258   0.0524   0.00    0.0   -0.02289    0.00669   -0.01577   0.00000  0.00000  0.00000  0.00000  0.00000  0.00000
2268 259447.000   4402957.7144    666835.7862   4550861.8471   6  15   0.0581   0.0193   0.0633   0.0280   0.0254   0.0518   0.00    0.0   -0.02715   -0.02556   -0.02020   0.00000  0.00000  0.00000  0.00000  0.00000  0.00000
2268 259448.000   4402957.7279    666835.7899   4550861.8586   6  15   0.0577   0.0191   0.0627   0.0279   0.0252   0.0512   0.00    0.0   -0.01728   -0.01797   -0.12468   0.00000  0.00000  0.00000  0.00000  0.00000  0.00000
2268 259449.000   4402957.7453    666835.7880   4550861.8901   6  15   0.0571   0.0188   0.0620   0.0275   0.0249   0.0506   0.00    0.0    0.02059    0.02568    0.01864   0.00000  0.00000  0.00000  0.00000  0.00000  0.00000
2268 259450.000   4402957.7586    666835.7909   4550861.9053   6  15   0.0566   0.0186   0.0612   0.0272   0.0246   0.0501   0.00    0.0    0.01969    0.00169    0.01090   0.00000  0.00000  0.00000  0.00000  0.00000  0.00000
2268 259451.000   4402957.7648    666835.7957   4550861.9059   6  15   0.0561   0.0190   0.0611   0.0271   0.0244   0.0495   0.00    0.0    0.01123   -0.02410    0.07030   0.00000  0.00000  0.00000  0.00000  0.00000  0.00000
2268 259452.000   4402957.7699    666835.8028   4550861.9061   6  15   0.0555   0.0189   0.0605   0.0268   0.0242   0.0489   0.00    0.0   -0.03556   -0.02592   -0.06659   0.00000  0.00000  0.00000  0.00000  0.00000  0.00000
2268 259453.000   4402957.7801    666835.7981   4550861.9260   6  15   0.0552   0.0185   0.0600   0.0262   0.0238   0.0484   0.00    0.0    0.04403    0.02211    0.05378   0.00000  0.00000  0.00000  0.00000  0.00000  0.00000
2268 259454.000   4402957.7866    666835.8026   4550861.9287   6  15   0.0546   0.0188   0.0596   0.0263   0.0238   0.0480   0.00    0.0    0.02890    0.01229    0.00548   0.00000  0.00000  0.00000  0.00000  0.00000  0.00000
2268 259455.000   4402957.7936    666835.8048   4550861.9395   6  15   0.0540   0.0181   0.0592   0.0262   0.0235   0.0473   0.00    0.0    0.01267   -0.01307   -0.00149   0.00000  0.00000  0.00000  0.00000  0.00000  0.00000
2268 259456.000   4402957.8066    666835.8089   4550861.9514   6  15   0.0536   0.0188   0.0587   0.0257   0.0233   0.0466   0.00    0.0   -0.01122   -0.00343   -0.06565   0.00000  0.00000  0.00000  0.00000  0.00000  0.00000
2268 259457.000   4402957.8194    666835.8104   4550861.9705   6  15   0.0532   0.0183   0.0579   0.0260   0.0230   0.0462   0.00    0.0    0.03725    0.02059    0.01949   0.00000  0.00000  0.00000  0.00000  0.00000  0.00000
2268 259458.000   4402957.8241    666835.8130   4550861.9754   6  15   0.0526   0.0180   0.0576   0.0256   0.0221   0.0457   0.00    0.0    0.00775   -0.01210    0.04654   0.00000  0.00000  0.00000  0.00000  0.00000  0.00000
2268 259459.000   4402957.8306    666835.8121   4550861.9811   6  15   0.0523   0.0183   0.0570   0.0252   0.0223   0.0452   0.00    0.0   -0.00841    0.00286   -0.07245   0.00000  0.00000  0.00000  0.00000  0.00000  0.00000
2268 259460.000   4402957.8422    666835.8181   4550861.9961   6  15   0.0517   0.0177   0.0565   0.0251   0.0217   0.0445   0.00    0.0    0.02163    0.00766   -0.05011   0.00000  0.00000  0.00000  0.00000  0.00000  0.00000
2268 259461.000   4402957.8555    666835.8177   4550862.0180   6  15   0.0513   0.0177   0.0560   0.0248   0.0214   0.0441   0.00    0.0    0.00633    0.00058    0.04873   0.00000  0.00000  0.00000  0.00000  0.00000  0.00000
2268 259462.000   4402957.8565    666835.8238   4550862.0106   6  15   0.0507   0.0175   0.0557   0.0249   0.0216   0.0436   0.00    0.0   -0.07222   -0.03325   -0.10090   0.00000  0.00000  0.00000  0.00000  0.00000  0.00000
2268 259463.000   4402957.8647    666835.8259   4550862.0200   6  15   0.0503   0.0177   0.0552   0.0245   0.0211   0.0431   0.00    0.0    0.00517   -0.00038    0.01122   0.00000  0.00000  0.00000  0.00000  0.00000  0.00000
2268 259464.000   4402957.8761    666835.8257   4550862.0393   6  15   0.0499   0.0175   0.0549   0.0243   0.0210   0.0426   0.00    0.0   -0.00338   -0.01166   -0.04957   0.00000  0.00000  0.00000  0.00000  0.00000  0.00000
2268 259465.000   4402957.8812    666835.8297   4550862.0409   6  15   0.0493   0.0170   0.0545   0.0240   0.0207   0.0422   0.00    0.0   -0.04630   -0.03569   -0.02754   0.00000  0.00000  0.00000  0.00000  0.00000  0.00000
2268 259466.000   4402957.8942    666835.8286   4550862.0644   6  15   0.0490   0.0177   0.0541   0.0238   0.0208   0.0416   0.00    0.0    0.01279    0.00392   -0.01378   0.00000  0.00000  0.00000  0.00000  0.00000  0.00000
2268 259467.000   4402957.8943    666835.8301   4550862.0614   6  15   0.0486   0.0168   0.0539   0.0238   0.0204   0.0409   0.00    0.0    0.02977    0.00069   -0.01722   0.00000  0.00000  0.00000  0.00000  0.00000  0.00000
2268 259468.000   4402957.8969    666835.8359   4550862.0605   6  15   0.0481   0.0168   0.0531   0.0234   0.0202   0.0405   0.00    0.0   -0.01245   -0.01939    0.01092   0.00000  0.00000  0.00000  0.00000  0.00000  0.00000
2268 259469.000   4402957.9067    666835.8372   4550862.0742   6  15   0.0476   0.0171   0.0531   0.0236   0.0198   0.0400   0.00    0.0    0.01409   -0.01386   -0.01068   0.00000  0.00000  0.00000  0.00000  0.00000  0.00000
2268 259470.000   4402957.9062    666835.8352   4550862.0725   6  15   0.0473   0.0167   0.0525   0.0234   0.0197   0.0396   0.00    0.0   -0.02207   -0.01386    0.05108   0.00000  0.00000  0.00000  0.00000  0.00000  0.00000
2268 259471.000   4402957.9145    666835.8369   4550862.0891   6  15   0.0469   0.0169   0.0520   0.0231   0.0197   0.0391   0.00    0.0   -0.02529   -0.03525   -0.00881   0.00000  0.00000  0.00000  0.00000  0.00000  0.00000
2268 259472.000   4402957.9218    666835.8416   4550862.0872   6  15   0.0465   0.0165   0.0518   0.0232   0.0195   0.0385   0.00    0.0    0.00283    0.00024   -0.02380   0.00000  0.00000  0.00000  0.00000  0.00000  0.00000
2268 259473.000   4402957.9305    666835.8426   4550862.1068   6  15   0.0460   0.0168   0.0515   0.0226   0.0189   0.0383   0.00    0.0   -0.02692   -0.00827    0.03733   0.00000  0.00000  0.00000  0.00000  0.00000  0.00000
2268 259474.000   4402957.9317    666835.8454   4550862.0995   6  15   0.0455   0.0166   0.0512   0.0227   0.0185   0.0377   0.00    0.0    0.00910   -0.03047    0.04655   0.00000  0.00000  0.00000  0.00000  0.00000  0.00000
2268 259475.000   4402957.9362    666835.8442   4550862.1092   6  15   0.0454   0.0164   0.0509   0.0224   0.0184   0.0373   0.00    0.0   -0.03355   -0.01200   -0.06173   0.00000  0.00000  0.00000  0.00000  0.00000  0.00000
2268 259476.000   4402957.9419    666835.8467   4550862.1160   6  15   0.0449   0.0166   0.0504   0.0226   0.0183   0.0370   0.00    0.0    0.01668    0.02307    0.10192   0.00000  0.00000  0.00000  0.00000  0.00000  0.00000
2268 259477.000   4402957.9451    666835.8467   4550862.1256   6  15   0.0445   0.0166   0.0500   0.0221   0.0180   0.0365   0.00    0.0    0.01577    0.00870    0.04837   0.00000  0.00000  0.00000  0.00000  0.00000  0.00000
2268 259478.000   4402957.9491    666835.8497   4550862.1246   6  15   0.0441   0.0162   0.0499   0.0215   0.0177   0.0357   0.00    0.0    0.00696   -0.02064   -0.07331   0.00000  0.00000  0.00000  0.00000  0.00000  0.00000
2268 259479.000   4402957.9491    666835.8504   4550862.1204   6  15   0.0438   0.0162   0.0495   0.0221   0.0178   0.0356   0.00    0.0   -0.08395   -0.00186   -0.11523   0.00000  0.00000  0.00000  0.00000  0.00000  0.00000
2268 259480.000   4402957.9574    666835.8506   4550862.1383   6  15   0.0435   0.0160   0.0495   0.0219   0.0172   0.0352   0.00    0.0    0.01871    0.00578    0.07277   0.00000  0.00000  0.00000  0.00000  0.00000  0.00000
2268 259481.000   4402957.9565    666835.8524   4550862.1332   6  15   0.0431   0.0162   0.0491   0.0215   0.0176   0.0347   0.00    0.0    0.00571    0.01809   -0.03969   0.00000  0.00000  0.00000  0.00000  0.00000  0.00000
2268 259482.000   4402957.9627    666835.8536   4550862.1413   6  15   0.0426   0.0163   0.0488   0.0211   0.0174   0.0343   0.00    0.0    0.04611    0.02631    0.10730   0.00000  0.00000  0.00000  0.00000  0.00000  0.00000
2268 259483.000   4402957.9706    666835.8602   4550862.1483   6  15   0.0425   0.0163   0.0481   0.0209   0.0172   0.0338   0.00    0.0    0.02112   -0.00874   -0.01671   0.00000  0.00000  0.00000  0.00000  0.00000  0.00000
2268 259484.000   4402957.9730    666835.8559   4550862.1596   6  15   0.0421   0.0160   0.0480   0.0208   0.0167   0.0335   0.00    0.0   -0.04011   -0.00094   -0.04974   0.00000  0.00000  0.00000  0.00000  0.00000  0.00000
2268 259485.000   4402957.9742    666835.8584   4550862.1594   6  15   0.0415   0.0160   0.0480   0.0206   0.0164   0.0333   0.00    0.0    0.02149   -0.02350    0.02840   0.00000  0.00000  0.00000  0.00000  0.00000  0.00000
2268 259486.000   4402957.9729    666835.8599   4550862.1553   6  15   0.0414   0.0158   0.0474   0.0205   0.0165   0.0327   0.00    0.0    0.05118    0.01486    0.03196   0.00000  0.00000  0.00000  0.00000  0.00000  0.00000
2268 259487.000   4402957.9767    666835.8635   4550862.1595   6  15   0.0412   0.0157   0.0474   0.0204   0.0161   0.0324   0.00    0.0    0.01160    0.02685    0.00078   0.00000  0.00000  0.00000  0.00000  0.00000  0.00000
2268 259488.000   4402957.9799    666835.8564   4550862.1717   6  15   0.0407   0.0157   0.0469   0.0204   0.0159   0.0317   0.00    0.0   -0.01140   -0.00834   -0.04998   0.00000  0.00000  0.00000  0.00000  0.00000  0.00000
2268 259489.000   4402957.9833    666835.8638   4550862.1704   6  15   0.0402   0.0159   0.0467   0.0203   0.0158   0.0316   0.00    0.0    0.02739    0.01478    0.00291   0.00000  0.00000  0.00000  0.00000  0.00000  0.00000
2268 259490.000   4402957.9876    666835.8632   4550862.1764   6  15   0.0400   0.0156   0.0467   0.0200   0.0155   0.0311   0.00    0.0    0.05595    0.00305    0.06789   0.00000  0.00000  0.00000  0.00000  0.00000  0.00000
2268 259491.000   4402957.9873    666835.8624   4550862.1788   6  15   0.0398   0.0152   0.0462   0.0201   0.0150   0.0308   0.00    0.0    0.02021    0.00333    0.04258   0.00000  0.00000  0.00000  0.00000  0.00000  0.00000
2268 259492.000   4402957.9902    666835.8680   4550862.1849   6  15   0.0395   0.0155   0.0462   0.0198   0.0151   0.0303   0.00    0.0    0.05033    0.00495    0.13371   0.00000  0.00000  0.00000  0.00000  0.00000  0.00000
2268 259493.000   4402957.9845    666835.8647   4550862.1686   6  15   0.0391   0.0157   0.0455   0.0194   0.0146   0.0300   0.00    0.0   -0.01759    0.00823   -0.01895   0.00000  0.00000  0.00000  0.00000  0.00000  0.00000
