% program   : GINav v0.1.0
% obs start : 2023/06/28 00:00:20.0
% obs end   : 2023/06/28 01:37:29.0
% mode      : SPP
% system    : GPS GALILEO 
% nfreqs    : 2
% elev mask : 10.0 deg
% ephemeris : broadcast
% ionos opt : iono-free LC
% trops opt : Saastamoinen model
%
%  GPST              x-ecef(m)      y-ecef(m)      z-ecef(m)   Q  ns   sdx(m)   sdy(m)   sdz(m)  sdxy(m)  sdyz(m)  sdzx(m) age(s)  ratio    vx(m/s)    vy(m/s)    vz(m/s)      sdvx     sdvy     sdvz    sdvxy    sdvyz    sdvzx
2268 259219.996   4402957.5914    666835.5400   4550862.1213   5   7   5.1946   2.1109   4.3860   2.2225   1.9373   3.0235   0.00    0.0    0.04895    0.04951    0.07528   0.00000  0.00000  0.00000  0.00000  0.00000  0.00000
2268 259220.996   4402958.2625    666835.6027   4550862.1790   5   9   4.4011   1.9705   4.3624   1.6902   1.8569   2.8252   0.00    0.0   -0.03905   -0.03538   -0.10086   0.00000  0.00000  0.00000  0.00000  0.00000  0.00000
2268 259221.996   4402958.5436    666835.3810   4550862.3086   5  10   3.3860   1.7251   4.2952   0.4241   1.6486   2.4135   0.00    0.0   -0.05180   -0.00218   -0.08619   0.00000  0.00000  0.00000  0.00000  0.00000  0.00000
2268 259222.996   4402959.3177    666835.0482   4550861.3692   5  10   3.3860   1.7252   4.2962   0.4250   1.6491   2.4142   0.00    0.0    0.01488   -0.02654   -0.03344   0.00000  0.00000  0.00000  0.00000  0.00000  0.00000
2268 259223.996   4402959.4769    666835.4489   4550861.8736   5  10   3.3860   1.7253   4.2972   0.4260   1.6495   2.4150   0.00    0.0    0.00395   -0.00513    0.05157   0.00000  0.00000  0.00000  0.00000  0.00000  0.00000
2268 259224.996   4402958.9054    666835.6917   4550862.3066   5  10   3.3860   1.7253   4.2981   0.4269   1.6500   2.4157   0.00    0.0    0.00578    0.01856    0.00999   0.00000  0.00000  0.00000  0.00000  0.00000  0.00000
2268 259225.996   4402959.9225    666835.2709   4550862.8578   5  10   3.3860   1.7254   4.2991   0.4278   1.6504   2.4164   0.00    0.0    0.00885   -0.00176    0.07839   0.00000  0.00000  0.00000  0.00000  0.00000  0.00000
2268 259226.996   4402958.8865    666835.6112   4550862.4808   5  10   3.3860   1.7255   4.3001   0.4288   1.6509   2.4171   0.00    0.0    0.01348    0.00732    0.06658   0.00000  0.00000  0.00000  0.00000  0.00000  0.00000
2268 259227.996   4402958.7581    666835.7841   4550863.1585   5  10   3.3860   1.7255   4.3011   0.4297   1.6513   2.4178   0.00    0.0    0.01122   -0.00091   -0.00090   0.00000  0.00000  0.00000  0.00000  0.00000  0.00000
2268 259228.996   4402958.5046    666836.3911   4550863.4201   5  10   3.3860   1.7256   4.3020   0.4306   1.6518   2.4185   0.00    0.0    0.00794    0.02575   -0.05673   0.00000  0.00000  0.00000  0.00000  0.00000  0.00000
2268 259229.996   4402958.3133    666836.1837   4550863.3541   5  10   3.3860   1.7257   4.3030   0.4316   1.6523   2.4192   0.00    0.0    0.06219   -0.02006    0.02145   0.00000  0.00000  0.00000  0.00000  0.00000  0.00000
2268 259230.996   4402957.7502    666836.5106   4550863.7915   5  10   3.3860   1.7257   4.3040   0.4325   1.6527   2.4200   0.00    0.0   -0.02048    0.00377   -0.01563   0.00000  0.00000  0.00000  0.00000  0.00000  0.00000
2268 259231.996   4402957.8999    666836.2268   4550863.4873   5  10   3.3860   1.7258   4.3050   0.4334   1.6532   2.4207   0.00    0.0    0.02960   -0.01816    0.06114   0.00000  0.00000  0.00000  0.00000  0.00000  0.00000
2268 259232.996   4402958.2383    666836.0291   4550862.8815   5  10   3.3860   1.7259   4.3059   0.4344   1.6536   2.4214   0.00    0.0    0.00794   -0.01649   -0.06227   0.00000  0.00000  0.00000  0.00000  0.00000  0.00000
2268 259233.996   4402958.0739    666835.8458   4550862.3894   5  10   3.3860   1.7260   4.3069   0.4353   1.6541   2.4221   0.00    0.0   -0.06880   -0.02066   -0.02428   0.00000  0.00000  0.00000  0.00000  0.00000  0.00000
2268 259234.996   4402958.1030    666835.7370   4550863.1505   5  10   3.3860   1.7260   4.3079   0.4362   1.6545   2.4228   0.00    0.0   -0.02223   -0.02092   -0.03472   0.00000  0.00000  0.00000  0.00000  0.00000  0.00000
2268 259235.996   4402958.1263    666835.6416   4550862.6828   5  10   3.3861   1.7261   4.3089   0.4371   1.6550   2.4235   0.00    0.0   -0.01117    0.00373   -0.00304   0.00000  0.00000  0.00000  0.00000  0.00000  0.00000
2268 259236.996   4402958.4051    666835.5494   4550862.1763   5  10   3.3861   1.7262   4.3098   0.4380   1.6554   2.4242   0.00    0.0    0.03662    0.01855    0.04486   0.00000  0.00000  0.00000  0.00000  0.00000  0.00000
2268 259237.996   4402958.2488    666835.3640   4550862.2810   5  10   3.3861   1.7262   4.3108   0.4390   1.6559   2.4250   0.00    0.0    0.01227    0.01983   -0.00756   0.00000  0.00000  0.00000  0.00000  0.00000  0.00000
2268 259238.996   4402958.1470    666835.5315   4550862.0576   5  10   3.3861   1.7263   4.3118   0.4399   1.6564   2.4257   0.00    0.0   -0.04677    0.00830   -0.05039   0.00000  0.00000  0.00000  0.00000  0.00000  0.00000
2268 259239.996   4402958.0432    666835.7277   4550862.4236   5  10   3.3861   1.7264   4.3128   0.4408   1.6568   2.4264   0.00    0.0    0.06182   -0.01868    0.00614   0.00000  0.00000  0.00000  0.00000  0.00000  0.00000
2268 259240.996   4402958.0084    666835.6576   4550861.9116   5  10   3.3861   1.7264   4.3137   0.4417   1.6573   2.4271   0.00    0.0    0.03563   -0.01006    0.04109   0.00000  0.00000  0.00000  0.00000  0.00000  0.00000
2268 259241.996   4402958.5177    666835.8528   4550862.7912   5  10   3.3861   1.7265   4.3147   0.4426   1.6577   2.4278   0.00    0.0    0.00893    0.03865    0.02202   0.00000  0.00000  0.00000  0.00000  0.00000  0.00000
2268 259242.996   4402957.9290    666835.7639   4550861.8640   5  10   3.3861   1.7266   4.3157   0.4435   1.6582   2.4285   0.00    0.0   -0.00733    0.00301    0.07268   0.00000  0.00000  0.00000  0.00000  0.00000  0.00000
2268 259243.996   4402958.0782    666835.4762   4550861.3164   5  10   3.3861   1.7267   4.3167   0.4444   1.6586   2.4293   0.00    0.0    0.04648   -0.01671    0.01241   0.00000  0.00000  0.00000  0.00000  0.00000  0.00000
2268 259244.996   4402957.1775    666835.5334   4550860.8439   5  10   3.3861   1.7267   4.3176   0.4453   1.6591   2.4300   0.00    0.0    0.02326    0.01798    0.03185   0.00000  0.00000  0.00000  0.00000  0.00000  0.00000
2268 259245.996   4402956.8227    666835.4888   4550860.7847   5  10   3.3861   1.7268   4.3186   0.4463   1.6596   2.4307   0.00    0.0   -0.00922   -0.03325   -0.05429   0.00000  0.00000  0.00000  0.00000  0.00000  0.00000
2268 259246.996   4402956.7752    666835.7485   4550861.1526   5  10   3.3862   1.7269   4.3196   0.4472   1.6600   2.4314   0.00    0.0   -0.05071   -0.00504    0.00223   0.00000  0.00000  0.00000  0.00000  0.00000  0.00000
2268 259247.996   4402957.0837    666835.9352   4550863.2690   5  10   3.3862   1.7269   4.3206   0.4481   1.6605   2.4321   0.00    0.0    0.02192    0.01757    0.02710   0.00000  0.00000  0.00000  0.00000  0.00000  0.00000
2268 259248.996   4402957.7537    666835.5544   4550863.0827   5  10   3.3862   1.7270   4.3216   0.4490   1.6609   2.4328   0.00    0.0   -0.02827   -0.00342    0.03914   0.00000  0.00000  0.00000  0.00000  0.00000  0.00000
2268 259249.996   4402957.6678    666835.4805   4550862.2460   5  10   3.3862   1.7271   4.3225   0.4499   1.6614   2.4336   0.00    0.0   -0.10810    0.01642   -0.07685   0.00000  0.00000  0.00000  0.00000  0.00000  0.00000
2268 259250.996   4402958.1491    666834.9916   4550861.6378   5  10   3.3862   1.7271   4.3235   0.4508   1.6618   2.4343   0.00    0.0    0.03353    0.03556    0.02161   0.00000  0.00000  0.00000  0.00000  0.00000  0.00000
2268 259251.996   4402958.2452    666835.1797   4550860.6926   5  10   3.3862   1.7272   4.3245   0.4517   1.6623   2.4350   0.00    0.0   -0.01053    0.01783   -0.03865   0.00000  0.00000  0.00000  0.00000  0.00000  0.00000
2268 259252.996   4402958.6529    666835.0135   4550859.5936   5  10   3.3862   1.7273   4.3255   0.4526   1.6628   2.4357   0.00    0.0   -0.06888   -0.04991   -0.10796   0.00000  0.00000  0.00000  0.00000  0.00000  0.00000
2268 259253.996   4402958.4773    666835.1976   4550859.4941   5  10   3.3862   1.7274   4.3265   0.4535   1.6632   2.4364   0.00    0.0    0.07024   -0.00328    0.01872   0.00000  0.00000  0.00000  0.00000  0.00000  0.00000
2268 259254.996   4402957.4542    666835.4883   4550859.0870   5  10   3.3862   1.7274   4.3274   0.4544   1.6637   2.4371   0.00    0.0   -0.03694   -0.00588    0.04108   0.00000  0.00000  0.00000  0.00000  0.00000  0.00000
2268 259255.996   4402957.6627    666835.9062   4550860.1608   5  10   3.3863   1.7275   4.3284   0.4552   1.6641   2.4379   0.00    0.0    0.04743   -0.00670    0.02801   0.00000  0.00000  0.00000  0.00000  0.00000  0.00000
2268 259256.996   4402957.7270    666836.2846   4550860.4368   5  10   3.3863   1.7276   4.3294   0.4561   1.6646   2.4386   0.00    0.0    0.06006    0.00202    0.10356   0.00000  0.00000  0.00000  0.00000  0.00000  0.00000
2268 259257.996   4402957.5802    666836.3488   4550860.3479   5  10   3.3863   1.7276   4.3304   0.4570   1.6651   2.4393   0.00    0.0   -0.05386    0.00424   -0.04959   0.00000  0.00000  0.00000  0.00000  0.00000  0.00000
2268 259258.996   4402958.0800    666835.9556   4550860.6142   5  10   3.3863   1.7277   4.3314   0.4579   1.6655   2.4400   0.00    0.0    0.05029    0.03644    0.03282   0.00000  0.00000  0.00000  0.00000  0.00000  0.00000
2268 259259.996   4402956.9982    666836.1618   4550860.4812   5  10   3.3863   1.7278   4.3323   0.4588   1.6660   2.4407   0.00    0.0   -0.00686   -0.00270   -0.01431   0.00000  0.00000  0.00000  0.00000  0.00000  0.00000
2268 259260.996   4402957.0958    666835.9609   4550860.5135   5  10   3.3863   1.7279   4.3333   0.4597   1.6664   2.4415   0.00    0.0    0.02663    0.01361    0.02036   0.00000  0.00000  0.00000  0.00000  0.00000  0.00000
2268 259261.996   4402956.9719    666835.6741   4550861.4737   5  10   3.3863   1.7279   4.3343   0.4606   1.6669   2.4422   0.00    0.0    0.01164    0.00089    0.02314   0.00000  0.00000  0.00000  0.00000  0.00000  0.00000
2268 259262.996   4402956.5977    666835.4953   4550861.3712   5  10   3.3863   1.7280   4.3353   0.4615   1.6673   2.4429   0.00    0.0    0.04015   -0.04706    0.00137   0.00000  0.00000  0.00000  0.00000  0.00000  0.00000
2268 259263.996   4402956.6261    666835.5548   4550861.1047   5  10   3.3863   1.7281   4.3363   0.4624   1.6678   2.4436   0.00    0.0    0.05858    0.01761    0.02748   0.00000  0.00000  0.00000  0.00000  0.00000  0.00000
2268 259264.996   4402957.4399    666835.1318   4550861.1881   5  10   3.3864   1.7281   4.3373   0.4632   1.6683   2.4443   0.00    0.0   -0.03931   -0.03389   -0.00155   0.00000  0.00000  0.00000  0.00000  0.00000  0.00000
2268 259265.996   4402957.2592    666835.2207   4550860.6901   5  10   3.3864   1.7282   4.3382   0.4641   1.6687   2.4451   0.00    0.0    0.04213   -0.00314   -0.02639   0.00000  0.00000  0.00000  0.00000  0.00000  0.00000
2268 259266.996   4402957.0407    666835.0742   4550860.5757   5  10   3.3864   1.7283   4.3392   0.4650   1.6692   2.4458   0.00    0.0   -0.03812   -0.01247   -0.09659   0.00000  0.00000  0.00000  0.00000  0.00000  0.00000
2268 259267.996   4402957.6683    666835.2990   4550860.7930   5  10   3.3864   1.7284   4.3402   0.4659   1.6696   2.4465   0.00    0.0   -0.00031    0.02182    0.06323   0.00000  0.00000  0.00000  0.00000  0.00000  0.00000
2268 259268.996   4402957.8264    666835.0458   4550860.9982   5  10   3.3864   1.7284   4.3412   0.4668   1.6701   2.4472   0.00    0.0    0.02179    0.01304   -0.00795   0.00000  0.00000  0.00000  0.00000  0.00000  0.00000
2268 259269.996   4402957.1730    666835.3311   4550861.4130   5  10   3.3864   1.7285   4.3422   0.4676   1.6706   2.4479   0.00    0.0    0.05085   -0.00656   -0.07320   0.00000  0.00000  0.00000  0.00000  0.00000  0.00000
2268 259270.996   4402957.7397    666835.7022   4550862.8845   5  10   3.3864   1.7286   4.3432   0.4685   1.6710   2.4487   0.00    0.0   -0.02727   -0.04650   -0.11309   0.00000  0.00000  0.00000  0.00000  0.00000  0.00000
2268 259271.996   4402957.8359    666835.8437   4550863.2337   5  10   3.3864   1.7286   4.3441   0.4694   1.6715   2.4494   0.00    0.0    0.02368    0.00461    0.04845   0.00000  0.00000  0.00000  0.00000  0.00000  0.00000
2268 259272.996   4402958.0363    666835.7319   4550862.1630   5  10   3.3865   1.7287   4.3451   0.4703   1.6719   2.4501   0.00    0.0    0.02445    0.00799    0.02625   0.00000  0.00000  0.00000  0.00000  0.00000  0.00000
2268 259273.996   4402958.9788    666835.5070   4550862.0393   5  10   3.3865   1.7288   4.3461   0.4711   1.6724   2.4508   0.00    0.0    0.00834    0.02686    0.05246   0.00000  0.00000  0.00000  0.00000  0.00000  0.00000
2268 259274.996   4402959.1162    666835.2999   4550861.2783   5  10   3.3865   1.7289   4.3471   0.4720   1.6729   2.4515   0.00    0.0    0.05122    0.01230    0.05022   0.00000  0.00000  0.00000  0.00000  0.00000  0.00000
2268 259275.996   4402960.1236    666835.1395   4550861.6106   5  10   3.3865   1.7289   4.3481   0.4729   1.6733   2.4523   0.00    0.0    0.01627   -0.00879    0.01751   0.00000  0.00000  0.00000  0.00000  0.00000  0.00000
2268 259276.996   4402960.7662    666835.1436   4550861.2249   5  10   3.3865   1.7290   4.3491   0.4737   1.6738   2.4530   0.00    0.0    0.03171    0.00654    0.01934   0.00000  0.00000  0.00000  0.00000  0.00000  0.00000
2268 259277.996   4402960.2661    666835.2517   4550861.2092   5  10   3.3865   1.7291   4.3501   0.4746   1.6743   2.4537   0.00    0.0    0.00622    0.02679    0.05171   0.00000  0.00000  0.00000  0.00000  0.00000  0.00000
2268 259278.996   4402959.5600    666835.0813   4550861.1775   5  10   3.3865   1.7291   4.3510   0.4755   1.6747   2.4544   0.00    0.0    0.06123    0.02256   -0.02539   0.00000  0.00000  0.00000  0.00000  0.00000  0.00000
2268 259279.996   4402959.5620    666835.4340   4550862.1989   5  10   3.3866   1.7292   4.3520   0.4763   1.6752   2.4551   0.00    0.0    0.07087    0.03326    0.05125   0.00000  0.00000  0.00000  0.00000  0.00000  0.00000
2268 259280.996   4402959.8831    666835.4102   4550863.0600   5  10   3.3866   1.7293   4.3530   0.4772   1.6756   2.4559   0.00    0.0    0.07838    0.01970    0.08117   0.00000  0.00000  0.00000  0.00000  0.00000  0.00000
2268 259281.996   4402958.7217    666835.2150   4550862.3000   5  10   3.3866   1.7294   4.3540   0.4781   1.6761   2.4566   0.00    0.0    0.04839    0.01762   -0.05348   0.00000  0.00000  0.00000  0.00000  0.00000  0.00000
2268 259282.996   4402958.5190    666835.2586   4550862.7177   5  10   3.3866   1.7294   4.3550   0.4789   1.6766   2.4573   0.00    0.0    0.04486   -0.00710    0.08664   0.00000  0.00000  0.00000  0.00000  0.00000  0.00000
2268 259283.996   4402958.6514    666835.4196   4550861.6037   5  10   3.3866   1.7295   4.3560   0.4798   1.6770   2.4580   0.00    0.0   -0.05340   -0.05571   -0.05274   0.00000  0.00000  0.00000  0.00000  0.00000  0.00000
2268 259284.996   4402957.8845    666835.4443   4550861.9325   5  10   3.3866   1.7296   4.3570   0.4806   1.6775   2.4588   0.00    0.0   -0.00127    0.00595   -0.01099   0.00000  0.00000  0.00000  0.00000  0.00000  0.00000
2268 259285.996   4402957.6563    666835.2315   4550860.1543   5  10   3.3866   1.7297   4.3580   0.4815   1.6779   2.4595   0.00    0.0    0.04791   -0.01875   -0.02437   0.00000  0.00000  0.00000  0.00000  0.00000  0.00000
2268 259286.996   4402958.5589    666835.8302   4550860.7406   5  10   3.3867   1.7297   4.3589   0.4823   1.6784   2.4602   0.00    0.0    0.04478   -0.00202   -0.02018   0.00000  0.00000  0.00000  0.00000  0.00000  0.00000
2268 259287.996   4402959.1582    666836.0532   4550862.2930   5  10   3.3867   1.7298   4.3599   0.4832   1.6789   2.4609   0.00    0.0   -0.01952    0.00473   -0.00237   0.00000  0.00000  0.00000  0.00000  0.00000  0.00000
2268 259288.996   4402958.9729    666836.5793   4550864.3175   5  10   3.3867   1.7299   4.3609   0.4841   1.6793   2.4616   0.00    0.0    0.01538    0.02481    0.02365   0.00000  0.00000  0.00000  0.00000  0.00000  0.00000
2268 259289.996   4402958.5047    666836.2588   4550863.6475   5  10   3.3867   1.7299   4.3619   0.4849   1.6798   2.4624   0.00    0.0    0.07947    0.00574    0.05625   0.00000  0.00000  0.00000  0.00000  0.00000  0.00000
2268 259290.996   4402958.2508    666836.5665   4550863.6603   5  10   3.3867   1.7300   4.3629   0.4858   1.6803   2.4631   0.00    0.0   -0.00458    0.01794   -0.03776   0.00000  0.00000  0.00000  0.00000  0.00000  0.00000
2268 259291.996   4402957.4114    666836.5861   4550863.1520   5  10   3.3867   1.7301   4.3639   0.4866   1.6807   2.4638   0.00    0.0    0.06758   -0.00627    0.06115   0.00000  0.00000  0.00000  0.00000  0.00000  0.00000
2268 259292.996   4402956.9973    666836.6644   4550862.4153   5  10   3.3868   1.7302   4.3649   0.4875   1.6812   2.4645   0.00    0.0    0.01236   -0.05386   -0.08594   0.00000  0.00000  0.00000  0.00000  0.00000  0.00000
2268 259293.996   4402956.7973    666836.7842   4550862.6880   5  10   3.3868   1.7302   4.3659   0.4883   1.6816   2.4653   0.00    0.0    0.01719   -0.00980   -0.01935   0.00000  0.00000  0.00000  0.00000  0.00000  0.00000
2268 259294.996   4402956.8112    666836.1923   4550862.8092   5  10   3.3868   1.7303   4.3669   0.4892   1.6821   2.4660   0.00    0.0    0.00744   -0.01600   -0.07940   0.00000  0.00000  0.00000  0.00000  0.00000  0.00000
2268 259295.996   4402957.5289    666836.0867   4550862.7527   5  10   3.3868   1.7304   4.3678   0.4900   1.6826   2.4667   0.00    0.0    0.00809    0.00594    0.00660   0.00000  0.00000  0.00000  0.00000  0.00000  0.00000
2268 259296.996   4402958.4161    666835.7824   4550862.3786   5  10   3.3868   1.7305   4.3688   0.4909   1.6830   2.4674   0.00    0.0   -0.01679   -0.02351   -0.09214   0.00000  0.00000  0.00000  0.00000  0.00000  0.00000
2268 259297.996   4402958.1823    666836.0217   4550862.1073   5  10   3.3868   1.7305   4.3698   0.4917   1.6835   2.4682   0.00    0.0    0.00953    0.01490   -0.14311   0.00000  0.00000  0.00000  0.00000  0.00000  0.00000
2268 259298.996   4402958.1081    666835.9453   4550862.1907   5  10   3.3869   1.7306   4.3708   0.4925   1.6840   2.4689   0.00    0.0   -0.02204    0.00303   -0.12317   0.00000  0.00000  0.00000  0.00000  0.00000  0.00000
2268 259299.996   4402957.6951    666835.8459   4550861.3725   5  10   3.3869   1.7307   4.3718   0.4934   1.6844   2.4696   0.00    0.0    0.02169    0.01979    0.01423   0.00000  0.00000  0.00000  0.00000  0.00000  0.00000
2268 259300.996   4402956.7708    666835.8398   4550860.8292   5  10   3.3869   1.7308   4.3728   0.4942   1.6849   2.4703   0.00    0.0    0.06155   -0.00574   -0.01186   0.00000  0.00000  0.00000  0.00000  0.00000  0.00000
2268 259301.996   4402957.5627    666835.9295   4550861.7204   5  10   3.3869   1.7308   4.3738   0.4951   1.6854   2.4710   0.00    0.0   -0.02070   -0.03085   -0.10044   0.00000  0.00000  0.00000  0.00000  0.00000  0.00000
2268 259302.996   4402957.3000    666836.1367   4550861.2408   5  10   3.3869   1.7309   4.3748   0.4959   1.6858   2.4718   0.00    0.0   -0.03507    0.03269    0.02667   0.00000  0.00000  0.00000  0.00000  0.00000  0.00000
2268 259303.996   4402956.7716    666836.3337   4550861.5437   5  10   3.3869   1.7310   4.3758   0.4968   1.6863   2.4725   0.00    0.0    0.02806    0.00721    0.02817   0.00000  0.00000  0.00000  0.00000  0.00000  0.00000
2268 259304.996   4402957.2509    666835.8890   4550861.6948   5  10   3.3870   1.7311   4.3768   0.4976   1.6868   2.4732   0.00    0.0   -0.02313   -0.02113    0.01807   0.00000  0.00000  0.00000  0.00000  0.00000  0.00000
2268 259305.996   4402957.2046    666836.0901   4550861.3621   5  10   3.3870   1.7311   4.3778   0.4984   1.6872   2.4739   0.00    0.0    0.03022    0.00004   -0.02574   0.00000  0.00000  0.00000  0.00000  0.00000  0.00000
2268 259306.996   4402957.2597    666836.5251   4550862.7378   5  10   3.3870   1.7312   4.3788   0.4993   1.6877   2.4747   0.00    0.0    0.02202    0.01224    0.05495   0.00000  0.00000  0.00000  0.00000  0.00000  0.00000
2268 259307.996   4402957.1069    666836.6002   4550862.9891   5  10   3.3870   1.7313   4.3797   0.5001   1.6881   2.4754   0.00    0.0    0.02368    0.00179   -0.01116   0.00000  0.00000  0.00000  0.00000  0.00000  0.00000
2268 259308.996   4402958.2127    666836.7317   4550863.2731   5  10   3.3870   1.7313   4.3807   0.5009   1.6886   2.4761   0.00    0.0   -0.00975    0.03147   -0.04338   0.00000  0.00000  0.00000  0.00000  0.00000  0.00000
2268 259309.996   4402959.5962    666836.5592   4550863.8053   5  10   3.3870   1.7314   4.3817   0.5018   1.6891   2.4768   0.00    0.0   -0.00290   -0.01230   -0.04367   0.00000  0.00000  0.00000  0.00000  0.00000  0.00000
2268 259310.996   4402959.6360    666836.7986   4550863.6860   5  10   3.3871   1.7315   4.3827   0.5026   1.6895   2.4776   0.00    0.0   -0.04431    0.03318    0.02179   0.00000  0.00000  0.00000  0.00000  0.00000  0.00000
2268 259311.996   4402958.8708    666836.3239   4550863.1171   5  10   3.3871   1.7316   4.3837   0.5034   1.6900   2.4783   0.00    0.0   -0.08308   -0.00883   -0.04187   0.00000  0.00000  0.00000  0.00000  0.00000  0.00000
2268 259312.996   4402958.2535    666836.3395   4550862.9104   5  10   3.3871   1.7316   4.3847   0.5043   1.6905   2.4790   0.00    0.0    0.01673   -0.02491   -0.04366   0.00000  0.00000  0.00000  0.00000  0.00000  0.00000
2268 259313.996   4402956.9419    666836.1860   4550861.9454   5  10   3.3871   1.7317   4.3857   0.5051   1.6909   2.4798   0.00    0.0   -0.01424    0.00215    0.01430   0.00000  0.00000  0.00000  0.00000  0.00000  0.00000
2268 259314.996   4402957.1091    666836.2708   4550862.0245   5  10   3.3871   1.7318   4.3867   0.5059   1.6914   2.4805   0.00    0.0    0.07623   -0.00352    0.10933   0.00000  0.00000  0.00000  0.00000  0.00000  0.00000
2268 259315.996   4402957.2726    666835.7066   4550862.1531   5  10   3.3872   1.7319   4.3877   0.5068   1.6919   2.4812   0.00    0.0    0.02299    0.01696    0.08601   0.00000  0.00000  0.00000  0.00000  0.00000  0.00000
2268 259316.996   4402956.8050    666835.8647   4550862.2653   5  10   3.3872   1.7319   4.3887   0.5076   1.6923   2.4819   0.00    0.0    0.00635    0.01572   -0.02796   0.00000  0.00000  0.00000  0.00000  0.00000  0.00000
2268 259317.996   4402956.5056    666835.6274   4550861.0346   5  10   3.3872   1.7320   4.3897   0.5084   1.6928   2.4827   0.00    0.0   -0.00490   -0.00941   -0.05600   0.00000  0.00000  0.00000  0.00000  0.00000  0.00000
2268 259318.996   4402956.8346    666835.5629   4550861.2044   5  10   3.3872   1.7321   4.3907   0.5092   1.6933   2.4834   0.00    0.0   -0.00728   -0.01298    0.01986   0.00000  0.00000  0.00000  0.00000  0.00000  0.00000
2268 259319.996   4402957.7331    666835.5087   4550861.4084   5  10   3.3872   1.7322   4.3917   0.5101   1.6937   2.4841   0.00    0.0    0.00419    0.01841   -0.05628   0.00000  0.00000  0.00000  0.00000  0.00000  0.00000
2268 259320.996   4402958.0870    666835.2697   4550861.6042   5  10   3.3873   1.7322   4.3927   0.5109   1.6942   2.4848   0.00    0.0    0.02400   -0.00453   -0.00832   0.00000  0.00000  0.00000  0.00000  0.00000  0.00000
2268 259321.996   4402958.2960    666834.7956   4550861.4760   5  10   3.3873   1.7323   4.3937   0.5117   1.6947   2.4856   0.00    0.0    0.02793    0.00781    0.00693   0.00000  0.00000  0.00000  0.00000  0.00000  0.00000
2268 259322.996   4402958.8228    666835.1385   4550863.0143   5  10   3.3873   1.7324   4.3947   0.5125   1.6951   2.4863   0.00    0.0   -0.01023   -0.02324    0.01892   0.00000  0.00000  0.00000  0.00000  0.00000  0.00000
2268 259323.996   4402958.5858    666835.3269   4550863.5003   5  10   3.3873   1.7325   4.3957   0.5133   1.6956   2.4870   0.00    0.0   -0.04832   -0.02188   -0.09568   0.00000  0.00000  0.00000  0.00000  0.00000  0.00000
2268 259324.996   4402959.0978    666835.3606   4550863.6440   5  10   3.3873   1.7325   4.3967   0.5142   1.6961   2.4877   0.00    0.0    0.03995    0.00487    0.08986   0.00000  0.00000  0.00000  0.00000  0.00000  0.00000
2268 259325.996   4402958.7399    666835.8480   4550863.3863   5  10   3.3874   1.7326   4.3977   0.5150   1.6965   2.4885   0.00    0.0    0.02266   -0.00853   -0.11539   0.00000  0.00000  0.00000  0.00000  0.00000  0.00000
2268 259326.996   4402957.9447    666836.0882   4550862.6980   5  10   3.3874   1.7327   4.3986   0.5158   1.6970   2.4892   0.00    0.0    0.04828   -0.04589   -0.01138   0.00000  0.00000  0.00000  0.00000  0.00000  0.00000
2268 259327.996   4402958.0061    666835.9989   4550863.8006   5  10   3.3874   1.7328   4.3996   0.5166   1.6975   2.4899   0.00    0.0    0.05246   -0.00421   -0.00519   0.00000  0.00000  0.00000  0.00000  0.00000  0.00000
2268 259328.996   4402957.5712    666835.7560   4550863.6494   5  10   3.3874   1.7329   4.4006   0.5174   1.6979   2.4907   0.00    0.0   -0.01489   -0.00170   -0.02814   0.00000  0.00000  0.00000  0.00000  0.00000  0.00000
2268 259329.996   4402957.1971    666835.6942   4550862.9666   5  10   3.3874   1.7329   4.4016   0.5182   1.6984   2.4914   0.00    0.0   -0.01639   -0.00087   -0.02531   0.00000  0.00000  0.00000  0.00000  0.00000  0.00000
2268 259330.996   4402957.1605    666835.5833   4550863.0882   5  10   3.3875   1.7330   4.4026   0.5191   1.6989   2.4921   0.00    0.0   -0.00868   -0.00416    0.01855   0.00000  0.00000  0.00000  0.00000  0.00000  0.00000
2268 259331.996   4402956.4413    666835.5950   4550861.5982   5  10   3.3875   1.7331   4.4036   0.5199   1.6993   2.4928   0.00    0.0    0.09740    0.00922    0.00600   0.00000  0.00000  0.00000  0.00000  0.00000  0.00000
2268 259332.996   4402956.6870    666835.7627   4550862.2645   5  10   3.3875   1.7332   4.4046   0.5207   1.6998   2.4936   0.00    0.0    0.06524   -0.00427   -0.00817   0.00000  0.00000  0.00000  0.00000  0.00000  0.00000
2268 259333.996   4402957.2707    666835.5726   4550862.0150   5  10   3.3875   1.7332   4.4056   0.5215   1.7003   2.4943   0.00    0.0   -0.03272    0.00020   -0.00444   0.00000  0.00000  0.00000  0.00000  0.00000  0.00000
2268 259334.996   4402958.2646    666835.6142   4550862.8656   5  10   3.3875   1.7333   4.4066   0.5223   1.7007   2.4950   0.00    0.0    0.08051    0.01646    0.06883   0.00000  0.00000  0.00000  0.00000  0.00000  0.00000
2268 259335.996   4402958.6322    666835.7813   4550861.9658   5  10   3.3876   1.7334   4.4076   0.5231   1.7012   2.4958   0.00    0.0    0.04734    0.05480    0.04113   0.00000  0.00000  0.00000  0.00000  0.00000  0.00000
2268 259336.996   4402958.3930    666835.9812   4550861.1521   5  10   3.3876   1.7335   4.4086   0.5239   1.7017   2.4965   0.00    0.0    0.01349   -0.05784    0.06339   0.00000  0.00000  0.00000  0.00000  0.00000  0.00000
2268 259337.996   4402958.0652    666835.8824   4550860.9240   5  10   3.3876   1.7335   4.4096   0.5247   1.7022   2.4972   0.00    0.0    0.03217    0.03590    0.07375   0.00000  0.00000  0.00000  0.00000  0.00000  0.00000
2268 259338.996   4402958.0615    666835.7988   4550861.1521   5  10   3.3876   1.7336   4.4106   0.5255   1.7026   2.4979   0.00    0.0   -0.00079    0.00936    0.00772   0.00000  0.00000  0.00000  0.00000  0.00000  0.00000
2268 259339.996   4402957.9883    666835.8878   4550862.1860   5  10   3.3877   1.7337   4.4116   0.5263   1.7031   2.4987   0.00    0.0    0.00690   -0.01008   -0.04064   0.00000  0.00000  0.00000  0.00000  0.00000  0.00000
2268 259340.996   4402958.1241    666835.9100   4550862.4403   5  10   3.3877   1.7338   4.4126   0.5271   1.7036   2.4994   0.00    0.0    0.03534   -0.00041   -0.00280   0.00000  0.00000  0.00000  0.00000  0.00000  0.00000
2268 259341.996   4402957.5703    666835.9577   4550862.9417   5  10   3.3877   1.7338   4.4136   0.5280   1.7040   2.5001   0.00    0.0   -0.03286   -0.03747   -0.05321   0.00000  0.00000  0.00000  0.00000  0.00000  0.00000
2268 259342.996   4402957.1947    666835.8597   4550862.5643   5  10   3.3877   1.7339   4.4146   0.5288   1.7045   2.5009   0.00    0.0   -0.00059    0.01323   -0.01702   0.00000  0.00000  0.00000  0.00000  0.00000  0.00000
2268 259343.996   4402956.7186    666835.8203   4550862.4986   5  10   3.3878   1.7340   4.4156   0.5296   1.7050   2.5016   0.00    0.0    0.02077   -0.01601   -0.02437   0.00000  0.00000  0.00000  0.00000  0.00000  0.00000
2268 259344.996   4402957.2444    666836.1447   4550863.8667   5  10   3.3878   1.7341   4.4166   0.5304   1.7054   2.5023   0.00    0.0    0.02311    0.01227    0.07884   0.00000  0.00000  0.00000  0.00000  0.00000  0.00000
2268 259345.996   4402956.6581    666836.2573   4550862.9332   5  10   3.3878   1.7342   4.4176   0.5312   1.7059   2.5030   0.00    0.0   -0.05345    0.02493   -0.05024   0.00000  0.00000  0.00000  0.00000  0.00000  0.00000
2268 259346.996   4402957.8141    666836.1876   4550863.2165   5  10   3.3878   1.7342   4.4186   0.5320   1.7064   2.5038   0.00    0.0    0.01087    0.01228    0.00259   0.00000  0.00000  0.00000  0.00000  0.00000  0.00000
2268 259347.996   4402958.1508    666836.0649   4550863.2280   5  10   3.3878   1.7343   4.4196   0.5328   1.7068   2.5045   0.00    0.0    0.05612   -0.00174    0.02957   0.00000  0.00000  0.00000  0.00000  0.00000  0.00000
2268 259348.996   4402957.6171    666836.0509   4550862.9660   5  10   3.3879   1.7344   4.4206   0.5336   1.7073   2.5052   0.00    0.0    0.02621    0.02280   -0.05456   0.00000  0.00000  0.00000  0.00000  0.00000  0.00000
2268 259349.996   4402956.9812    666835.9923   4550861.8458   5  10   3.3879   1.7345   4.4216   0.5344   1.7078   2.5060   0.00    0.0    0.01297   -0.02092   -0.07495   0.00000  0.00000  0.00000  0.00000  0.00000  0.00000
2268 259350.996   4402956.7462    666835.9648   4550861.2816   5  10   3.3879   1.7345   4.4226   0.5352   1.7083   2.5067   0.00    0.0    0.02796   -0.02251    0.02997   0.00000  0.00000  0.00000  0.00000  0.00000  0.00000
2268 259351.996   4402957.0625    666835.6751   4550861.3989   5  10   3.3879   1.7346   4.4236   0.5360   1.7087   2.5074   0.00    0.0   -0.03543   -0.00106    0.07558   0.00000  0.00000  0.00000  0.00000  0.00000  0.00000
2268 259352.996   4402957.6783    666835.7991   4550862.7995   5  10   3.3880   1.7347   4.4246   0.5368   1.7092   2.5082   0.00    0.0   -0.04134   -0.02298    0.02366   0.00000  0.00000  0.00000  0.00000  0.00000  0.00000
2268 259353.996   4402959.0047    666835.6427   4550863.6801   5  10   3.3880   1.7348   4.4256   0.5375   1.7097   2.5089   0.00    0.0    0.01074   -0.01484    0.01637   0.00000  0.00000  0.00000  0.00000  0.00000  0.00000
2268 259354.996   4402958.2788    666835.4313   4550863.2383   5  10   3.3880   1.7348   4.4266   0.5383   1.7101   2.5096   0.00    0.0   -0.02831    0.00022   -0.00650   0.00000  0.00000  0.00000  0.00000  0.00000  0.00000
2268 259355.996   4402958.1648    666835.4665   4550862.8466   5  10   3.3880   1.7349   4.4276   0.5391   1.7106   2.5104   0.00    0.0    0.02372    0.00703    0.00287   0.00000  0.00000  0.00000  0.00000  0.00000  0.00000
2268 259356.996   4402957.8601    666835.6373   4550862.1043   5  10   3.3881   1.7350   4.4286   0.5399   1.7111   2.5111   0.00    0.0   -0.02949   -0.02181   -0.00056   0.00000  0.00000  0.00000  0.00000  0.00000  0.00000
2268 259357.996   4402958.3014    666836.0497   4550861.8256   5  10   3.3881   1.7351   4.4297   0.5407   1.7115   2.5118   0.00    0.0   -0.01744   -0.00420   -0.02616   0.00000  0.00000  0.00000  0.00000  0.00000  0.00000
2268 259358.996   4402957.8823    666836.3951   4550861.1117   5  10   3.3881   1.7352   4.4307   0.5415   1.7120   2.5125   0.00    0.0    0.02424    0.02441    0.03741   0.00000  0.00000  0.00000  0.00000  0.00000  0.00000
2268 259359.996   4402957.6510    666836.5809   4550860.9918   5  10   3.3881   1.7352   4.4317   0.5423   1.7125   2.5133   0.00    0.0   -0.02948   -0.01202   -0.02760   0.00000  0.00000  0.00000  0.00000  0.00000  0.00000
2268 259360.996   4402957.6231    666836.5631   4550862.0615   5  10   3.3882   1.7353   4.4327   0.5431   1.7130   2.5140   0.00    0.0    0.03255   -0.00626   -0.00850   0.00000  0.00000  0.00000  0.00000  0.00000  0.00000
2268 259361.996   4402958.0968    666836.3249   4550861.9334   5  10   3.3882   1.7354   4.4337   0.5439   1.7134   2.5147   0.00    0.0   -0.02373    0.03234   -0.02041   0.00000  0.00000  0.00000  0.00000  0.00000  0.00000
2268 259362.996   4402957.7685    666836.0335   4550862.3400   5  10   3.3882   1.7355   4.4347   0.5447   1.7139   2.5155   0.00    0.0   -0.02387   -0.00721   -0.09993   0.00000  0.00000  0.00000  0.00000  0.00000  0.00000
2268 259363.996   4402958.6840    666835.6979   4550862.2148   5  10   3.3882   1.7356   4.4357   0.5455   1.7144   2.5162   0.00    0.0   -0.01258   -0.03137   -0.00098   0.00000  0.00000  0.00000  0.00000  0.00000  0.00000
2268 259375.000   4402958.0398    666836.0956   4550862.5828   5  10   3.3885   1.7364   4.4467   0.5541   1.7196   2.5243   0.00    0.0   -0.02328   -0.01284    0.01394   0.00000  0.00000  0.00000  0.00000  0.00000  0.00000
2268 259376.000   4402958.6448    666836.4383   4550862.6787   5  10   3.3911   1.7339   4.4469   0.5378   1.7134   2.5262   0.00    0.0   -0.02558   -0.00126   -0.05144   0.00000  0.00000  0.00000  0.00000  0.00000  0.00000
2268 259377.000   4402958.1574    666836.2666   4550862.3015   5  10   3.3911   1.7340   4.4479   0.5386   1.7138   2.5269   0.00    0.0   -0.03220   -0.01198   -0.02467   0.00000  0.00000  0.00000  0.00000  0.00000  0.00000
2268 259378.000   4402957.5863    666836.6312   4550862.2127   5  10   3.3912   1.7340   4.4489   0.5394   1.7143   2.5276   0.00    0.0   -0.05739   -0.02089   -0.07611   0.00000  0.00000  0.00000  0.00000  0.00000  0.00000
2268 259379.000   4402957.8817    666836.2727   4550861.4821   5  10   3.3912   1.7341   4.4499   0.5403   1.7148   2.5284   0.00    0.0    0.02969   -0.02318    0.05474   0.00000  0.00000  0.00000  0.00000  0.00000  0.00000
2268 259380.000   4402959.3020    666835.8941   4550861.6897   5  10   3.3912   1.7342   4.4509   0.5411   1.7153   2.5291   0.00    0.0    0.01141    0.01283    0.08298   0.00000  0.00000  0.00000  0.00000  0.00000  0.00000
2268 259381.000   4402958.2807    666835.6130   4550860.9691   5  10   3.3913   1.7343   4.4519   0.5419   1.7157   2.5299   0.00    0.0    0.07345    0.02354    0.07423   0.00000  0.00000  0.00000  0.00000  0.00000  0.00000
2268 259382.000   4402958.2349    666835.5444   4550860.7480   5  11   3.3913   1.7332   4.4527   0.5436   1.7154   2.5307   0.00    0.0   -0.01607    0.00105    0.02045   0.00000  0.00000  0.00000  0.00000  0.00000  0.00000
2268 259383.000   4402957.4503    666835.3342   4550860.6220   5  11   3.3913   1.7333   4.4537   0.5444   1.7158   2.5315   0.00    0.0   -0.00460    0.01682    0.05176   0.00000  0.00000  0.00000  0.00000  0.00000  0.00000
2268 259384.000   4402957.6541    666834.9896   4550861.3455   5  11   3.3913   1.7334   4.4547   0.5452   1.7163   2.5322   0.00    0.0    0.03706    0.02276    0.09782   0.00000  0.00000  0.00000  0.00000  0.00000  0.00000
2268 259385.000   4402957.5536    666835.0526   4550861.8929   5  11   3.3913   1.7334   4.4557   0.5460   1.7168   2.5330   0.00    0.0    0.07005   -0.02736    0.07087   0.00000  0.00000  0.00000  0.00000  0.00000  0.00000
2268 259386.000   4402957.2125    666835.7804   4550862.8345   5  11   3.3914   1.7335   4.4568   0.5468   1.7172   2.5337   0.00    0.0    0.06159    0.01091   -0.01901   0.00000  0.00000  0.00000  0.00000  0.00000  0.00000
2268 259387.000   4402957.4058    666835.9558   4550862.5383   5  11   3.3914   1.7336   4.4578   0.5476   1.7177   2.5344   0.00    0.0   -0.04455    0.00195    0.00263   0.00000  0.00000  0.00000  0.00000  0.00000  0.00000
2268 259388.000   4402957.2054    666835.5530   4550862.9689   5  11   3.3914   1.7337   4.4588   0.5484   1.7182   2.5352   0.00    0.0    0.02272    0.00892    0.02312   0.00000  0.00000  0.00000  0.00000  0.00000  0.00000
2268 259389.000   4402956.8266    666835.2779   4550860.9391   5  11   3.3915   1.7338   4.4598   0.5492   1.7187   2.5359   0.00    0.0    0.00269    0.00461    0.03956   0.00000  0.00000  0.00000  0.00000  0.00000  0.00000
2268 259390.000   4402957.9013    666835.2922   4550861.6836   5  11   3.3915   1.7338   4.4608   0.5500   1.7191   2.5367   0.00    0.0    0.03839   -0.00841    0.02438   0.00000  0.00000  0.00000  0.00000  0.00000  0.00000
2268 259391.000   4402958.2787    666835.3361   4550862.1017   5  11   3.3915   1.7339   4.4618   0.5508   1.7196   2.5374   0.00    0.0    0.05704   -0.02679    0.04615   0.00000  0.00000  0.00000  0.00000  0.00000  0.00000
2268 259392.000   4402958.2103    666835.2740   4550862.8260   5  11   3.3916   1.7340   4.4628   0.5516   1.7201   2.5381   0.00    0.0    0.04963    0.00317    0.02070   0.00000  0.00000  0.00000  0.00000  0.00000  0.00000
2268 259393.000   4402957.6073    666835.7489   4550863.1290   5  11   3.3916   1.7341   4.4638   0.5524   1.7206   2.5389   0.00    0.0    0.01869    0.01352    0.03986   0.00000  0.00000  0.00000  0.00000  0.00000  0.00000
2268 259394.000   4402957.7183    666835.8227   4550862.8696   5  11   3.3916   1.7341   4.4649   0.5532   1.7210   2.5396   0.00    0.0   -0.02171   -0.01430   -0.06343   0.00000  0.00000  0.00000  0.00000  0.00000  0.00000
2268 259395.000   4402957.0491    666835.8881   4550862.1289   5  11   3.3917   1.7342   4.4659   0.5540   1.7215   2.5404   0.00    0.0   -0.00033   -0.01703   -0.10528   0.00000  0.00000  0.00000  0.00000  0.00000  0.00000
2268 259396.000   4402957.7723    666836.3073   4550863.0468   5  11   3.3917   1.7343   4.4669   0.5548   1.7220   2.5411   0.00    0.0    0.00665    0.00599    0.03082   0.00000  0.00000  0.00000  0.00000  0.00000  0.00000
2268 259397.000   4402958.6753    666836.7547   4550862.5033   5  11   3.3917   1.7344   4.4679   0.5556   1.7225   2.5419   0.00    0.0    0.02199   -0.02038   -0.04862   0.00000  0.00000  0.00000  0.00000  0.00000  0.00000
2268 259398.000   4402958.6878    666836.4799   4550861.3680   5  11   3.3918   1.7345   4.4689   0.5564   1.7230   2.5426   0.00    0.0   -0.00799   -0.02716    0.03480   0.00000  0.00000  0.00000  0.00000  0.00000  0.00000
2268 259399.000   4402958.0793    666836.3195   4550861.1070   5  11   3.3918   1.7345   4.4699   0.5571   1.7234   2.5433   0.00    0.0    0.01045   -0.01501    0.03179   0.00000  0.00000  0.00000  0.00000  0.00000  0.00000
2268 259400.000   4402957.4406    666836.3456   4550861.5895   5  11   3.3918   1.7346   4.4709   0.5579   1.7239   2.5441   0.00    0.0    0.02541   -0.04401   -0.04961   0.00000  0.00000  0.00000  0.00000  0.00000  0.00000
2268 259401.000   4402957.7318    666836.0734   4550860.8683   5  11   3.3919   1.7347   4.4720   0.5587   1.7244   2.5448   0.00    0.0    0.00349    0.04503    0.04625   0.00000  0.00000  0.00000  0.00000  0.00000  0.00000
2268 259402.000   4402957.9910    666835.9604   4550861.8345   5  11   3.3919   1.7348   4.4730   0.5595   1.7249   2.5456   0.00    0.0   -0.00274    0.00523    0.00510   0.00000  0.00000  0.00000  0.00000  0.00000  0.00000
2268 259403.000   4402957.7551    666835.6410   4550861.2671   5  11   3.3919   1.7349   4.4740   0.5603   1.7253   2.5463   0.00    0.0   -0.04231    0.02213   -0.05048   0.00000  0.00000  0.00000  0.00000  0.00000  0.00000
2268 259404.000   4402956.7681    666835.2247   4550861.2643   5  11   3.3920   1.7349   4.4750   0.5611   1.7258   2.5470   0.00    0.0    0.03951    0.02577    0.01278   0.00000  0.00000  0.00000  0.00000  0.00000  0.00000
2268 259405.000   4402957.2863    666835.3706   4550862.2927   5  11   3.3920   1.7350   4.4760   0.5619   1.7263   2.5478   0.00    0.0    0.00836   -0.00391    0.02050   0.00000  0.00000  0.00000  0.00000  0.00000  0.00000
2268 259406.000   4402957.5515    666835.7205   4550862.2513   5  11   3.3920   1.7351   4.4770   0.5626   1.7268   2.5485   0.00    0.0    0.08549   -0.01174    0.07765   0.00000  0.00000  0.00000  0.00000  0.00000  0.00000
2268 259407.000   4402956.4833    666835.8829   4550861.3766   5  11   3.3921   1.7352   4.4781   0.5634   1.7272   2.5493   0.00    0.0   -0.02313   -0.01303   -0.01899   0.00000  0.00000  0.00000  0.00000  0.00000  0.00000
2268 259408.000   4402956.2662    666835.8305   4550860.6712   5  11   3.3921   1.7353   4.4791   0.5642   1.7277   2.5500   0.00    0.0    0.00449    0.02496   -0.00587   0.00000  0.00000  0.00000  0.00000  0.00000  0.00000
2268 259409.000   4402955.1765    666836.0148   4550860.5243   5  11   3.3921   1.7353   4.4801   0.5650   1.7282   2.5508   0.00    0.0   -0.06231   -0.00962   -0.09135   0.00000  0.00000  0.00000  0.00000  0.00000  0.00000
2268 259410.000   4402956.0398    666836.3913   4550861.5287   5  11   3.3922   1.7354   4.4811   0.5658   1.7287   2.5515   0.00    0.0    0.01326    0.02494    0.00647   0.00000  0.00000  0.00000  0.00000  0.00000  0.00000
2268 259411.000   4402955.9712    666836.3087   4550862.5209   5  11   3.3922   1.7355   4.4821   0.5665   1.7291   2.5522   0.00    0.0    0.01705    0.02096   -0.00392   0.00000  0.00000  0.00000  0.00000  0.00000  0.00000
2268 259412.000   4402956.9679    666835.9612   4550862.2949   5  11   3.3922   1.7356   4.4831   0.5673   1.7296   2.5530   0.00    0.0    0.00795    0.01289    0.11588   0.00000  0.00000  0.00000  0.00000  0.00000  0.00000
2268 259413.000   4402957.1923    666836.2825   4550861.8674   5  11   3.3923   1.7357   4.4842   0.5681   1.7301   2.5537   0.00    0.0   -0.02265    0.02494    0.01184   0.00000  0.00000  0.00000  0.00000  0.00000  0.00000
2268 259414.000   4402957.4899    666836.1406   4550862.9667   5  11   3.3923   1.7357   4.4852   0.5689   1.7306   2.5545   0.00    0.0    0.01867    0.00701    0.06450   0.00000  0.00000  0.00000  0.00000  0.00000  0.00000
2268 259415.000   4402957.7073    666835.7399   4550863.6068   5  11   3.3923   1.7358   4.4862   0.5697   1.7311   2.5552   0.00    0.0   -0.00531   -0.02748   -0.00903   0.00000  0.00000  0.00000  0.00000  0.00000  0.00000
2268 259416.000   4402958.1820    666836.3206   4550865.0315   5  11   3.3924   1.7359   4.4872   0.5704   1.7315   2.5559   0.00    0.0    0.07209   -0.03626    0.04463   0.00000  0.00000  0.00000  0.00000  0.00000  0.00000
2268 259417.000   4402958.6342    666836.5600   4550864.7562   5  11   3.3924   1.7360   4.4882   0.5712   1.7320   2.5567   0.00    0.0    0.00327    0.00961    0.02937   0.00000  0.00000  0.00000  0.00000  0.00000  0.00000
2268 259418.000   4402958.7180    666836.4118   4550864.4589   5  11   3.3924   1.7361   4.4892   0.5720   1.7325   2.5574   0.00    0.0    0.02475   -0.02310    0.00828   0.00000  0.00000  0.00000  0.00000  0.00000  0.00000
2268 259419.000   4402959.1278    666836.1575   4550863.3580   5  11   3.3925   1.7362   4.4903   0.5728   1.7330   2.5582   0.00    0.0   -0.00785    0.01653    0.00053   0.00000  0.00000  0.00000  0.00000  0.00000  0.00000
2268 259420.000   4402958.7937    666836.2151   4550862.3470   5  11   3.3925   1.7362   4.4913   0.5735   1.7334   2.5589   0.00    0.0    0.01017    0.01113    0.05311   0.00000  0.00000  0.00000  0.00000  0.00000  0.00000
2268 259421.000   4402958.8742    666836.2316   4550862.4303   5  11   3.3926   1.7363   4.4923   0.5743   1.7339   2.5597   0.00    0.0    0.02440    0.02737    0.05614   0.00000  0.00000  0.00000  0.00000  0.00000  0.00000
2268 259422.000   4402959.2556    666836.0593   4550862.3884   5  11   3.3926   1.7364   4.4933   0.5751   1.7344   2.5604   0.00    0.0   -0.06514    0.02131   -0.02709   0.00000  0.00000  0.00000  0.00000  0.00000  0.00000
2268 259423.000   4402959.6331    666835.8168   4550861.9780   5  11   3.3926   1.7365   4.4943   0.5758   1.7349   2.5612   0.00    0.0   -0.02444    0.00788    0.00235   0.00000  0.00000  0.00000  0.00000  0.00000  0.00000
2268 259424.000   4402959.4459    666835.6835   4550862.5511   5  11   3.3927   1.7366   4.4953   0.5766   1.7354   2.5619   0.00    0.0   -0.03838   -0.01959    0.05112   0.00000  0.00000  0.00000  0.00000  0.00000  0.00000
2268 259425.000   4402959.6857    666835.3951   4550861.8177   5  11   3.3927   1.7366   4.4964   0.5774   1.7358   2.5626   0.00    0.0   -0.05333   -0.02281   -0.05571   0.00000  0.00000  0.00000  0.00000  0.00000  0.00000
2268 259426.000   4402959.7362    666835.7550   4550862.3298   5  11   3.3927   1.7367   4.4974   0.5782   1.7363   2.5634   0.00    0.0    0.06755    0.01503    0.03785   0.00000  0.00000  0.00000  0.00000  0.00000  0.00000
2268 259427.000   4402959.8247    666835.6909   4550862.7322   5  11   3.3928   1.7368   4.4984   0.5789   1.7368   2.5641   0.00    0.0   -0.02860   -0.02236   -0.05581   0.00000  0.00000  0.00000  0.00000  0.00000  0.00000
2268 259428.000   4402960.0517    666836.3054   4550864.6266   5  11   3.3928   1.7369   4.4994   0.5797   1.7373   2.5649   0.00    0.0   -0.06213   -0.01283    0.01031   0.00000  0.00000  0.00000  0.00000  0.00000  0.00000
2268 259429.000   4402959.0756    666836.4905   4550863.9512   5  11   3.3928   1.7370   4.5004   0.5805   1.7378   2.5656   0.00    0.0    0.02751    0.02918    0.01145   0.00000  0.00000  0.00000  0.00000  0.00000  0.00000
2268 259430.000   4402958.6792    666836.2978   4550864.4610   5  11   3.3929   1.7370   4.5015   0.5812   1.7382   2.5664   0.00    0.0   -0.05271    0.02827   -0.02678   0.00000  0.00000  0.00000  0.00000  0.00000  0.00000
2268 259431.000   4402958.2823    666835.4664   4550863.2004   5  11   3.3929   1.7371   4.5025   0.5820   1.7387   2.5671   0.00    0.0    0.01171   -0.00316   -0.08338   0.00000  0.00000  0.00000  0.00000  0.00000  0.00000
2268 259432.000   4402956.7100    666835.1538   4550862.3807   5  11   3.3930   1.7372   4.5035   0.5828   1.7392   2.5679   0.00    0.0    0.03422    0.02404    0.06735   0.00000  0.00000  0.00000  0.00000  0.00000  0.00000
2268 259433.000   4402956.2950    666835.9010   4550861.9657   5  11   3.3930   1.7373   4.5045   0.5835   1.7397   2.5686   0.00    0.0    0.02680    0.02762    0.02338   0.00000  0.00000  0.00000  0.00000  0.00000  0.00000
2268 259434.000   4402956.6364    666835.9338   4550862.1391   5  11   3.3930   1.7374   4.5055   0.5843   1.7402   2.5693   0.00    0.0   -0.03458   -0.00841   -0.00325   0.00000  0.00000  0.00000  0.00000  0.00000  0.00000
2268 259435.000   4402956.7208    666835.7253   4550860.0703   5  11   3.3931   1.7375   4.5066   0.5851   1.7406   2.5701   0.00    0.0    0.02341   -0.00299    0.02442   0.00000  0.00000  0.00000  0.00000  0.00000  0.00000
2268 259436.000   4402956.6380    666835.7762   4550859.7189   5  11   3.3931   1.7375   4.5076   0.5858   1.7411   2.5708   0.00    0.0    0.03148    0.02221    0.05225   0.00000  0.00000  0.00000  0.00000  0.00000  0.00000
2268 259437.000   4402956.7455    666835.5165   4550860.1977   5  11   3.3931   1.7376   4.5086   0.5866   1.7416   2.5716   0.00    0.0    0.01293   -0.01029   -0.00030   0.00000  0.00000  0.00000  0.00000  0.00000  0.00000
2268 259438.000   4402957.7938    666834.9730   4550860.2441   5  11   3.3932   1.7377   4.5096   0.5873   1.7421   2.5723   0.00    0.0    0.01354    0.00379   -0.09012   0.00000  0.00000  0.00000  0.00000  0.00000  0.00000
2268 259439.000   4402956.9095    666835.1079   4550861.5116   5  11   3.3932   1.7378   4.5106   0.5881   1.7426   2.5731   0.00    0.0   -0.00514   -0.01243   -0.01797   0.00000  0.00000  0.00000  0.00000  0.00000  0.00000
2268 259440.000   4402957.9488    666835.4990   4550862.1976   5  11   3.3933   1.7379   4.5117   0.5889   1.7430   2.5738   0.00    0.0    0.02853   -0.00382   -0.03585   0.00000  0.00000  0.00000  0.00000  0.00000  0.00000
2268 259441.000   4402957.7477    666835.3064   4550861.9297   5  11   3.3933   1.7380   4.5127   0.5896   1.7435   2.5746   0.00    0.0    0.04981   -0.02773   -0.09823   0.00000  0.00000  0.00000  0.00000  0.00000  0.00000
2268 259442.000   4402957.8268    666835.2048   4550862.2200   5  11   3.3933   1.7380   4.5137   0.5904   1.7440   2.5753   0.00    0.0    0.04528    0.02789    0.03507   0.00000  0.00000  0.00000  0.00000  0.00000  0.00000
2268 259443.000   4402957.1477    666835.3597   4550862.7840   5  11   3.3934   1.7381   4.5147   0.5911   1.7445   2.5761   0.00    0.0    0.03282    0.02528    0.04658   0.00000  0.00000  0.00000  0.00000  0.00000  0.00000
2268 259444.000   4402957.3406    666834.9101   4550863.0625   5  11   3.3934   1.7382   4.5158   0.5919   1.7450   2.5768   0.00    0.0   -0.00159   -0.01183    0.03651   0.00000  0.00000  0.00000  0.00000  0.00000  0.00000
2268 259445.000   4402957.9178    666835.3111   4550863.8215   5  11   3.3935   1.7383   4.5168   0.5926   1.7454   2.5775   0.00    0.0    0.00816   -0.02683   -0.09229   0.00000  0.00000  0.00000  0.00000  0.00000  0.00000
2268 259446.000   4402957.7358    666835.4929   4550863.0020   5  11   3.3935   1.7384   4.5178   0.5934   1.7459   2.5783   0.00    0.0   -0.02476    0.01046   -0.00555   0.00000  0.00000  0.00000  0.00000  0.00000  0.00000
2268 259447.000   4402958.5639    666835.7495   4550861.4258   5  11   3.3935   1.7385   4.5188   0.5942   1.7464   2.5790   0.00    0.0   -0.03381   -0.01972   -0.01269   0.00000  0.00000  0.00000  0.00000  0.00000  0.00000
2268 259448.000   4402958.1325    666836.7748   4550861.9699   5  11   3.3936   1.7385   4.5198   0.5949   1.7469   2.5798   0.00    0.0   -0.01728   -0.01698   -0.15840   0.00000  0.00000  0.00000  0.00000  0.00000  0.00000
2268 259449.000   4402957.3544    666836.0206   4550860.7624   5  11   3.3936   1.7386   4.5209   0.5957   1.7474   2.5805   0.00    0.0    0.02812    0.03157    0.01659   0.00000  0.00000  0.00000  0.00000  0.00000  0.00000
2268 259450.000   4402958.1480    666835.7769   4550861.8234   5  11   3.3937   1.7387   4.5219   0.5964   1.7478   2.5813   0.00    0.0    0.01395    0.00332   -0.02456   0.00000  0.00000  0.00000  0.00000  0.00000  0.00000
2268 259451.000   4402958.5471    666835.7842   4550862.3882   5  11   3.3937   1.7388   4.5229   0.5972   1.7483   2.5820   0.00    0.0   -0.00960   -0.01971    0.08766   0.00000  0.00000  0.00000  0.00000  0.00000  0.00000
2268 259452.000   4402958.4333    666835.6262   4550861.4672   5  11   3.3937   1.7389   4.5239   0.5979   1.7488   2.5828   0.00    0.0   -0.07900   -0.02467   -0.09870   0.00000  0.00000  0.00000  0.00000  0.00000  0.00000
2268 259453.000   4402958.1200    666835.8450   4550860.9358   5  11   3.3938   1.7389   4.5250   0.5987   1.7493   2.5835   0.00    0.0    0.02315    0.03220    0.05402   0.00000  0.00000  0.00000  0.00000  0.00000  0.00000
2268 259454.000   4402957.7057    666835.8642   4550861.8154   5  11   3.3938   1.7390   4.5260   0.5994   1.7498   2.5843   0.00    0.0    0.00701    0.01899   -0.01280   0.00000  0.00000  0.00000  0.00000  0.00000  0.00000
2268 259455.000   4402956.9643    666835.3055   4550861.8067   5  11   3.3939   1.7391   4.5270   0.6002   1.7502   2.5850   0.00    0.0    0.02289   -0.02453   -0.01146   0.00000  0.00000  0.00000  0.00000  0.00000  0.00000
2268 259456.000   4402957.1217    666835.0204   4550861.7970   5  11   3.3939   1.7392   4.5280   0.6009   1.7507   2.5858   0.00    0.0   -0.04853    0.01286   -0.08897   0.00000  0.00000  0.00000  0.00000  0.00000  0.00000
2268 259457.000   4402956.8134    666835.3452   4550862.0098   5  11   3.3939   1.7393   4.5291   0.6017   1.7512   2.5865   0.00    0.0    0.03661    0.02558    0.01839   0.00000  0.00000  0.00000  0.00000  0.00000  0.00000
2268 259458.000   4402957.4039    666835.6669   4550862.8786   5  11   3.3940   1.7394   4.5301   0.6024   1.7517   2.5872   0.00    0.0   -0.01261   -0.00947    0.06028   0.00000  0.00000  0.00000  0.00000  0.00000  0.00000
2268 259459.000   4402957.4374    666835.5004   4550861.5342   5  11   3.3940   1.7395   4.5311   0.6032   1.7522   2.5880   0.00    0.0   -0.02344    0.00699   -0.06111   0.00000  0.00000  0.00000  0.00000  0.00000  0.00000
2268 259460.000   4402957.2232    666835.9622   4550862.1270   5  11   3.3941   1.7395   4.5321   0.6039   1.7527   2.5887   0.00    0.0    0.03038    0.00613   -0.05078   0.00000  0.00000  0.00000  0.00000  0.00000  0.00000
2268 259461.000   4402957.1060    666835.9543   4550861.7428   5  11   3.3941   1.7396   4.5332   0.6047   1.7531   2.5895   0.00    0.0   -0.01554    0.00555    0.03545   0.00000  0.00000  0.00000  0.00000  0.00000  0.00000
2268 259462.000   4402958.7125    666835.7526   4550862.0825   5  11   3.3941   1.7397   4.5342   0.6054   1.7536   2.5902   0.00    0.0   -0.11299   -0.03208   -0.12025   0.00000  0.00000  0.00000  0.00000  0.00000  0.00000
2268 259463.000   4402960.1127    666835.4684   4550863.1775   5  11   3.3942   1.7398   4.5352   0.6062   1.7541   2.5910   0.00    0.0   -0.01769    0.00329    0.01496   0.00000  0.00000  0.00000  0.00000  0.00000  0.00000
2268 259464.000   4402960.8048    666835.5145   4550862.9591   5  11   3.3942   1.7399   4.5362   0.6069   1.7546   2.5917   0.00    0.0   -0.00769   -0.02146   -0.05316   0.00000  0.00000  0.00000  0.00000  0.00000  0.00000
2268 259465.000   4402960.7084    666835.5665   4550862.6565   5  11   3.3943   1.7400   4.5373   0.6077   1.7551   2.5925   0.00    0.0   -0.08584   -0.02546   -0.03881   0.00000  0.00000  0.00000  0.00000  0.00000  0.00000
2268 259466.000   4402960.2792    666835.2778   4550861.9480   5  11   3.3943   1.7400   4.5383   0.6084   1.7555   2.5932   0.00    0.0   -0.02830    0.01708   -0.02820   0.00000  0.00000  0.00000  0.00000  0.00000  0.00000
2268 259467.000   4402960.2206    666835.0546   4550861.2828   5  11   3.3944   1.7401   4.5393   0.6091   1.7560   2.5940   0.00    0.0    0.01466    0.00494   -0.03870   0.00000  0.00000  0.00000  0.00000  0.00000  0.00000
2268 259468.000   4402959.1688    666835.1192   4550860.6310   5  11   3.3944   1.7402   4.5403   0.6099   1.7565   2.5947   0.00    0.0   -0.03356   -0.02100   -0.00308   0.00000  0.00000  0.00000  0.00000  0.00000  0.00000
2268 259469.000   4402957.7619    666835.0162   4550859.4943   5  11   3.3944   1.7403   4.5414   0.6106   1.7570   2.5955   0.00    0.0    0.00606   -0.00881   -0.01283   0.00000  0.00000  0.00000  0.00000  0.00000  0.00000
2268 259470.000   4402957.7617    666834.8292   4550860.1492   5  11   3.3945   1.7404   4.5424   0.6114   1.7575   2.5962   0.00    0.0   -0.04944   -0.00182    0.04729   0.00000  0.00000  0.00000  0.00000  0.00000  0.00000
2268 259471.000   4402957.5798    666834.8014   4550860.2351   5  11   3.3945   1.7405   4.5434   0.6121   1.7580   2.5970   0.00    0.0   -0.05967   -0.02327   -0.00563   0.00000  0.00000  0.00000  0.00000  0.00000  0.00000
2268 259472.000   4402957.7195    666835.1379   4550860.8274   5  11   3.3946   1.7405   4.5444   0.6129   1.7584   2.5977   0.00    0.0   -0.00882    0.00558   -0.01778   0.00000  0.00000  0.00000  0.00000  0.00000  0.00000
2268 259473.000   4402958.2616    666835.5138   4550861.4184   5  11   3.3946   1.7406   4.5455   0.6136   1.7589   2.5985   0.00    0.0   -0.02187   -0.00811    0.03489   0.00000  0.00000  0.00000  0.00000  0.00000  0.00000
2268 259474.000   4402957.5509    666835.3911   4550860.7616   5  11   3.3946   1.7407   4.5465   0.6143   1.7594   2.5992   0.00    0.0    0.00969   -0.03430    0.03444   0.00000  0.00000  0.00000  0.00000  0.00000  0.00000
2268 259475.000   4402958.0451    666835.7849   4550861.9263   5  11   3.3947   1.7408   4.5475   0.6151   1.7599   2.6000   0.00    0.0   -0.02468   -0.01666   -0.06784   0.00000  0.00000  0.00000  0.00000  0.00000  0.00000
2268 259476.000   4402959.8581    666835.8194   4550863.3204   5  11   3.3947   1.7409   4.5485   0.6158   1.7604   2.6007   0.00    0.0    0.01967    0.02607    0.10935   0.00000  0.00000  0.00000  0.00000  0.00000  0.00000
2268 259477.000   4402958.9323    666835.6031   4550863.5645   5  11   3.3948   1.7410   4.5496   0.6166   1.7609   2.6015   0.00    0.0    0.00780    0.00612    0.04901   0.00000  0.00000  0.00000  0.00000  0.00000  0.00000
2268 259478.000   4402958.8160    666835.7916   4550863.4756   5  11   3.3948   1.7411   4.5506   0.6173   1.7613   2.6022   0.00    0.0    0.04204   -0.03745   -0.07941   0.00000  0.00000  0.00000  0.00000  0.00000  0.00000
2268 259479.000   4402958.1753    666835.9429   4550861.8895   5  11   3.3949   1.7411   4.5516   0.6180   1.7618   2.6030   0.00    0.0   -0.12350    0.00408   -0.15012   0.00000  0.00000  0.00000  0.00000  0.00000  0.00000
2268 259480.000   4402957.3026    666835.6644   4550860.8278   5  11   3.3949   1.7412   4.5526   0.6188   1.7623   2.6037   0.00    0.0    0.04490   -0.00573    0.09604   0.00000  0.00000  0.00000  0.00000  0.00000  0.00000
2268 259481.000   4402957.6963    666835.9079   4550861.5019   5  11   3.3950   1.7413   4.5537   0.6195   1.7628   2.6045   0.00    0.0    0.00555    0.01415   -0.06144   0.00000  0.00000  0.00000  0.00000  0.00000  0.00000
2268 259482.000   4402958.4151    666835.9142   4550862.6927   5  11   3.3950   1.7414   4.5547   0.6202   1.7633   2.6052   0.00    0.0    0.04794    0.03013    0.11327   0.00000  0.00000  0.00000  0.00000  0.00000  0.00000
2268 259483.000   4402958.8840    666835.9395   4550862.5792   5  11   3.3950   1.7415   4.5557   0.6210   1.7638   2.6060   0.00    0.0   -0.00567   -0.00957   -0.04436   0.00000  0.00000  0.00000  0.00000  0.00000  0.00000
2268 259484.000   4402959.6388    666836.4829   4550863.9622   5  11   3.3951   1.7416   4.5568   0.6217   1.7643   2.6067   0.00    0.0   -0.04720   -0.00309   -0.06607   0.00000  0.00000  0.00000  0.00000  0.00000  0.00000
2268 259485.000   4402958.7960    666836.3549   4550863.1524   5  11   3.3951   1.7417   4.5578   0.6224   1.7647   2.6075   0.00    0.0    0.03228   -0.02721    0.02198   0.00000  0.00000  0.00000  0.00000  0.00000  0.00000
2268 259486.000   4402958.6714    666836.1796   4550863.6948   5  11   3.3952   1.7417   4.5588   0.6232   1.7652   2.6082   0.00    0.0    0.06421    0.01011    0.00778   0.00000  0.00000  0.00000  0.00000  0.00000  0.00000
2268 259487.000   4402957.4172    666836.0965   4550862.8628   5  11   3.3952   1.7418   4.5598   0.6239   1.7657   2.6090   0.00    0.0   -0.00694    0.03083    0.00453   0.00000  0.00000  0.00000  0.00000  0.00000  0.00000
2268 259488.000   4402957.0948    666835.9811   4550862.3040   5  11   3.3953   1.7419   4.5609   0.6246   1.7662   2.6097   0.00    0.0   -0.00644   -0.01106   -0.06030   0.00000  0.00000  0.00000  0.00000  0.00000  0.00000
2268 259489.000   4402957.3642    666836.3385   4550862.8650   5  11   3.3953   1.7420   4.5619   0.6254   1.7667   2.6105   0.00    0.0    0.05298    0.00356   -0.00775   0.00000  0.00000  0.00000  0.00000  0.00000  0.00000
2268 259490.000   4402956.4547    666835.9462   4550860.9916   5  11   3.3954   1.7421   4.5629   0.6261   1.7672   2.6112   0.00    0.0    0.07425   -0.00368    0.06046   0.00000  0.00000  0.00000  0.00000  0.00000  0.00000
2268 259491.000   4402956.5076    666835.5412   4550861.1319   5  11   3.3954   1.7422   4.5640   0.6268   1.7676   2.6120   0.00    0.0    0.03685   -0.00419    0.02132   0.00000  0.00000  0.00000  0.00000  0.00000  0.00000
2268 259492.000   4402956.3516    666835.8183   4550860.7887   5  11   3.3954   1.7423   4.5650   0.6276   1.7681   2.6127   0.00    0.0    0.03764    0.00097    0.10096   0.00000  0.00000  0.00000  0.00000  0.00000  0.00000
2268 259493.000   4402956.8362    666835.8505   4550861.7912   5  11   3.3955   1.7423   4.5660   0.6283   1.7686   2.6135   0.00    0.0   -0.02643    0.00359   -0.03178   0.00000  0.00000  0.00000  0.00000  0.00000  0.00000
