% program   : GINav v0.1.0
% obs start : 2023/06/28 00:00:20.0
% obs end   : 2023/06/28 00:25:20.0
% mode      : PPP Kinematic
% system    : GPS GALILEO 
% nfreqs    : 2
% elev mask : 10.0 deg
% ephemeris : broadcast
% ionos opt : off
% trops opt : off
%
%  GPST              x-ecef(m)      y-ecef(m)      z-ecef(m)   Q  ns   sdx(m)   sdy(m)   sdz(m)  sdxy(m)  sdyz(m)  sdzx(m) age(s)  ratio    vx(m/s)    vy(m/s)    vz(m/s)      sdvx     sdvy     sdvz    sdvxy    sdvyz    sdvzx
2268 259220.023   6378136.8043        -0.0670         0.0511   6   8   4.8452   1.9137   1.4511  -0.6079  -1.0162  -1.3884   0.00    0.0   -0.01740   -0.01497   -0.01452   0.00000  0.00000  0.00000  0.00000  0.00000  0.00000
2268 259221.023   6378136.6575         0.0125         0.0667   6   9   4.1703   1.6446   1.2500  -0.5119  -0.8725  -1.1999   0.00    0.0   -0.03142   -0.01616    0.01228   0.00000  0.00000  0.00000  0.00000  0.00000  0.00000
2268 259222.023   6378136.4242        -0.0067         0.0617   6  10   3.9079   1.5458   1.1757  -0.4767  -0.8213  -1.1252   0.00    0.0   -0.06581    0.04339   -0.02674   0.00000  0.00000  0.00000  0.00000  0.00000  0.00000
2268 259223.023   6378136.2495        -0.0560         0.0484   6  10   3.7760   1.4938   1.1368  -0.4586  -0.7945  -1.0875   0.00    0.0   -0.01745   -0.01617    0.01011   0.00000  0.00000  0.00000  0.00000  0.00000  0.00000
2268 259224.023   6378136.4701        -0.0978         0.0349   6  11   3.6804   1.4613   1.1116  -0.4351  -0.7791  -1.0564   0.00    0.0   -0.00399    0.03922    0.02278   0.00000  0.00000  0.00000  0.00000  0.00000  0.00000
2268 259225.023   6378136.5543        -0.0138         0.0735   6  12   3.6152   1.4390   1.0944  -0.4164  -0.7687  -1.0349   0.00    0.0    0.00950    0.02685    0.04017   0.00000  0.00000  0.00000  0.00000  0.00000  0.00000
2268 259226.023   6378136.6307         0.0280         0.0414   6  12   3.5736   1.4231   1.0825  -0.4080  -0.7607  -1.0228   0.00    0.0    0.01779   -0.03692    0.01533   0.00000  0.00000  0.00000  0.00000  0.00000  0.00000
2268 259227.023   6378136.7111         0.0084        -0.0027   6  12   3.5428   1.4109   1.0735  -0.4020  -0.7546  -1.0142   0.00    0.0   -0.03996   -0.01810   -0.00685   0.00000  0.00000  0.00000  0.00000  0.00000  0.00000
2268 259228.023   6378136.4937        -0.0545         0.0842   6  12   3.5191   1.4014   1.0665  -0.3973  -0.7497  -1.0078   0.00    0.0    0.04440    0.02516   -0.00230   0.00000  0.00000  0.00000  0.00000  0.00000  0.00000
2268 259229.023   6378136.6171        -0.0647         0.0946   6  13   3.5001   1.3931   1.0609  -0.3949  -0.7460  -1.0030   0.00    0.0   -0.04382   -0.00534   -0.01959   0.00000  0.00000  0.00000  0.00000  0.00000  0.00000
2268 259230.023   6378136.6005        -0.1797         0.1454   6  14   3.4823   1.3858   1.0556  -0.3846  -0.7414  -1.0017   0.00    0.0    0.01851   -0.00862    0.02621   0.00000  0.00000  0.00000  0.00000  0.00000  0.00000
2268 259231.023   6378136.6931        -0.1344         0.1144   6  14   3.4685   1.3802   1.0516  -0.3791  -0.7383  -0.9992   0.00    0.0   -0.06002    0.01901   -0.02316   0.00000  0.00000  0.00000  0.00000  0.00000  0.00000
2268 259232.023   6378136.4828        -0.1473         0.1228   6  14   3.4573   1.3755   1.0484  -0.3755  -0.7358  -0.9970   0.00    0.0   -0.01496   -0.01297    0.01028   0.00000  0.00000  0.00000  0.00000  0.00000  0.00000
2268 259233.023   6378136.7473        -0.1273         0.0715   6  14   3.4480   1.3715   1.0456  -0.3725  -0.7337  -0.9951   0.00    0.0    0.00770   -0.03323    0.00635   0.00000  0.00000  0.00000  0.00000  0.00000  0.00000
2268 259234.023   6378136.7398        -0.0343         0.0853   6  14   3.4400   1.3680   1.0433  -0.3700  -0.7318  -0.9935   0.00    0.0    0.03539   -0.00184   -0.00381   0.00000  0.00000  0.00000  0.00000  0.00000  0.00000
2268 259235.023   6378136.8319        -0.0394         0.1166   6  15   3.4230   1.3620   1.0396  -0.3982  -0.7267  -0.9844   0.00    0.0   -0.02947   -0.00468   -0.00341   0.00000  0.00000  0.00000  0.00000  0.00000  0.00000
2268 259236.023   6378136.8719         0.0251         0.0870   6  15   3.4139   1.3587   1.0373  -0.4037  -0.7243  -0.9811   0.00    0.0    0.05192    0.00976    0.02262   0.00000  0.00000  0.00000  0.00000  0.00000  0.00000
2268 259237.023   6378136.7583         0.0183         0.1069   6  15   3.4074   1.3560   1.0355  -0.4047  -0.7226  -0.9794   0.00    0.0    0.00858   -0.01825    0.01134   0.00000  0.00000  0.00000  0.00000  0.00000  0.00000
2268 259238.023   6378136.9053        -0.0623         0.1218   6  15   3.4021   1.3536   1.0340  -0.4045  -0.7213  -0.9783   0.00    0.0   -0.01481    0.04124   -0.00756   0.00000  0.00000  0.00000  0.00000  0.00000  0.00000
2268 259239.023   6378137.0215        -0.1747         0.0917   6  15   3.3975   1.3515   1.0327  -0.4037  -0.7201  -0.9775   0.00    0.0    0.01514   -0.00091    0.00710   0.00000  0.00000  0.00000  0.00000  0.00000  0.00000
2268 259240.023   6378137.1276        -0.1899         0.1077   6  15   3.3936   1.3496   1.0315  -0.4028  -0.7190  -0.9768   0.00    0.0   -0.00421    0.01125   -0.01363   0.00000  0.00000  0.00000  0.00000  0.00000  0.00000
2268 259241.023   6378137.0710        -0.1539         0.1108   6  15   3.3901   1.3479   1.0305  -0.4017  -0.7180  -0.9764   0.00    0.0    0.02346    0.00899   -0.00344   0.00000  0.00000  0.00000  0.00000  0.00000  0.00000
2268 259242.023   6378136.8142        -0.2087         0.1412   6  15   3.3869   1.3463   1.0295  -0.4006  -0.7171  -0.9761   0.00    0.0   -0.01008   -0.01100   -0.01563   0.00000  0.00000  0.00000  0.00000  0.00000  0.00000
2268 259243.023   6378137.0618        -0.1428         0.0926   6  15   3.3841   1.3448   1.0286  -0.3995  -0.7163  -0.9759   0.00    0.0    0.02522   -0.00227    0.02044   0.00000  0.00000  0.00000  0.00000  0.00000  0.00000
2268 259244.023   6378136.8950        -0.1730         0.1435   6  15   3.3816   1.3435   1.0279  -0.3983  -0.7155  -0.9758   0.00    0.0    0.02700   -0.00428    0.00092   0.00000  0.00000  0.00000  0.00000  0.00000  0.00000
2268 259245.023   6378136.8712        -0.1824         0.1527   6  15   3.3793   1.3422   1.0272  -0.3971  -0.7148  -0.9758   0.00    0.0   -0.00802   -0.00697    0.00854   0.00000  0.00000  0.00000  0.00000  0.00000  0.00000
2268 259246.023   6378136.8668        -0.1393         0.2117   6  15   3.3773   1.3410   1.0265  -0.3960  -0.7141  -0.9758   0.00    0.0   -0.01604   -0.01042   -0.01487   0.00000  0.00000  0.00000  0.00000  0.00000  0.00000
2268 259247.023   6378136.8543        -0.0842         0.1692   6  15   3.3754   1.3399   1.0259  -0.3948  -0.7135  -0.9759   0.00    0.0   -0.00335   -0.00677   -0.01064   0.00000  0.00000  0.00000  0.00000  0.00000  0.00000
2268 259248.023   6378136.8671        -0.0842         0.2221   6  15   3.3737   1.3389   1.0254  -0.3936  -0.7129  -0.9760   0.00    0.0   -0.00404   -0.00926   -0.00227   0.00000  0.00000  0.00000  0.00000  0.00000  0.00000
2268 259249.023   6378136.8648        -0.0149         0.1054   6  15   3.3722   1.3379   1.0249  -0.3924  -0.7124  -0.9762   0.00    0.0    0.00329   -0.01754    0.01034   0.00000  0.00000  0.00000  0.00000  0.00000  0.00000
2268 259250.023   6378136.9437        -0.0638         0.1285   6  15   3.3708   1.3369   1.0244  -0.3913  -0.7118  -0.9765   0.00    0.0    0.06197    0.00134    0.02351   0.00000  0.00000  0.00000  0.00000  0.00000  0.00000
2268 259251.023   6378137.0105        -0.0671         0.1461   6  15   3.3695   1.3360   1.0240  -0.3901  -0.7113  -0.9767   0.00    0.0   -0.00996    0.00822   -0.00803   0.00000  0.00000  0.00000  0.00000  0.00000  0.00000
2268 259252.023   6378136.8771        -0.0796         0.1638   6  15   3.3683   1.3352   1.0236  -0.3889  -0.7108  -0.9770   0.00    0.0   -0.00660   -0.00109   -0.00152   0.00000  0.00000  0.00000  0.00000  0.00000  0.00000
2268 259253.023   6378136.9144        -0.0093         0.1722   6  15   3.3673   1.3344   1.0232  -0.3878  -0.7103  -0.9774   0.00    0.0    0.01536   -0.00222    0.01254   0.00000  0.00000  0.00000  0.00000  0.00000  0.00000
2268 259254.023   6378136.9030        -0.0562         0.1456   6  15   3.3663   1.3336   1.0229  -0.3866  -0.7099  -0.9777   0.00    0.0    0.03926   -0.01378    0.01715   0.00000  0.00000  0.00000  0.00000  0.00000  0.00000
2268 259255.023   6378137.0216        -0.0196         0.1530   6  15   3.3654   1.3329   1.0226  -0.3855  -0.7095  -0.9781   0.00    0.0    0.08557    0.00294   -0.00387   0.00000  0.00000  0.00000  0.00000  0.00000  0.00000
2268 259256.023   6378136.9936        -0.0345         0.1292   6  15   3.3646   1.3321   1.0223  -0.3843  -0.7090  -0.9785   0.00    0.0    0.01850   -0.01138   -0.00141   0.00000  0.00000  0.00000  0.00000  0.00000  0.00000
2268 259257.023   6378137.1047        -0.0913         0.1060   6  15   3.3639   1.3315   1.0220  -0.3832  -0.7086  -0.9790   0.00    0.0   -0.01196   -0.00493   -0.00246   0.00000  0.00000  0.00000  0.00000  0.00000  0.00000
2268 259258.023   6378137.2791        -0.1393         0.0680   6  15   3.3632   1.3308   1.0218  -0.3820  -0.7083  -0.9794   0.00    0.0    0.03453    0.01009   -0.00301   0.00000  0.00000  0.00000  0.00000  0.00000  0.00000
2268 259259.023   6378137.1705        -0.1240         0.1443   6  15   3.3626   1.3302   1.0216  -0.3809  -0.7079  -0.9799   0.00    0.0   -0.00584    0.00293    0.00049   0.00000  0.00000  0.00000  0.00000  0.00000  0.00000
2268 259260.023   6378137.1187        -0.0370         0.1142   6  15   3.3621   1.3296   1.0213  -0.3798  -0.7075  -0.9804   0.00    0.0    0.00585   -0.00631   -0.00987   0.00000  0.00000  0.00000  0.00000  0.00000  0.00000
2268 259261.023   6378137.0424        -0.0625         0.1032   6  15   3.3616   1.3290   1.0211  -0.3786  -0.7072  -0.9809   0.00    0.0    0.00292   -0.01207   -0.00389   0.00000  0.00000  0.00000  0.00000  0.00000  0.00000
2268 259262.023   6378136.9405        -0.0774         0.1563   6  15   3.3612   1.3284   1.0210  -0.3775  -0.7068  -0.9814   0.00    0.0    0.02212   -0.00782   -0.00465   0.00000  0.00000  0.00000  0.00000  0.00000  0.00000
2268 259263.023   6378136.9347        -0.0985         0.1668   6  15   3.3608   1.3278   1.0208  -0.3764  -0.7065  -0.9819   0.00    0.0   -0.01451    0.01099    0.03282   0.00000  0.00000  0.00000  0.00000  0.00000  0.00000
2268 259264.023   6378137.0454        -0.0270         0.1687   6  15   3.3604   1.3273   1.0206  -0.3752  -0.7062  -0.9825   0.00    0.0    0.01044    0.01291    0.00433   0.00000  0.00000  0.00000  0.00000  0.00000  0.00000
2268 259265.023   6378136.9265         0.0058         0.1561   6  15   3.3601   1.3268   1.0205  -0.3741  -0.7059  -0.9830   0.00    0.0   -0.06396    0.00662   -0.01612   0.00000  0.00000  0.00000  0.00000  0.00000  0.00000
2268 259266.023   6378136.8812         0.0105         0.1396   6  15   3.3598   1.3263   1.0204  -0.3730  -0.7055  -0.9836   0.00    0.0   -0.02626   -0.00590   -0.01451   0.00000  0.00000  0.00000  0.00000  0.00000  0.00000
2268 259267.023   6378136.8778        -0.0172         0.0446   6  15   3.3596   1.3258   1.0202  -0.3718  -0.7052  -0.9842   0.00    0.0    0.06569    0.02208    0.01362   0.00000  0.00000  0.00000  0.00000  0.00000  0.00000
2268 259268.023   6378136.6244         0.0241        -0.0223   6  15   3.3594   1.3253   1.0201  -0.3707  -0.7050  -0.9847   0.00    0.0   -0.01956   -0.03060   -0.01286   0.00000  0.00000  0.00000  0.00000  0.00000  0.00000
2268 259269.023   6378136.7081        -0.0398        -0.0127   6  15   3.3592   1.3248   1.0200  -0.3696  -0.7047  -0.9853   0.00    0.0   -0.03419    0.00214    0.01485   0.00000  0.00000  0.00000  0.00000  0.00000  0.00000
2268 259270.023   6378136.8832         0.0329        -0.0139   6  15   3.3591   1.3244   1.0199  -0.3684  -0.7044  -0.9859   0.00    0.0   -0.01039   -0.01229   -0.00821   0.00000  0.00000  0.00000  0.00000  0.00000  0.00000
2268 259271.023   6378136.9083         0.0032        -0.0077   6  15   3.3590   1.3239   1.0198  -0.3673  -0.7041  -0.9865   0.00    0.0    0.05169   -0.00569    0.00727   0.00000  0.00000  0.00000  0.00000  0.00000  0.00000
2268 259272.023   6378136.8571        -0.1223         0.0316   6  15   3.3589   1.3235   1.0198  -0.3662  -0.7038  -0.9872   0.00    0.0   -0.01951    0.00122   -0.01762   0.00000  0.00000  0.00000  0.00000  0.00000  0.00000
2268 259273.023   6378136.8569        -0.1549         0.1211   6  15   3.3588   1.3230   1.0197  -0.3650  -0.7036  -0.9878   0.00    0.0   -0.02360   -0.00157   -0.00277   0.00000  0.00000  0.00000  0.00000  0.00000  0.00000
2268 259274.023   6378136.9111        -0.1723         0.1610   6  15   3.3588   1.3226   1.0196  -0.3639  -0.7033  -0.9884   0.00    0.0    0.02715    0.00629    0.01549   0.00000  0.00000  0.00000  0.00000  0.00000  0.00000
2268 259275.023   6378136.9279        -0.1923         0.1865   6  15   3.3587   1.3222   1.0196  -0.3628  -0.7031  -0.9890   0.00    0.0   -0.01306    0.00774   -0.01185   0.00000  0.00000  0.00000  0.00000  0.00000  0.00000
2268 259276.023   6378136.7859        -0.1153         0.1767   6  15   3.3587   1.3218   1.0195  -0.3616  -0.7028  -0.9897   0.00    0.0   -0.03665    0.01990   -0.01982   0.00000  0.00000  0.00000  0.00000  0.00000  0.00000
2268 259277.023   6378136.7812        -0.1372         0.1676   6  15   3.3588   1.3214   1.0195  -0.3605  -0.7026  -0.9903   0.00    0.0   -0.02962   -0.02106    0.00070   0.00000  0.00000  0.00000  0.00000  0.00000  0.00000
2268 259278.023   6378136.5677        -0.1264         0.0824   6  15   3.3588   1.3210   1.0194  -0.3594  -0.7023  -0.9910   0.00    0.0   -0.00261    0.00079    0.01032   0.00000  0.00000  0.00000  0.00000  0.00000  0.00000
2268 259279.023   6378136.6413        -0.1474         0.0551   6  15   3.3588   1.3206   1.0194  -0.3582  -0.7021  -0.9916   0.00    0.0   -0.01636    0.02223   -0.00456   0.00000  0.00000  0.00000  0.00000  0.00000  0.00000
2268 259280.023   6378136.8237        -0.1309         0.0683   6  15   3.3589   1.3203   1.0194  -0.3571  -0.7018  -0.9923   0.00    0.0   -0.01773   -0.01430    0.01784   0.00000  0.00000  0.00000  0.00000  0.00000  0.00000
2268 259281.023   6378136.9433        -0.1682         0.0662   6  15   3.3590   1.3199   1.0193  -0.3559  -0.7016  -0.9930   0.00    0.0   -0.03294   -0.01562    0.01859   0.00000  0.00000  0.00000  0.00000  0.00000  0.00000
2268 259282.023   6378136.9946        -0.1681         0.0791   6  15   3.3591   1.3195   1.0193  -0.3548  -0.7014  -0.9936   0.00    0.0    0.02830    0.00603    0.00855   0.00000  0.00000  0.00000  0.00000  0.00000  0.00000
2268 259283.023   6378137.1510        -0.0880         0.0119   6  15   3.3592   1.3192   1.0193  -0.3537  -0.7012  -0.9943   0.00    0.0   -0.00428   -0.01658   -0.00377   0.00000  0.00000  0.00000  0.00000  0.00000  0.00000
2268 259284.023   6378137.0703        -0.0751         0.0255   6  15   3.3594   1.3188   1.0193  -0.3525  -0.7009  -0.9950   0.00    0.0   -0.04367   -0.00558    0.01469   0.00000  0.00000  0.00000  0.00000  0.00000  0.00000
2268 259285.023   6378137.0561        -0.0646         0.0387   6  15   3.3595   1.3185   1.0193  -0.3514  -0.7007  -0.9957   0.00    0.0   -0.01884    0.02725    0.00657   0.00000  0.00000  0.00000  0.00000  0.00000  0.00000
2268 259286.023   6378136.8518        -0.0474         0.1020   6  15   3.3597   1.3181   1.0193  -0.3502  -0.7005  -0.9964   0.00    0.0   -0.04513   -0.02830   -0.00716   0.00000  0.00000  0.00000  0.00000  0.00000  0.00000
2268 259287.023   6378137.0103        -0.1031         0.0738   6  15   3.3599   1.3178   1.0193  -0.3491  -0.7003  -0.9971   0.00    0.0   -0.05358   -0.01169   -0.00394   0.00000  0.00000  0.00000  0.00000  0.00000  0.00000
2268 259288.023   6378136.9966        -0.1214         0.1213   6  15   3.3600   1.3175   1.0193  -0.3479  -0.7001  -0.9978   0.00    0.0   -0.02711   -0.00126   -0.00676   0.00000  0.00000  0.00000  0.00000  0.00000  0.00000
2268 259289.023   6378136.9103        -0.0874         0.1044   6  15   3.3602   1.3172   1.0193  -0.3467  -0.6999  -0.9985   0.00    0.0    0.00414    0.00773    0.01124   0.00000  0.00000  0.00000  0.00000  0.00000  0.00000
2268 259290.023   6378136.8782        -0.1371         0.0865   6  15   3.3604   1.3168   1.0193  -0.3456  -0.6996  -0.9992   0.00    0.0    0.01803   -0.02792    0.02045   0.00000  0.00000  0.00000  0.00000  0.00000  0.00000
2268 259291.023   6378137.1668        -0.1391         0.0345   6  15   3.3607   1.3165   1.0193  -0.3444  -0.6994  -0.9999   0.00    0.0    0.01002   -0.00656   -0.01689   0.00000  0.00000  0.00000  0.00000  0.00000  0.00000
2268 259292.023   6378137.1473        -0.0740        -0.0005   6  15   3.3609   1.3162   1.0193  -0.3432  -0.6992  -1.0006   0.00    0.0   -0.00023    0.00924    0.01544   0.00000  0.00000  0.00000  0.00000  0.00000  0.00000
2268 259293.023   6378137.1009         0.0014        -0.0021   6  15   3.3611   1.3159   1.0193  -0.3421  -0.6990  -1.0013   0.00    0.0    0.02026    0.00430    0.01199   0.00000  0.00000  0.00000  0.00000  0.00000  0.00000
2268 259294.023   6378137.1236         0.0862        -0.0424   6  15   3.3614   1.3156   1.0194  -0.3409  -0.6988  -1.0020   0.00    0.0    0.01936   -0.03026    0.02699   0.00000  0.00000  0.00000  0.00000  0.00000  0.00000
2268 259295.023   6378136.9655         0.0632         0.0277   6  15   3.3616   1.3153   1.0194  -0.3397  -0.6986  -1.0027   0.00    0.0    0.02381   -0.00064    0.01226   0.00000  0.00000  0.00000  0.00000  0.00000  0.00000
2268 259296.023   6378136.8755         0.0116         0.0571   6  15   3.3619   1.3150   1.0194  -0.3386  -0.6984  -1.0034   0.00    0.0   -0.01180   -0.00523    0.01045   0.00000  0.00000  0.00000  0.00000  0.00000  0.00000
2268 259297.023   6378136.9200        -0.1074         0.0852   6  15   3.3622   1.3147   1.0195  -0.3374  -0.6982  -1.0041   0.00    0.0    0.01781    0.02566   -0.03407   0.00000  0.00000  0.00000  0.00000  0.00000  0.00000
2268 259298.023   6378137.0781        -0.1853         0.1422   6  15   3.3624   1.3144   1.0195  -0.3362  -0.6980  -1.0048   0.00    0.0   -0.02914   -0.02157   -0.00409   0.00000  0.00000  0.00000  0.00000  0.00000  0.00000
2268 259299.023   6378136.9390        -0.1805         0.1280   6  15   3.3627   1.3141   1.0195  -0.3350  -0.6979  -1.0056   0.00    0.0   -0.00369   -0.00680    0.01099   0.00000  0.00000  0.00000  0.00000  0.00000  0.00000
2268 259300.023   6378136.9903        -0.1342         0.1144   6  15   3.3630   1.3138   1.0196  -0.3338  -0.6977  -1.0063   0.00    0.0    0.03035   -0.00486    0.00837   0.00000  0.00000  0.00000  0.00000  0.00000  0.00000
2268 259301.023   6378136.9415        -0.0692         0.1431   6  15   3.3633   1.3135   1.0196  -0.3326  -0.6975  -1.0070   0.00    0.0    0.03705   -0.00374    0.01427   0.00000  0.00000  0.00000  0.00000  0.00000  0.00000
2268 259302.023   6378137.4443         0.0872         0.0786   6  14   6.4522   2.2986   1.0669   3.2059  -1.0385  -1.6566   0.00    0.0    0.00814    0.00900    0.01787   0.00000  0.00000  0.00000  0.00000  0.00000  0.00000
2268 259303.023   6378137.5257         0.2606         0.0633   6  14   6.4521   2.2986   1.0671   3.2060  -1.0390  -1.6581   0.00    0.0    0.02563   -0.00624    0.04316   0.00000  0.00000  0.00000  0.00000  0.00000  0.00000
2268 259304.023   6378137.0988         0.0814         0.0715   6  14   6.4521   2.2985   1.0673   3.2062  -1.0395  -1.6596   0.00    0.0    0.02143   -0.00937   -0.01929   0.00000  0.00000  0.00000  0.00000  0.00000  0.00000
2268 259305.023   6378137.1716         0.0416         0.0779   6  14   6.4521   2.2984   1.0676   3.2063  -1.0399  -1.6610   0.00    0.0    0.00923   -0.00024   -0.00835   0.00000  0.00000  0.00000  0.00000  0.00000  0.00000
2268 259306.023   6378136.9976         0.0328         0.0546   6  14   6.4520   2.2984   1.0678   3.2065  -1.0404  -1.6625   0.00    0.0    0.00568    0.03049    0.00939   0.00000  0.00000  0.00000  0.00000  0.00000  0.00000
2268 259307.023   6378136.9759         0.0167         0.0391   6  14   6.4520   2.2983   1.0680   3.2066  -1.0409  -1.6640   0.00    0.0    0.01226    0.00443   -0.00560   0.00000  0.00000  0.00000  0.00000  0.00000  0.00000
2268 259308.023   6378136.7052        -0.0732         0.0219   6  14   6.4520   2.2982   1.0683   3.2068  -1.0413  -1.6654   0.00    0.0    0.02922    0.00075    0.00339   0.00000  0.00000  0.00000  0.00000  0.00000  0.00000
2268 259309.023   6378136.7910         0.0097        -0.0178   6  14   6.4520   2.2982   1.0685   3.2069  -1.0418  -1.6669   0.00    0.0    0.00412   -0.00125    0.01336   0.00000  0.00000  0.00000  0.00000  0.00000  0.00000
2268 259310.023   6378136.3196        -0.0708        -0.0117   6  14   6.4519   2.2981   1.0688   3.2070  -1.0423  -1.6684   0.00    0.0    0.01085    0.00184    0.00932   0.00000  0.00000  0.00000  0.00000  0.00000  0.00000
2268 259311.023   6378136.2487        -0.0506         0.0530   6  14   6.4519   2.2980   1.0690   3.2072  -1.0428  -1.6698   0.00    0.0   -0.01956    0.00602    0.00027   0.00000  0.00000  0.00000  0.00000  0.00000  0.00000
2268 259312.023   6378136.2909        -0.0821         0.0150   6  14   6.4519   2.2980   1.0693   3.2073  -1.0432  -1.6713   0.00    0.0    0.03196    0.02601   -0.00234   0.00000  0.00000  0.00000  0.00000  0.00000  0.00000
2268 259313.023   6378136.3677        -0.2057         0.1096   6  14   6.4519   2.2979   1.0695   3.2075  -1.0437  -1.6728   0.00    0.0   -0.01758    0.00771   -0.01632   0.00000  0.00000  0.00000  0.00000  0.00000  0.00000
2268 259314.023   6378136.7008        -0.0866         0.1030   6  14   6.4519   2.2979   1.0698   3.2076  -1.0442  -1.6742   0.00    0.0    0.04365    0.00000    0.00790   0.00000  0.00000  0.00000  0.00000  0.00000  0.00000
2268 259315.023   6378136.6682        -0.1329         0.0960   6  14   6.4519   2.2978   1.0700   3.2078  -1.0446  -1.6757   0.00    0.0   -0.03995   -0.00874    0.02610   0.00000  0.00000  0.00000  0.00000  0.00000  0.00000
2268 259316.023   6378137.0085        -0.1146         0.1184   6  14   6.4519   2.2977   1.0703   3.2079  -1.0451  -1.6772   0.00    0.0    0.00338    0.01080    0.00884   0.00000  0.00000  0.00000  0.00000  0.00000  0.00000
2268 259317.023   6378137.0049        -0.0346         0.1157   6  14   6.4519   2.2977   1.0705   3.2081  -1.0456  -1.6786   0.00    0.0    0.00381    0.00217   -0.02175   0.00000  0.00000  0.00000  0.00000  0.00000  0.00000
2268 259318.023   6378137.0839        -0.0820         0.1250   6  14   6.4519   2.2976   1.0708   3.2082  -1.0461  -1.6801   0.00    0.0   -0.02425    0.00614   -0.00101   0.00000  0.00000  0.00000  0.00000  0.00000  0.00000
2268 259319.023   6378136.6140        -0.1659         0.1170   6  14   6.4519   2.2976   1.0710   3.2083  -1.0465  -1.6815   0.00    0.0    0.09190    0.00124    0.01509   0.00000  0.00000  0.00000  0.00000  0.00000  0.00000
2268 259320.023   6378136.9201         0.0212         0.0353   6  14   6.4519   2.2975   1.0713   3.2085  -1.0470  -1.6830   0.00    0.0   -0.00779    0.00423   -0.01450   0.00000  0.00000  0.00000  0.00000  0.00000  0.00000
2268 259321.023   6378136.8307        -0.0745         0.0348   6  14   6.4519   2.2975   1.0715   3.2086  -1.0475  -1.6845   0.00    0.0   -0.00854   -0.00276   -0.00330   0.00000  0.00000  0.00000  0.00000  0.00000  0.00000
2268 259322.023   6378136.7301        -0.2750         0.0561   6  14   6.4519   2.2974   1.0718   3.2088  -1.0480  -1.6859   0.00    0.0    0.01762   -0.00613    0.01527   0.00000  0.00000  0.00000  0.00000  0.00000  0.00000
2268 259323.023   6378136.6016        -0.2847         0.0667   6  14   6.4520   2.2974   1.0721   3.2089  -1.0484  -1.6874   0.00    0.0    0.04550    0.01211   -0.00715   0.00000  0.00000  0.00000  0.00000  0.00000  0.00000
2268 259324.023   6378136.6310        -0.2719         0.0818   6  14   6.4520   2.2973   1.0723   3.2091  -1.0489  -1.6888   0.00    0.0   -0.04697    0.00544    0.01328   0.00000  0.00000  0.00000  0.00000  0.00000  0.00000
2268 259325.023   6378136.5752        -0.2348         0.0200   6  14   6.4520   2.2973   1.0726   3.2092  -1.0494  -1.6903   0.00    0.0    0.04881    0.00716    0.01667   0.00000  0.00000  0.00000  0.00000  0.00000  0.00000
2268 259326.023   6378136.5120        -0.2328         0.0151   6  14   6.4520   2.2972   1.0729   3.2094  -1.0499  -1.6918   0.00    0.0   -0.02286   -0.00907    0.01912   0.00000  0.00000  0.00000  0.00000  0.00000  0.00000
2268 259327.023   6378136.6071        -0.1239        -0.0364   6  14   6.4521   2.2972   1.0731   3.2095  -1.0503  -1.6932   0.00    0.0    0.00229   -0.01222    0.00919   0.00000  0.00000  0.00000  0.00000  0.00000  0.00000
2268 259328.023   6378136.5015        -0.2055        -0.0244   6  14   6.4521   2.2971   1.0734   3.2096  -1.0508  -1.6947   0.00    0.0   -0.01013   -0.02204   -0.00714   0.00000  0.00000  0.00000  0.00000  0.00000  0.00000
2268 259329.023   6378136.5941        -0.2673         0.0305   6  14   6.4521   2.2971   1.0737   3.2098  -1.0513  -1.6961   0.00    0.0    0.03917   -0.00875   -0.03697   0.00000  0.00000  0.00000  0.00000  0.00000  0.00000
2268 259330.023   6378136.3340        -0.3723         0.0838   6  14   6.4521   2.2970   1.0739   3.2099  -1.0518  -1.6976   0.00    0.0   -0.00845   -0.01307   -0.01222   0.00000  0.00000  0.00000  0.00000  0.00000  0.00000
2268 259331.023   6378136.4951        -0.3304         0.0807   6  14   6.4522   2.2970   1.0742   3.2101  -1.0522  -1.6991   0.00    0.0   -0.04554    0.00810   -0.02670   0.00000  0.00000  0.00000  0.00000  0.00000  0.00000
2268 259332.023   6378136.4738        -0.3012         0.1078   6  14   6.4522   2.2969   1.0745   3.2102  -1.0527  -1.7005   0.00    0.0    0.00349   -0.03099   -0.00259   0.00000  0.00000  0.00000  0.00000  0.00000  0.00000
2268 259333.023   6378136.2557        -0.2665         0.1240   6  14   6.4523   2.2969   1.0748   3.2104  -1.0532  -1.7020   0.00    0.0   -0.05745   -0.00009    0.00056   0.00000  0.00000  0.00000  0.00000  0.00000  0.00000
2268 259334.023   6378136.4475        -0.2064         0.0792   6  14   6.4523   2.2968   1.0750   3.2105  -1.0537  -1.7034   0.00    0.0   -0.01218    0.00429   -0.00398   0.00000  0.00000  0.00000  0.00000  0.00000  0.00000
2268 259335.023   6378136.7336        -0.0792         0.0246   6  14   6.4523   2.2968   1.0753   3.2106  -1.0541  -1.7049   0.00    0.0    0.02480   -0.02050    0.02034   0.00000  0.00000  0.00000  0.00000  0.00000  0.00000
2268 259336.023   6378136.5891         0.0032         0.0163   6  14   6.4524   2.2967   1.0756   3.2108  -1.0546  -1.7063   0.00    0.0   -0.02658   -0.01564    0.01070   0.00000  0.00000  0.00000  0.00000  0.00000  0.00000
2268 259337.023   6378136.5945        -0.1306         0.1254   6  14   6.4524   2.2967   1.0759   3.2109  -1.0551  -1.7078   0.00    0.0   -0.03110    0.00073    0.00036   0.00000  0.00000  0.00000  0.00000  0.00000  0.00000
2268 259338.023   6378136.6216        -0.0247         0.1387   6  14   6.4525   2.2966   1.0762   3.2111  -1.0556  -1.7092   0.00    0.0   -0.00482    0.00245   -0.01963   0.00000  0.00000  0.00000  0.00000  0.00000  0.00000
2268 259339.023   6378136.8976         0.0454         0.0812   6  14   6.4525   2.2966   1.0764   3.2112  -1.0561  -1.7107   0.00    0.0    0.00126    0.03107    0.00311   0.00000  0.00000  0.00000  0.00000  0.00000  0.00000
2268 259340.023   6378136.6940         0.0145         0.0543   6  14   6.4526   2.2966   1.0767   3.2114  -1.0565  -1.7121   0.00    0.0    0.00971    0.01757   -0.03540   0.00000  0.00000  0.00000  0.00000  0.00000  0.00000
2268 259341.023   6378136.7291        -0.0022         0.0707   6  14   6.4526   2.2965   1.0770   3.2115  -1.0570  -1.7136   0.00    0.0   -0.01347    0.00599    0.00690   0.00000  0.00000  0.00000  0.00000  0.00000  0.00000
2268 259342.023   6378136.3084        -0.0726         0.1233   6  14   6.4527   2.2965   1.0773   3.2116  -1.0575  -1.7150   0.00    0.0   -0.03988   -0.00610    0.00871   0.00000  0.00000  0.00000  0.00000  0.00000  0.00000
2268 259343.023   6378136.2627        -0.1338         0.0826   6  14   6.4527   2.2964   1.0776   3.2118  -1.0580  -1.7165   0.00    0.0    0.02147    0.00693   -0.01686   0.00000  0.00000  0.00000  0.00000  0.00000  0.00000
2268 259344.023   6378136.5563         0.0161         0.1041   6  14   6.4528   2.2964   1.0779   3.2119  -1.0584  -1.7179   0.00    0.0   -0.00048   -0.02937   -0.00569   0.00000  0.00000  0.00000  0.00000  0.00000  0.00000
2268 259345.023   6378136.7423         0.0151         0.1313   6  14   6.4528   2.2963   1.0782   3.2121  -1.0589  -1.7194   0.00    0.0    0.02409   -0.01771    0.01693   0.00000  0.00000  0.00000  0.00000  0.00000  0.00000
2268 259346.023   6378137.0849         0.0629         0.1041   6  14   6.4529   2.2963   1.0784   3.2122  -1.0594  -1.7208   0.00    0.0   -0.01231   -0.00193    0.00388   0.00000  0.00000  0.00000  0.00000  0.00000  0.00000
2268 259347.023   6378137.0320        -0.0838         0.1523   6  14   6.4530   2.2963   1.0787   3.2124  -1.0599  -1.7222   0.00    0.0   -0.00862   -0.00612   -0.00493   0.00000  0.00000  0.00000  0.00000  0.00000  0.00000
2268 259348.023   6378137.0578        -0.0828         0.0774   6  14   6.4530   2.2962   1.0790   3.2125  -1.0604  -1.7237   0.00    0.0   -0.04254   -0.02906   -0.01128   0.00000  0.00000  0.00000  0.00000  0.00000  0.00000
2268 259349.023   6378136.8980        -0.0860         0.0777   6  14   6.4531   2.2962   1.0793   3.2126  -1.0608  -1.7251   0.00    0.0    0.05870    0.00737    0.00125   0.00000  0.00000  0.00000  0.00000  0.00000  0.00000
2268 259350.023   6378136.8618         0.0271         0.1088   6  14   6.4532   2.2961   1.0796   3.2128  -1.0613  -1.7266   0.00    0.0   -0.05091    0.02975   -0.02073   0.00000  0.00000  0.00000  0.00000  0.00000  0.00000
2268 259351.023   6378136.7691         0.0580         0.0585   6  14   6.4532   2.2961   1.0799   3.2129  -1.0618  -1.7280   0.00    0.0   -0.00132    0.00786    0.01047   0.00000  0.00000  0.00000  0.00000  0.00000  0.00000
2268 259352.023   6378136.6708         0.0446         0.0606   6  14   6.4533   2.2961   1.0802   3.2131  -1.0623  -1.7295   0.00    0.0   -0.01303    0.02150   -0.01457   0.00000  0.00000  0.00000  0.00000  0.00000  0.00000
2268 259353.023   6378136.5963        -0.0889         0.0414   6  14   6.4534   2.2960   1.0805   3.2132  -1.0627  -1.7309   0.00    0.0    0.04040    0.00873   -0.01192   0.00000  0.00000  0.00000  0.00000  0.00000  0.00000
2268 259354.023   6378136.6707        -0.0929         0.0360   6  14   6.4534   2.2960   1.0808   3.2133  -1.0632  -1.7323   0.00    0.0    0.04247   -0.00970    0.00389   0.00000  0.00000  0.00000  0.00000  0.00000  0.00000
2268 259355.023   6378136.7876        -0.0306        -0.0325   6  14   6.4535   2.2959   1.0811   3.2135  -1.0637  -1.7338   0.00    0.0   -0.02057   -0.00242   -0.03996   0.00000  0.00000  0.00000  0.00000  0.00000  0.00000
2268 259356.023   6378136.3961        -0.0137        -0.0733   6  14   6.4536   2.2959   1.0814   3.2136  -1.0642  -1.7352   0.00    0.0   -0.03722   -0.00860   -0.02424   0.00000  0.00000  0.00000  0.00000  0.00000  0.00000
2268 259357.023   6378136.6098         0.1097        -0.0817   6  14   6.4537   2.2959   1.0817   3.2138  -1.0647  -1.7366   0.00    0.0    0.04175   -0.00715   -0.00107   0.00000  0.00000  0.00000  0.00000  0.00000  0.00000
2268 259358.023   6378136.5118        -0.0241        -0.0965   6  14   6.4537   2.2958   1.0820   3.2139  -1.0651  -1.7381   0.00    0.0    0.01644    0.00807   -0.00472   0.00000  0.00000  0.00000  0.00000  0.00000  0.00000
2268 259359.023   6378136.6810        -0.0534        -0.0078   6  14   6.4538   2.2958   1.0823   3.2140  -1.0656  -1.7395   0.00    0.0    0.00975   -0.02137    0.02401   0.00000  0.00000  0.00000  0.00000  0.00000  0.00000
2268 259360.023   6378135.9775        -0.1478         0.0184   6  14   6.4539   2.2957   1.0826   3.2142  -1.0661  -1.7409   0.00    0.0   -0.00504   -0.00845    0.00538   0.00000  0.00000  0.00000  0.00000  0.00000  0.00000
2268 259361.023   6378135.5816        -0.2428         0.1359   6  14   6.4540   2.2957   1.0829   3.2143  -1.0666  -1.7424   0.00    0.0   -0.05262    0.00554   -0.00004   0.00000  0.00000  0.00000  0.00000  0.00000  0.00000
2268 259362.023   6378135.6999        -0.2980         0.1615   6  14   6.4540   2.2957   1.0832   3.2145  -1.0671  -1.7438   0.00    0.0    0.02169    0.01245    0.03005   0.00000  0.00000  0.00000  0.00000  0.00000  0.00000
2268 259363.023   6378135.8999        -0.2424         0.1962   6  14   6.4541   2.2956   1.0835   3.2146  -1.0675  -1.7452   0.00    0.0   -0.01635   -0.01460   -0.01013   0.00000  0.00000  0.00000  0.00000  0.00000  0.00000
2268 259364.023   6378135.6932        -0.3488         0.2563   6  14   6.4542   2.2956   1.0838   3.2148  -1.0680  -1.7467   0.00    0.0   -0.00762   -0.01883   -0.00204   0.00000  0.00000  0.00000  0.00000  0.00000  0.00000
2268 259365.000   6378136.5625        -0.0788         0.0948   6  21   2.8693   1.1531   0.8451   0.8210  -0.3740  -0.9078   0.00    0.0   -0.04118   -0.02241   -0.01243   0.00000  0.00000  0.00000  0.00000  0.00000  0.00000
2268 259366.000   6378136.6427        -0.0645         0.0577   6  21   2.5598   1.0622   0.8034   0.6504  -0.2499  -0.8491   0.00    0.0   -0.07611   -0.02994   -0.03456   0.00000  0.00000  0.00000  0.00000  0.00000  0.00000
2268 259367.000   6378136.5773         0.0023         0.0558   6  21   2.4487   1.0311   0.7894   0.5860  -0.1938  -0.8290   0.00    0.0   -0.01887   -0.02516   -0.03845   0.00000  0.00000  0.00000  0.00000  0.00000  0.00000
2268 259368.000   6378136.6665        -0.0153        -0.0107   6  21   2.3919   1.0160   0.7825   0.5538  -0.1608  -0.8190   0.00    0.0    0.05489   -0.03763   -0.00857   0.00000  0.00000  0.00000  0.00000  0.00000  0.00000
2268 259369.000   6378136.6704         0.0296         0.0073   6  21   2.3577   1.0074   0.7786   0.5360  -0.1393  -0.8131   0.00    0.0   -0.00590   -0.01879   -0.01936   0.00000  0.00000  0.00000  0.00000  0.00000  0.00000
2268 259370.000   6378136.6809         0.0401         0.0079   6  21   2.3352   1.0022   0.7762   0.5258  -0.1250  -0.8094   0.00    0.0    0.02535   -0.03160   -0.02195   0.00000  0.00000  0.00000  0.00000  0.00000  0.00000
2268 259371.000   6378136.6240         0.0503         0.0463   6  21   2.3194   0.9990   0.7746   0.5202  -0.1155  -0.8069   0.00    0.0   -0.01329   -0.02500   -0.02222   0.00000  0.00000  0.00000  0.00000  0.00000  0.00000
2268 259372.000   6378136.6233         0.0237         0.0748   6  21   2.3078   0.9970   0.7735   0.5176  -0.1096  -0.8052   0.00    0.0   -0.01220   -0.03307   -0.02015   0.00000  0.00000  0.00000  0.00000  0.00000  0.00000
2268 259373.000   6378136.6643        -0.0291         0.0901   6  21   2.2992   0.9958   0.7729   0.5170  -0.1065  -0.8040   0.00    0.0    0.00030   -0.03658   -0.01657   0.00000  0.00000  0.00000  0.00000  0.00000  0.00000
2268 259374.000   6378136.6286        -0.0529         0.1102   6  21   2.2926   0.9953   0.7724   0.5177  -0.1054  -0.8033   0.00    0.0   -0.01526   -0.06246   -0.01562   0.00000  0.00000  0.00000  0.00000  0.00000  0.00000
2268 259375.000   6378136.7408        -0.0277         0.0756   6  21   2.2875   0.9951   0.7722   0.5196  -0.1059  -0.8028   0.00    0.0    0.00968   -0.02368    0.01296   0.00000  0.00000  0.00000  0.00000  0.00000  0.00000
2268 259376.000   6378136.8074        -0.0110         0.0691   6  23   1.9046   0.8827   0.7421  -0.5488   0.2934  -0.6132   0.00    0.0   -0.05955   -0.03193   -0.01428   0.00000  0.00000  0.00000  0.00000  0.00000  0.00000
2268 259377.000   6378136.7103         0.0046         0.0324   6  23   1.8275   0.8615   0.7366  -0.6299   0.3209  -0.5734   0.00    0.0   -0.01351   -0.04517   -0.01652   0.00000  0.00000  0.00000  0.00000  0.00000  0.00000
2268 259378.000   6378136.7316        -0.0381        -0.0310   6  23   1.7996   0.8541   0.7348  -0.6539   0.3294  -0.5594   0.00    0.0   -0.05579   -0.03869   -0.03042   0.00000  0.00000  0.00000  0.00000  0.00000  0.00000
2268 259379.000   6378136.7497         0.0168        -0.0495   6  23   1.7847   0.8503   0.7340  -0.6650   0.3334  -0.5523   0.00    0.0   -0.02716   -0.05979    0.00624   0.00000  0.00000  0.00000  0.00000  0.00000  0.00000
2268 259380.000   6378136.7219         0.0197        -0.0378   6  23   1.7751   0.8480   0.7336  -0.6710   0.3355  -0.5480   0.00    0.0   -0.06931   -0.03152   -0.01923   0.00000  0.00000  0.00000  0.00000  0.00000  0.00000
2268 259381.000   6378136.7923         0.0149        -0.0246   6  23   1.7684   0.8464   0.7334  -0.6747   0.3368  -0.5451   0.00    0.0   -0.02909   -0.05353   -0.01109   0.00000  0.00000  0.00000  0.00000  0.00000  0.00000
2268 259382.000   6378136.9194        -0.0002        -0.0204   6  23   1.7634   0.8454   0.7333  -0.6769   0.3375  -0.5430   0.00    0.0   -0.01567   -0.03084   -0.00745   0.00000  0.00000  0.00000  0.00000  0.00000  0.00000
2268 259383.000   6378136.8712         0.0517        -0.0071   6  23   1.7595   0.8446   0.7334  -0.6783   0.3379  -0.5414   0.00    0.0   -0.03295   -0.03251   -0.01422   0.00000  0.00000  0.00000  0.00000  0.00000  0.00000
2268 259384.000   6378136.9077         0.0871        -0.0622   6  23   1.7563   0.8440   0.7335  -0.6792   0.3380  -0.5402   0.00    0.0   -0.10502   -0.04295   -0.02727   0.00000  0.00000  0.00000  0.00000  0.00000  0.00000
2268 259385.000   6378136.9137         0.0679         0.0179   6  23   1.7538   0.8436   0.7337  -0.6796   0.3380  -0.5393   0.00    0.0   -0.02170   -0.04421    0.00286   0.00000  0.00000  0.00000  0.00000  0.00000  0.00000
2268 259386.000   6378136.9527         0.1228         0.0300   6  23   1.7517   0.8434   0.7339  -0.6798   0.3378  -0.5385   0.00    0.0   -0.03191   -0.05822   -0.01894   0.00000  0.00000  0.00000  0.00000  0.00000  0.00000
2268 259387.000   6378136.9929         0.1251         0.0291   6  23   1.7499   0.8432   0.7342  -0.6798   0.3375  -0.5379   0.00    0.0   -0.02253   -0.04226   -0.03094   0.00000  0.00000  0.00000  0.00000  0.00000  0.00000
2268 259388.000   6378137.0840         0.1049        -0.0084   6  24   1.6628   0.8363   0.7306  -0.7206   0.3488  -0.4982   0.00    0.0   -0.03131   -0.03934   -0.01439   0.00000  0.00000  0.00000  0.00000  0.00000  0.00000
2268 259389.000   6378137.0697         0.0819        -0.0076   6  24   1.6208   0.8333   0.7291  -0.7381   0.3536  -0.4786   0.00    0.0   -0.02838   -0.04420   -0.01103   0.00000  0.00000  0.00000  0.00000  0.00000  0.00000
2268 259390.000   6378137.1056         0.0649        -0.0089   6  24   1.6058   0.8322   0.7288  -0.7439   0.3550  -0.4716   0.00    0.0   -0.03440   -0.02793   -0.00128   0.00000  0.00000  0.00000  0.00000  0.00000  0.00000
2268 259391.000   6378136.9940         0.0721         0.0521   6  24   1.5977   0.8316   0.7289  -0.7467   0.3554  -0.4679   0.00    0.0   -0.06879   -0.04577   -0.00081   0.00000  0.00000  0.00000  0.00000  0.00000  0.00000
2268 259392.000   6378136.9921         0.0468         0.0519   6  24   1.5925   0.8313   0.7290  -0.7483   0.3555  -0.4656   0.00    0.0   -0.02009   -0.04590   -0.00789   0.00000  0.00000  0.00000  0.00000  0.00000  0.00000
2268 259393.000   6378136.8807         0.0629         0.0302   6  24   1.5889   0.8310   0.7293  -0.7493   0.3555  -0.4639   0.00    0.0   -0.02309   -0.07837   -0.00766   0.00000  0.00000  0.00000  0.00000  0.00000  0.00000
2268 259394.000   6378136.8241         0.0958         0.0173   6  24   1.5861   0.8309   0.7296  -0.7500   0.3552  -0.4627   0.00    0.0   -0.05530   -0.04045   -0.01863   0.00000  0.00000  0.00000  0.00000  0.00000  0.00000
2268 259395.000   6378136.8734         0.0782        -0.0167   6  25   1.5832   0.8308   0.7298  -0.7504   0.3550  -0.4625   0.00    0.0   -0.02530   -0.05185   -0.02123   0.00000  0.00000  0.00000  0.00000  0.00000  0.00000
2268 259396.000   6378136.9211         0.0631        -0.0370   6  25   1.5812   0.8308   0.7301  -0.7507   0.3546  -0.4620   0.00    0.0    0.01106   -0.04831    0.00066   0.00000  0.00000  0.00000  0.00000  0.00000  0.00000
2268 259397.000   6378136.9280         0.0947         0.0067   6  25   1.5797   0.8308   0.7304  -0.7509   0.3543  -0.4614   0.00    0.0    0.01999   -0.04330    0.01835   0.00000  0.00000  0.00000  0.00000  0.00000  0.00000
2268 259398.000   6378136.9253         0.0503         0.0190   6  25   1.5784   0.8309   0.7308  -0.7510   0.3538  -0.4610   0.00    0.0    0.03394   -0.04006   -0.02255   0.00000  0.00000  0.00000  0.00000  0.00000  0.00000
2268 259399.000   6378136.9794         0.0401        -0.0257   6  25   1.5773   0.8309   0.7312  -0.7510   0.3534  -0.4606   0.00    0.0    0.00089   -0.05399   -0.00689   0.00000  0.00000  0.00000  0.00000  0.00000  0.00000
2268 259400.000   6378137.0427         0.0111        -0.0204   6  25   1.5764   0.8310   0.7316  -0.7511   0.3529  -0.4603   0.00    0.0   -0.03659   -0.04766   -0.02665   0.00000  0.00000  0.00000  0.00000  0.00000  0.00000
2268 259401.000   6378137.0154         0.0325         0.0267   6  25   1.5756   0.8311   0.7320  -0.7510   0.3524  -0.4601   0.00    0.0   -0.04835   -0.03549   -0.01712   0.00000  0.00000  0.00000  0.00000  0.00000  0.00000
2268 259402.000   6378137.0607         0.0277        -0.0149   6  25   1.5749   0.8312   0.7324  -0.7510   0.3519  -0.4599   0.00    0.0   -0.03633   -0.03692   -0.01892   0.00000  0.00000  0.00000  0.00000  0.00000  0.00000
2268 259403.000   6378136.9934         0.0574         0.0050   6  25   1.5743   0.8313   0.7329  -0.7509   0.3514  -0.4597   0.00    0.0   -0.01249   -0.03349   -0.00520   0.00000  0.00000  0.00000  0.00000  0.00000  0.00000
2268 259404.000   6378136.9768         0.0693         0.0026   6  25   1.5738   0.8315   0.7333  -0.7509   0.3508  -0.4596   0.00    0.0   -0.05336   -0.03466    0.00679   0.00000  0.00000  0.00000  0.00000  0.00000  0.00000
2268 259405.000   6378137.0103         0.0772        -0.0148   6  25   1.5733   0.8316   0.7337  -0.7508   0.3503  -0.4595   0.00    0.0   -0.04932   -0.03716   -0.02634   0.00000  0.00000  0.00000  0.00000  0.00000  0.00000
2268 259406.000   6378136.9622         0.1008         0.0209   6  25   1.5730   0.8318   0.7342  -0.7507   0.3497  -0.4595   0.00    0.0   -0.01301   -0.04497   -0.00593   0.00000  0.00000  0.00000  0.00000  0.00000  0.00000
2268 259407.000   6378136.9882         0.0834         0.0150   6  25   1.5727   0.8319   0.7346  -0.7505   0.3491  -0.4595   0.00    0.0   -0.01541   -0.04000   -0.01871   0.00000  0.00000  0.00000  0.00000  0.00000  0.00000
2268 259408.000   6378136.9821         0.0770         0.0335   6  25   1.5724   0.8321   0.7351  -0.7504   0.3485  -0.4595   0.00    0.0   -0.02954   -0.02652   -0.01325   0.00000  0.00000  0.00000  0.00000  0.00000  0.00000
2268 259409.000   6378136.9346         0.0424         0.0270   6  25   1.5722   0.8323   0.7356  -0.7503   0.3479  -0.4595   0.00    0.0   -0.03339   -0.03695    0.00605   0.00000  0.00000  0.00000  0.00000  0.00000  0.00000
2268 259410.000   6378136.9747         0.0262        -0.0083   6  25   1.5721   0.8325   0.7360  -0.7502   0.3473  -0.4596   0.00    0.0   -0.02736   -0.05918   -0.00475   0.00000  0.00000  0.00000  0.00000  0.00000  0.00000
2268 259411.000   6378136.9488        -0.0038        -0.0129   6  25   1.5719   0.8327   0.7365  -0.7501   0.3467  -0.4597   0.00    0.0   -0.04049   -0.03887   -0.01329   0.00000  0.00000  0.00000  0.00000  0.00000  0.00000
2268 259412.000   6378136.9300        -0.0368        -0.0187   6  26   1.5587   0.8281   0.7182  -0.7378   0.3667  -0.4949   0.00    0.0   -0.01453   -0.03955   -0.01060   0.00000  0.00000  0.00000  0.00000  0.00000  0.00000
2268 259413.000   6378137.0521        -0.0511        -0.0043   6  26   1.5536   0.8264   0.7107  -0.7328   0.3743  -0.5085   0.00    0.0   -0.02349   -0.03686    0.00488   0.00000  0.00000  0.00000  0.00000  0.00000  0.00000
2268 259414.000   6378137.0193        -0.0063         0.0377   6  26   1.5521   0.8260   0.7084  -0.7312   0.3764  -0.5129   0.00    0.0   -0.03526   -0.03392   -0.01963   0.00000  0.00000  0.00000  0.00000  0.00000  0.00000
2268 259415.000   6378137.0000         0.0287         0.0389   6  26   1.5515   0.8260   0.7075  -0.7304   0.3771  -0.5151   0.00    0.0   -0.02977   -0.04737   -0.00306   0.00000  0.00000  0.00000  0.00000  0.00000  0.00000
2268 259416.000   6378136.9557         0.0670         0.0412   6  25   1.5870   0.8711   0.7342  -0.7908   0.2960  -0.4477   0.00    0.0   -0.02226   -0.04935   -0.01306   0.00000  0.00000  0.00000  0.00000  0.00000  0.00000
2268 259417.000   6378136.9386         0.0413         0.0546   6  25   1.5873   0.8714   0.7340  -0.7908   0.2958  -0.4485   0.00    0.0    0.00711   -0.00893   -0.00743   0.00000  0.00000  0.00000  0.00000  0.00000  0.00000
2268 259418.000   6378136.9926         0.0440         0.0359   6  25   1.5878   0.8717   0.7340  -0.7911   0.2953  -0.4488   0.00    0.0   -0.02356   -0.05582   -0.01915   0.00000  0.00000  0.00000  0.00000  0.00000  0.00000
2268 259419.000   6378136.9787         0.0644         0.0688   6  25   1.5885   0.8721   0.7341  -0.7915   0.2945  -0.4488   0.00    0.0   -0.00116   -0.04737    0.00600   0.00000  0.00000  0.00000  0.00000  0.00000  0.00000
2268 259420.000   6378137.0024         0.0487         0.0562   6  25   1.5893   0.8726   0.7344  -0.7919   0.2936  -0.4487   0.00    0.0   -0.02586   -0.03138   -0.01319   0.00000  0.00000  0.00000  0.00000  0.00000  0.00000
2268 259421.000   6378136.9933         0.0867         0.0379   6  25   1.5902   0.8731   0.7346  -0.7925   0.2925  -0.4484   0.00    0.0    0.01575   -0.05940   -0.01569   0.00000  0.00000  0.00000  0.00000  0.00000  0.00000
2268 259422.000   6378137.0884         0.0380        -0.0030   6  25   1.5911   0.8736   0.7350  -0.7930   0.2913  -0.4480   0.00    0.0   -0.01108   -0.02630   -0.00310   0.00000  0.00000  0.00000  0.00000  0.00000  0.00000
2268 259423.000   6378137.1274         0.0917         0.0026   6  25   1.5921   0.8742   0.7354  -0.7937   0.2900  -0.4476   0.00    0.0   -0.02012   -0.03754   -0.01285   0.00000  0.00000  0.00000  0.00000  0.00000  0.00000
2268 259424.000   6378137.0959         0.0431        -0.0519   6  25   1.5932   0.8748   0.7358  -0.7943   0.2887  -0.4471   0.00    0.0   -0.06427   -0.05515    0.00540   0.00000  0.00000  0.00000  0.00000  0.00000  0.00000
2268 259425.000   6378136.9900         0.0715         0.0044   6  25   1.5943   0.8753   0.7362  -0.7950   0.2873  -0.4466   0.00    0.0   -0.02726   -0.03969   -0.01067   0.00000  0.00000  0.00000  0.00000  0.00000  0.00000
2268 259426.000   6378136.9901         0.0571         0.0251   6  25   1.5955   0.8759   0.7367  -0.7957   0.2859  -0.4460   0.00    0.0   -0.03022   -0.04226   -0.02576   0.00000  0.00000  0.00000  0.00000  0.00000  0.00000
2268 259427.000   6378136.9908         0.0504         0.0046   6  25   1.5967   0.8765   0.7372  -0.7964   0.2844  -0.4454   0.00    0.0   -0.04402   -0.04651   -0.01830   0.00000  0.00000  0.00000  0.00000  0.00000  0.00000
2268 259428.000   6378136.9833         0.0136        -0.0282   6  25   1.5979   0.8772   0.7377  -0.7972   0.2828  -0.4448   0.00    0.0   -0.04206   -0.04895   -0.02105   0.00000  0.00000  0.00000  0.00000  0.00000  0.00000
2268 259429.000   6378136.9440         0.0373        -0.0117   6  25   1.5992   0.8778   0.7382  -0.7979   0.2813  -0.4441   0.00    0.0   -0.02849   -0.05291    0.00943   0.00000  0.00000  0.00000  0.00000  0.00000  0.00000
2268 259430.000   6378137.0276         0.0335        -0.0202   6  25   1.6006   0.8784   0.7387  -0.7987   0.2796  -0.4435   0.00    0.0    0.01755   -0.04180   -0.02125   0.00000  0.00000  0.00000  0.00000  0.00000  0.00000
2268 259431.000   6378137.0761        -0.0245        -0.0473   6  25   1.6019   0.8790   0.7393  -0.7995   0.2780  -0.4428   0.00    0.0    0.01228   -0.04258   -0.02397   0.00000  0.00000  0.00000  0.00000  0.00000  0.00000
2268 259432.000   6378137.0305        -0.0256        -0.0324   6  25   1.6033   0.8797   0.7398  -0.8003   0.2763  -0.4421   0.00    0.0   -0.01325   -0.04462   -0.01539   0.00000  0.00000  0.00000  0.00000  0.00000  0.00000
2268 259433.000   6378137.1136        -0.0421        -0.0448   6  25   1.6048   0.8803   0.7403  -0.8012   0.2746  -0.4414   0.00    0.0   -0.07304   -0.03344   -0.01825   0.00000  0.00000  0.00000  0.00000  0.00000  0.00000
2268 259434.000   6378137.1730        -0.0453         0.0062   6  25   1.6063   0.8810   0.7409  -0.8020   0.2728  -0.4407   0.00    0.0   -0.04758   -0.03102   -0.01887   0.00000  0.00000  0.00000  0.00000  0.00000  0.00000
2268 259435.000   6378137.0678        -0.0179         0.0001   6  25   1.6078   0.8817   0.7415  -0.8029   0.2710  -0.4400   0.00    0.0   -0.03897   -0.03753   -0.01022   0.00000  0.00000  0.00000  0.00000  0.00000  0.00000
2268 259436.000   6378137.0677         0.0200         0.0164   6  25   1.6093   0.8823   0.7420  -0.8038   0.2692  -0.4393   0.00    0.0    0.00606   -0.04001   -0.00203   0.00000  0.00000  0.00000  0.00000  0.00000  0.00000
2268 259437.000   6378137.1403         0.0040         0.0033   6  25   1.6109   0.8830   0.7426  -0.8046   0.2674  -0.4386   0.00    0.0   -0.02032   -0.05280   -0.00428   0.00000  0.00000  0.00000  0.00000  0.00000  0.00000
2268 259438.000   6378137.0953        -0.0007        -0.0141   6  25   1.6125   0.8837   0.7432  -0.8055   0.2655  -0.4379   0.00    0.0   -0.02472   -0.04371   -0.02663   0.00000  0.00000  0.00000  0.00000  0.00000  0.00000
2268 259439.000   6378137.0363         0.0302        -0.0139   6  25   1.6142   0.8844   0.7438  -0.8065   0.2635  -0.4371   0.00    0.0    0.02313   -0.04079   -0.02486   0.00000  0.00000  0.00000  0.00000  0.00000  0.00000
2268 259440.000   6378137.0614         0.0155        -0.0287   6  25   1.6159   0.8851   0.7444  -0.8074   0.2616  -0.4364   0.00    0.0   -0.02518   -0.03697   -0.03541   0.00000  0.00000  0.00000  0.00000  0.00000  0.00000
2268 259441.000   6378137.0309         0.0135        -0.0220   6  25   1.6176   0.8858   0.7450  -0.8083   0.2596  -0.4356   0.00    0.0    0.03185   -0.03530   -0.02314   0.00000  0.00000  0.00000  0.00000  0.00000  0.00000
2268 259442.000   6378136.9380         0.0406         0.0163   6  25   1.6193   0.8865   0.7456  -0.8093   0.2576  -0.4349   0.00    0.0   -0.01427   -0.03948   -0.00199   0.00000  0.00000  0.00000  0.00000  0.00000  0.00000
2268 259443.000   6378136.9361         0.0161        -0.0007   6  25   1.6211   0.8872   0.7462  -0.8102   0.2555  -0.4341   0.00    0.0   -0.02792   -0.04227    0.00575   0.00000  0.00000  0.00000  0.00000  0.00000  0.00000
2268 259444.000   6378137.0126        -0.0307        -0.0145   6  25   1.6230   0.8879   0.7468  -0.8112   0.2534  -0.4334   0.00    0.0   -0.02573   -0.04868   -0.02125   0.00000  0.00000  0.00000  0.00000  0.00000  0.00000
2268 259445.000   6378136.9929         0.0384         0.0254   6  25   1.6248   0.8886   0.7475  -0.8122   0.2513  -0.4326   0.00    0.0   -0.00594   -0.02140   -0.00477   0.00000  0.00000  0.00000  0.00000  0.00000  0.00000
2268 259446.000   6378137.0075         0.0380         0.0072   6  25   1.6267   0.8893   0.7481  -0.8132   0.2491  -0.4318   0.00    0.0   -0.02905   -0.05343   -0.00361   0.00000  0.00000  0.00000  0.00000  0.00000  0.00000
2268 259447.000   6378136.9515         0.0272        -0.0216   6  25   1.6286   0.8900   0.7487  -0.8142   0.2469  -0.4310   0.00    0.0   -0.03091   -0.03427   -0.00298   0.00000  0.00000  0.00000  0.00000  0.00000  0.00000
2268 259448.000   6378136.8910         0.0336         0.0259   6  25   1.6306   0.8907   0.7493  -0.8152   0.2446  -0.4302   0.00    0.0   -0.03310   -0.04758   -0.01746   0.00000  0.00000  0.00000  0.00000  0.00000  0.00000
2268 259449.000   6378136.8314         0.0120        -0.0080   6  25   1.6326   0.8914   0.7500  -0.8163   0.2423  -0.4294   0.00    0.0   -0.03783   -0.02989   -0.00526   0.00000  0.00000  0.00000  0.00000  0.00000  0.00000
2268 259450.000   6378136.8537        -0.0008        -0.0173   6  25   1.6346   0.8922   0.7506  -0.8173   0.2400  -0.4286   0.00    0.0   -0.00862   -0.04897   -0.00239   0.00000  0.00000  0.00000  0.00000  0.00000  0.00000
2268 259451.000   6378136.8445        -0.0212        -0.0303   6  25   1.6367   0.8929   0.7513  -0.8184   0.2376  -0.4278   0.00    0.0   -0.03319   -0.04138   -0.00660   0.00000  0.00000  0.00000  0.00000  0.00000  0.00000
2268 259452.000   6378136.8927        -0.0053        -0.0748   6  25   1.6388   0.8936   0.7519  -0.8195   0.2352  -0.4269   0.00    0.0   -0.03638   -0.04809   -0.01736   0.00000  0.00000  0.00000  0.00000  0.00000  0.00000
2268 259453.000   6378136.8933        -0.0041        -0.0887   6  25   1.6409   0.8944   0.7526  -0.8205   0.2327  -0.4261   0.00    0.0    0.00154   -0.02724   -0.01569   0.00000  0.00000  0.00000  0.00000  0.00000  0.00000
2268 259454.000   6378136.9011         0.0341        -0.0863   6  25   1.6430   0.8951   0.7532  -0.8216   0.2302  -0.4252   0.00    0.0   -0.00708   -0.03336   -0.01320   0.00000  0.00000  0.00000  0.00000  0.00000  0.00000
2268 259455.000   6378136.8428         0.0637        -0.0865   6  25   1.6452   0.8958   0.7539  -0.8227   0.2276  -0.4244   0.00    0.0   -0.01867   -0.03352   -0.00218   0.00000  0.00000  0.00000  0.00000  0.00000  0.00000
2268 259456.000   6378136.8117         0.1201        -0.0136   6  25   1.6475   0.8966   0.7545  -0.8238   0.2250  -0.4235   0.00    0.0   -0.03189   -0.02717    0.00305   0.00000  0.00000  0.00000  0.00000  0.00000  0.00000
2268 259457.000   6378136.7773         0.1721         0.0569   6  25   1.6497   0.8973   0.7552  -0.8250   0.2224  -0.4226   0.00    0.0   -0.00731   -0.04206   -0.01840   0.00000  0.00000  0.00000  0.00000  0.00000  0.00000
2268 259458.000   6378136.7774         0.2110         0.1116   6  25   1.6520   0.8981   0.7558  -0.8261   0.2197  -0.4217   0.00    0.0   -0.04829   -0.05769   -0.00002   0.00000  0.00000  0.00000  0.00000  0.00000  0.00000
2268 259459.000   6378136.8065         0.1837         0.1235   6  25   1.6544   0.8988   0.7565  -0.8273   0.2169  -0.4208   0.00    0.0   -0.02965   -0.02897   -0.01092   0.00000  0.00000  0.00000  0.00000  0.00000  0.00000
2268 259460.000   6378136.9023         0.1164         0.0478   6  25   1.6568   0.8995   0.7572  -0.8284   0.2141  -0.4199   0.00    0.0   -0.00012   -0.02316   -0.02575   0.00000  0.00000  0.00000  0.00000  0.00000  0.00000
2268 259461.000   6378136.9831         0.0852         0.0833   6  25   1.6592   0.9003   0.7578  -0.8296   0.2112  -0.4190   0.00    0.0   -0.04761   -0.05298   -0.03525   0.00000  0.00000  0.00000  0.00000  0.00000  0.00000
2268 259462.000   6378136.9012         0.1258         0.0513   6  25   1.6616   0.9010   0.7585  -0.8308   0.2082  -0.4181   0.00    0.0   -0.01787   -0.06634   -0.01208   0.00000  0.00000  0.00000  0.00000  0.00000  0.00000
2268 259463.000   6378136.9209         0.1026         0.0491   6  25   1.6641   0.9018   0.7592  -0.8319   0.2052  -0.4171   0.00    0.0    0.00635   -0.04043    0.01541   0.00000  0.00000  0.00000  0.00000  0.00000  0.00000
2268 259464.000   6378136.8952         0.0935         0.0378   6  25   1.6666   0.9025   0.7599  -0.8331   0.2021  -0.4162   0.00    0.0   -0.02653   -0.05093   -0.01244   0.00000  0.00000  0.00000  0.00000  0.00000  0.00000
2268 259465.000   6378136.9658         0.0530         0.0359   6  25   1.6691   0.9033   0.7605  -0.8344   0.1990  -0.4152   0.00    0.0   -0.01562   -0.03322   -0.00607   0.00000  0.00000  0.00000  0.00000  0.00000  0.00000
2268 259466.000   6378136.9366         0.0645         0.0120   6  25   1.6717   0.9040   0.7612  -0.8356   0.1958  -0.4142   0.00    0.0   -0.01865   -0.03298   -0.01137   0.00000  0.00000  0.00000  0.00000  0.00000  0.00000
2268 259467.000   6378136.7492         0.1218         0.0334   6  25   1.6743   0.9048   0.7619  -0.8368   0.1924  -0.4132   0.00    0.0   -0.04114   -0.03792    0.00874   0.00000  0.00000  0.00000  0.00000  0.00000  0.00000
2268 259468.000   6378136.8074         0.1183         0.0512   6  25   1.6770   0.9056   0.7626  -0.8381   0.1891  -0.4122   0.00    0.0    0.00529   -0.05810   -0.01849   0.00000  0.00000  0.00000  0.00000  0.00000  0.00000
2268 259469.000   6378136.9405         0.0619         0.0035   6  25   1.6797   0.9063   0.7633  -0.8393   0.1856  -0.4111   0.00    0.0   -0.04452   -0.03887   -0.00000   0.00000  0.00000  0.00000  0.00000  0.00000  0.00000
2268 259470.000   6378136.8915         0.0354         0.0452   6  25   1.6824   0.9071   0.7640  -0.8406   0.1820  -0.4101   0.00    0.0   -0.03577   -0.04952    0.00072   0.00000  0.00000  0.00000  0.00000  0.00000  0.00000
2268 259471.000   6378136.9717        -0.0197         0.0424   6  25   1.6852   0.9078   0.7647  -0.8418   0.1784  -0.4090   0.00    0.0   -0.00487   -0.03830    0.01502   0.00000  0.00000  0.00000  0.00000  0.00000  0.00000
2268 259472.000   6378137.0265        -0.0238        -0.0211   6  25   1.6880   0.9086   0.7654  -0.8431   0.1746  -0.4079   0.00    0.0    0.00540   -0.02664   -0.03468   0.00000  0.00000  0.00000  0.00000  0.00000  0.00000
2268 259473.000   6378136.9819        -0.0288        -0.0040   6  25   1.6908   0.9093   0.7661  -0.8444   0.1707  -0.4068   0.00    0.0   -0.03046   -0.06344    0.01628   0.00000  0.00000  0.00000  0.00000  0.00000  0.00000
2268 259474.000   6378136.8330         0.0704         0.0234   6  25   1.6937   0.9101   0.7667  -0.8457   0.1667  -0.4057   0.00    0.0    0.00868   -0.03656   -0.01156   0.00000  0.00000  0.00000  0.00000  0.00000  0.00000
2268 259475.000   6378136.7580         0.0651         0.1000   6  25   1.6966   0.9108   0.7674  -0.8470   0.1626  -0.4046   0.00    0.0   -0.02441   -0.01867   -0.02315   0.00000  0.00000  0.00000  0.00000  0.00000  0.00000
2268 259476.000   6378136.8029         0.0213         0.1099   6  25   1.6995   0.9116   0.7681  -0.8483   0.1584  -0.4034   0.00    0.0   -0.01450   -0.04353   -0.02002   0.00000  0.00000  0.00000  0.00000  0.00000  0.00000
2268 259477.000   6378136.7728         0.0189         0.0891   6  25   1.7025   0.9123   0.7688  -0.8496   0.1540  -0.4022   0.00    0.0   -0.05469   -0.03172   -0.03101   0.00000  0.00000  0.00000  0.00000  0.00000  0.00000
2268 259478.000   6378136.7679        -0.0120         0.0720   6  25   1.7055   0.9131   0.7696  -0.8510   0.1494  -0.4010   0.00    0.0   -0.01990   -0.03385    0.00010   0.00000  0.00000  0.00000  0.00000  0.00000  0.00000
2268 259479.000   6378136.8030        -0.0213         0.0493   6  25   1.7086   0.9138   0.7703  -0.8523   0.1447  -0.3998   0.00    0.0   -0.03736   -0.03773   -0.00380   0.00000  0.00000  0.00000  0.00000  0.00000  0.00000
2268 259480.000   6378136.7228         0.0918         0.0255   6  25   1.7117   0.9146   0.7710  -0.8537   0.1397  -0.3985   0.00    0.0   -0.03722   -0.04696    0.00785   0.00000  0.00000  0.00000  0.00000  0.00000  0.00000
2268 259481.000   6378136.7694         0.1382         0.0310   6  25   1.7148   0.9153   0.7717  -0.8550   0.1346  -0.3973   0.00    0.0   -0.01966   -0.04090   -0.01658   0.00000  0.00000  0.00000  0.00000  0.00000  0.00000
2268 259482.000   6378136.8079         0.1395         0.0299   6  25   1.7180   0.9161   0.7724  -0.8564   0.1292  -0.3960   0.00    0.0    0.00171   -0.02977   -0.01139   0.00000  0.00000  0.00000  0.00000  0.00000  0.00000
2268 259483.000   6378136.8908         0.1608         0.0378   6  25   1.7212   0.9168   0.7731  -0.8578   0.1236  -0.3946   0.00    0.0   -0.02877   -0.04679   -0.00144   0.00000  0.00000  0.00000  0.00000  0.00000  0.00000
