% program   : GINav v0.1.0
% obs start : 2023/06/28 00:00:20.0
% obs end   : 2023/06/28 01:37:29.0
% mode      : PPP Kinematic
% system    : GPS GALILEO 
% nfreqs    : 2
% elev mask : 10.0 deg
% ephemeris : broadcast
% ionos opt : estimation
% trops opt : ZTD estimation
%
%  GPST              x-ecef(m)      y-ecef(m)      z-ecef(m)   Q  ns   sdx(m)   sdy(m)   sdz(m)  sdxy(m)  sdyz(m)  sdzx(m) age(s)  ratio    vx(m/s)    vy(m/s)    vz(m/s)      sdvx     sdvy     sdvz    sdvxy    sdvyz    sdvzx
2268 259219.996   4402957.5964    666835.5481   4550862.1073   6   7  10.8663   4.4120   9.1608   4.5630   3.9971   6.2967   0.00    0.0    0.03022    0.03825    0.07006   0.00000  0.00000  0.00000  0.00000  0.00000  0.00000
2268 259220.996   4402958.1598    666835.6364   4550862.1604   6   8   7.9039   3.2377   6.6965   3.3158   2.9123   4.5291   0.00    0.0   -0.03862   -0.03511   -0.10074   0.00000  0.00000  0.00000  0.00000  0.00000  0.00000
2268 259221.996   4402958.3137    666835.5577   4550862.2035   6   9   5.5540   2.4463   5.5598   1.8711   2.2470   3.4178   0.00    0.0   -0.05182   -0.00220   -0.08623   0.00000  0.00000  0.00000  0.00000  0.00000  0.00000
2268 259222.996   4402958.6168    666835.4083   4550861.8966   6   9   4.6669   2.1045   4.9092   1.4046   1.9454   2.9445   0.00    0.0    0.01488   -0.02657   -0.03344   0.00000  0.00000  0.00000  0.00000  0.00000  0.00000
2268 259223.996   4402958.7815    666835.4534   4550861.9094   6   9   4.1497   1.8928   4.4727   1.1628   1.7560   2.6541   0.00    0.0    0.00396   -0.00518    0.05152   0.00000  0.00000  0.00000  0.00000  0.00000  0.00000
2268 259224.996   4402958.7510    666835.5305   4550861.9942   6  10   3.6998   1.7326   4.1542   0.9217   1.6169   2.4357   0.00    0.0    0.00578    0.01852    0.00993   0.00000  0.00000  0.00000  0.00000  0.00000  0.00000
2268 259225.996   4402959.0223    666835.4617   4550862.1718   6  10   3.3921   1.6161   3.9104   0.7658   1.5139   2.2766   0.00    0.0    0.00883   -0.00185    0.07822   0.00000  0.00000  0.00000  0.00000  0.00000  0.00000
2268 259226.996   4402958.8889    666835.5038   4550862.1530   6  10   3.1716   1.5269   3.7168   0.6625   1.4341   2.1552   0.00    0.0    0.01348    0.00727    0.06649   0.00000  0.00000  0.00000  0.00000  0.00000  0.00000
2268 259227.996   4402958.8641    666835.5467   4550862.3110   6  10   3.0016   1.4555   3.5587   0.5875   1.3698   2.0582   0.00    0.0    0.01121   -0.00097   -0.00103   0.00000  0.00000  0.00000  0.00000  0.00000  0.00000
2268 259228.996   4402958.8021    666835.6814   4550862.4325   6  10   2.8651   1.3967   3.4268   0.5302   1.3167   1.9786   0.00    0.0    0.00795    0.02570   -0.05686   0.00000  0.00000  0.00000  0.00000  0.00000  0.00000
2268 259229.996   4402958.7435    666835.6996   4550862.4939   6  10   2.7526   1.3473   3.3149   0.4852   1.2720   1.9117   0.00    0.0    0.06219   -0.02010    0.02133   0.00000  0.00000  0.00000  0.00000  0.00000  0.00000
2268 259230.996   4402958.5814    666835.7915   4550862.6191   6  10   2.6579   1.3051   3.2187   0.4489   1.2337   1.8546   0.00    0.0   -0.02048    0.00374   -0.01576   0.00000  0.00000  0.00000  0.00000  0.00000  0.00000
2268 259231.996   4402958.5125    666835.7909   4550862.6498   6  10   2.5770   1.2686   3.1348   0.4191   1.2005   1.8053   0.00    0.0    0.02960   -0.01820    0.06102   0.00000  0.00000  0.00000  0.00000  0.00000  0.00000
2268 259232.996   4402958.5220    666835.7854   4550862.6183   6  10   2.5068   1.2366   3.0611   0.3943   1.1715   1.7622   0.00    0.0    0.00794   -0.01652   -0.06235   0.00000  0.00000  0.00000  0.00000  0.00000  0.00000
2268 259233.996   4402958.4436    666835.7694   4550862.5341   6  10   2.4453   1.2083   2.9957   0.3733   1.1458   1.7241   0.00    0.0   -0.06880   -0.02068   -0.02432   0.00000  0.00000  0.00000  0.00000  0.00000  0.00000
2268 259234.996   4402958.4404    666835.7526   4550862.6462   6  10   2.3910   1.1831   2.9374   0.3554   1.1229   1.6903   0.00    0.0   -0.02225   -0.02096   -0.03484   0.00000  0.00000  0.00000  0.00000  0.00000  0.00000
2268 259235.996   4402958.4147    666835.7318   4550862.5797   6  10   2.3425   1.1605   2.8848   0.3399   1.1023   1.6599   0.00    0.0   -0.01118    0.00370   -0.00312   0.00000  0.00000  0.00000  0.00000  0.00000  0.00000
2268 259236.996   4402958.4271    666835.7192   4550862.5197   6  10   2.2990   1.1401   2.8374   0.3265   1.0838   1.6326   0.00    0.0    0.03661    0.01852    0.04481   0.00000  0.00000  0.00000  0.00000  0.00000  0.00000
2268 259237.996   4402958.4134    666835.6812   4550862.5048   6  10   2.2597   1.1216   2.7942   0.3148   1.0670   1.6078   0.00    0.0    0.01225    0.01981   -0.00762   0.00000  0.00000  0.00000  0.00000  0.00000  0.00000
2268 259238.996   4402958.4204    666835.6938   4550862.4660   6  10   2.2240   1.1047   2.7548   0.3045   1.0516   1.5852   0.00    0.0   -0.04678    0.00829   -0.05041   0.00000  0.00000  0.00000  0.00000  0.00000  0.00000
2268 259239.996   4402958.3755    666835.7182   4550862.5122   6  10   2.1915   1.0893   2.7186   0.2954   1.0376   1.5646   0.00    0.0    0.06181   -0.01870    0.00610   0.00000  0.00000  0.00000  0.00000  0.00000  0.00000
2268 259240.996   4402958.3608    666835.7068   4550862.4559   6  10   2.1616   1.0750   2.6854   0.2873   1.0247   1.5456   0.00    0.0    0.03563   -0.01006    0.04110   0.00000  0.00000  0.00000  0.00000  0.00000  0.00000
2268 259241.996   4402958.4155    666835.7347   4550862.5356   6  10   2.1342   1.0619   2.6547   0.2800   1.0128   1.5282   0.00    0.0    0.00892    0.03861    0.02193   0.00000  0.00000  0.00000  0.00000  0.00000  0.00000
2268 259242.996   4402958.3599    666835.7240   4550862.4023   6  10   2.1088   1.0497   2.6262   0.2736   1.0018   1.5120   0.00    0.0   -0.00733    0.00301    0.07270   0.00000  0.00000  0.00000  0.00000  0.00000  0.00000
2268 259243.996   4402958.3601    666835.6860   4550862.3168   6  10   2.0853   1.0384   2.5998   0.2677   0.9915   1.4970   0.00    0.0    0.04648   -0.01671    0.01247   0.00000  0.00000  0.00000  0.00000  0.00000  0.00000
2268 259244.996   4402958.2024    666835.6920   4550862.2092   6  10   2.0635   1.0279   2.5751   0.2625   0.9820   1.4831   0.00    0.0    0.02326    0.01804    0.03199   0.00000  0.00000  0.00000  0.00000  0.00000  0.00000
2268 259245.996   4402958.0982    666835.6783   4550862.1525   6  10   2.0432   1.0180   2.5521   0.2577   0.9731   1.4701   0.00    0.0   -0.00923   -0.03319   -0.05413   0.00000  0.00000  0.00000  0.00000  0.00000  0.00000
2268 259246.996   4402958.0753    666835.7126   4550862.1771   6  10   2.0242   1.0088   2.5306   0.2534   0.9648   1.4580   0.00    0.0   -0.05071   -0.00498    0.00238   0.00000  0.00000  0.00000  0.00000  0.00000  0.00000
2268 259247.996   4402958.0629    666835.7363   4550862.4187   6  10   2.0064   1.0002   2.5104   0.2495   0.9571   1.4466   0.00    0.0    0.02190    0.01758    0.02703   0.00000  0.00000  0.00000  0.00000  0.00000  0.00000
2268 259248.996   4402958.1199    666835.6847   4550862.4115   6  10   1.9897   0.9921   2.4914   0.2459   0.9497   1.4359   0.00    0.0   -0.02830   -0.00344    0.03905   0.00000  0.00000  0.00000  0.00000  0.00000  0.00000
2268 259249.996   4402958.0907    666835.6733   4550862.3413   6  10   1.9739   0.9844   2.4736   0.2427   0.9429   1.4259   0.00    0.0   -0.10812    0.01642   -0.07685   0.00000  0.00000  0.00000  0.00000  0.00000  0.00000
2268 259250.996   4402958.1392    666835.6066   4550862.2780   6  10   1.9591   0.9772   2.4567   0.2397   0.9364   1.4164   0.00    0.0    0.03350    0.03556    0.02163   0.00000  0.00000  0.00000  0.00000  0.00000  0.00000
2268 259251.996   4402958.1346    666835.6051   4550862.0805   6  10   1.9452   0.9704   2.4408   0.2369   0.9303   1.4075   0.00    0.0   -0.01054    0.01784   -0.03855   0.00000  0.00000  0.00000  0.00000  0.00000  0.00000
2268 259252.996   4402958.1773    666835.5755   4550861.9173   6  10   1.9320   0.9639   2.4257   0.2344   0.9245   1.3991   0.00    0.0   -0.06887   -0.04989   -0.10778   0.00000  0.00000  0.00000  0.00000  0.00000  0.00000
2268 259253.996   4402958.1754    666835.5687   4550861.8099   6  10   1.9194   0.9578   2.4114   0.2321   0.9190   1.3911   0.00    0.0    0.07026   -0.00326    0.01892   0.00000  0.00000  0.00000  0.00000  0.00000  0.00000
2268 259254.996   4402958.0386    666835.6052   4550861.6888   6  10   1.9076   0.9520   2.3979   0.2300   0.9138   1.3835   0.00    0.0   -0.03691   -0.00580    0.04137   0.00000  0.00000  0.00000  0.00000  0.00000  0.00000
2268 259255.996   4402958.0485    666835.6522   4550861.7606   6  10   1.8963   0.9464   2.3850   0.2281   0.9089   1.3764   0.00    0.0    0.04746   -0.00665    0.02820   0.00000  0.00000  0.00000  0.00000  0.00000  0.00000
2268 259256.996   4402958.0431    666835.7157   4550861.7321   6  10   1.8856   0.9412   2.3728   0.2263   0.9042   1.3695   0.00    0.0    0.06011    0.00205    0.10374   0.00000  0.00000  0.00000  0.00000  0.00000  0.00000
2268 259257.996   4402958.0183    666835.7287   4550861.6645   6  10   1.8754   0.9361   2.3612   0.2246   0.8997   1.3630   0.00    0.0   -0.05381    0.00428   -0.04940   0.00000  0.00000  0.00000  0.00000  0.00000  0.00000
2268 259258.996   4402958.0871    666835.6996   4550861.6752   6  10   1.8656   0.9313   2.3500   0.2231   0.8955   1.3569   0.00    0.0    0.05032    0.03646    0.03296   0.00000  0.00000  0.00000  0.00000  0.00000  0.00000
2268 259259.996   4402957.9683    666835.7431   4550861.6639   6  10   1.8563   0.9268   2.3395   0.2217   0.8914   1.3510   0.00    0.0   -0.00683   -0.00263   -0.01410   0.00000  0.00000  0.00000  0.00000  0.00000  0.00000
2268 259260.996   4402957.9432    666835.7406   4550861.6342   6  10   1.8474   0.9224   2.3293   0.2204   0.8876   1.3454   0.00    0.0    0.02665    0.01367    0.02055   0.00000  0.00000  0.00000  0.00000  0.00000  0.00000
2268 259261.996   4402957.9143    666835.7088   4550861.7592   6  10   1.8389   0.9182   2.3196   0.2192   0.8839   1.3400   0.00    0.0    0.01163    0.00094    0.02324   0.00000  0.00000  0.00000  0.00000  0.00000  0.00000
2268 259262.996   4402957.8349    666835.6872   4550861.7507   6  10   1.8308   0.9142   2.3104   0.2180   0.8803   1.3349   0.00    0.0    0.04013   -0.04700    0.00150   0.00000  0.00000  0.00000  0.00000  0.00000  0.00000
2268 259263.996   4402957.8100    666835.6880   4550861.7057   6  10   1.8230   0.9103   2.3015   0.2170   0.8769   1.3300   0.00    0.0    0.05857    0.01768    0.02763   0.00000  0.00000  0.00000  0.00000  0.00000  0.00000
2268 259264.996   4402957.8829    666835.6300   4550861.7002   6  10   1.8155   0.9066   2.2930   0.2161   0.8737   1.3253   0.00    0.0   -0.03934   -0.03385   -0.00146   0.00000  0.00000  0.00000  0.00000  0.00000  0.00000
2268 259265.996   4402957.8396    666835.6305   4550861.6105   6  10   1.8083   0.9031   2.2849   0.2152   0.8706   1.3208   0.00    0.0    0.04211   -0.00309   -0.02624   0.00000  0.00000  0.00000  0.00000  0.00000  0.00000
2268 259266.996   4402957.8152    666835.6068   4550861.5901   6  10   1.8014   0.8996   2.2770   0.2144   0.8676   1.3164   0.00    0.0   -0.03814   -0.01241   -0.09642   0.00000  0.00000  0.00000  0.00000  0.00000  0.00000
2268 259267.996   4402957.8921    666835.6171   4550861.6164   6  10   1.7948   0.8963   2.2695   0.2136   0.8647   1.3123   0.00    0.0   -0.00031    0.02186    0.06336   0.00000  0.00000  0.00000  0.00000  0.00000  0.00000
2268 259268.996   4402957.9156    666835.5686   4550861.6222   6  10   1.7884   0.8932   2.2623   0.2129   0.8620   1.3083   0.00    0.0    0.02177    0.01307   -0.00786   0.00000  0.00000  0.00000  0.00000  0.00000  0.00000
2268 259269.996   4402957.8292    666835.5853   4550861.6505   6  10   1.7822   0.8901   2.2553   0.2123   0.8593   1.3045   0.00    0.0    0.05083   -0.00652   -0.07311   0.00000  0.00000  0.00000  0.00000  0.00000  0.00000
2268 259270.996   4402957.8699    666835.6271   4550861.8391   6  10   1.7763   0.8872   2.2486   0.2117   0.8568   1.3008   0.00    0.0   -0.02729   -0.04651   -0.11315   0.00000  0.00000  0.00000  0.00000  0.00000  0.00000
2268 259271.996   4402957.8877    666835.6435   4550861.9222   6  10   1.7706   0.8843   2.2422   0.2111   0.8543   1.2972   0.00    0.0    0.02366    0.00459    0.04837   0.00000  0.00000  0.00000  0.00000  0.00000  0.00000
2268 259272.996   4402957.8957    666835.6240   4550861.7760   6  10   1.7651   0.8816   2.2359   0.2106   0.8520   1.2938   0.00    0.0    0.02445    0.00798    0.02625   0.00000  0.00000  0.00000  0.00000  0.00000  0.00000
2268 259273.996   4402958.0050    666835.5844   4550861.7652   6  10   1.7597   0.8790   2.2299   0.2102   0.8497   1.2906   0.00    0.0    0.00834    0.02682    0.05242   0.00000  0.00000  0.00000  0.00000  0.00000  0.00000
2268 259274.996   4402958.0355    666835.5524   4550861.6497   6  10   1.7546   0.8764   2.2242   0.2098   0.8475   1.2874   0.00    0.0    0.05123    0.01227    0.05023   0.00000  0.00000  0.00000  0.00000  0.00000  0.00000
2268 259275.996   4402958.1790    666835.5423   4550861.6984   6  10   1.7496   0.8739   2.2186   0.2094   0.8454   1.2843   0.00    0.0    0.01627   -0.00886    0.01745   0.00000  0.00000  0.00000  0.00000  0.00000  0.00000
2268 259276.996   4402958.2742    666835.5322   4550861.6492   6  10   1.7448   0.8715   2.2132   0.2090   0.8433   1.2814   0.00    0.0    0.03173    0.00645    0.01928   0.00000  0.00000  0.00000  0.00000  0.00000  0.00000
2268 259277.996   4402958.2520    666835.5416   4550861.6214   6  10   1.7401   0.8692   2.2080   0.2087   0.8414   1.2785   0.00    0.0    0.00624    0.02672    0.05167   0.00000  0.00000  0.00000  0.00000  0.00000  0.00000
2268 259278.996   4402958.2384    666835.5256   4550861.6255   6  10   1.7356   0.8670   2.2029   0.2084   0.8395   1.2758   0.00    0.0    0.06123    0.02252   -0.02539   0.00000  0.00000  0.00000  0.00000  0.00000  0.00000
2268 259279.996   4402958.2447    666835.5636   4550861.7542   6  10   1.7312   0.8648   2.1981   0.2081   0.8376   1.2731   0.00    0.0    0.07087    0.03319    0.05117   0.00000  0.00000  0.00000  0.00000  0.00000  0.00000
2268 259280.996   4402958.3081    666835.5614   4550861.8587   6  10   1.7269   0.8627   2.1934   0.2079   0.8358   1.2706   0.00    0.0    0.07837    0.01961    0.08099   0.00000  0.00000  0.00000  0.00000  0.00000  0.00000
2268 259281.996   4402958.1885    666835.5335   4550861.7760   6  10   1.7228   0.8606   2.1888   0.2077   0.8341   1.2681   0.00    0.0    0.04837    0.01759   -0.05355   0.00000  0.00000  0.00000  0.00000  0.00000  0.00000
2268 259282.996   4402958.1770    666835.5365   4550861.8359   6  10   1.7188   0.8586   2.1844   0.2075   0.8324   1.2657   0.00    0.0    0.04483   -0.00714    0.08654   0.00000  0.00000  0.00000  0.00000  0.00000  0.00000
2268 259283.996   4402958.1985    666835.5532   4550861.7053   6  10   1.7149   0.8567   2.1801   0.2073   0.8308   1.2634   0.00    0.0   -0.05341   -0.05573   -0.05273   0.00000  0.00000  0.00000  0.00000  0.00000  0.00000
2268 259284.996   4402958.1227    666835.5696   4550861.7507   6  10   1.7112   0.8548   2.1760   0.2072   0.8293   1.2611   0.00    0.0   -0.00129    0.00596   -0.01099   0.00000  0.00000  0.00000  0.00000  0.00000  0.00000
2268 259285.996   4402958.0779    666835.5411   4550861.5272   6  10   1.7075   0.8530   2.1719   0.2071   0.8277   1.2589   0.00    0.0    0.04791   -0.01870   -0.02419   0.00000  0.00000  0.00000  0.00000  0.00000  0.00000
2268 259286.996   4402958.1911    666835.6087   4550861.5719   6  10   1.7040   0.8512   2.1680   0.2070   0.8263   1.2568   0.00    0.0    0.04480   -0.00201   -0.02007   0.00000  0.00000  0.00000  0.00000  0.00000  0.00000
2268 259287.996   4402958.2635    666835.6371   4550861.7501   6  10   1.7005   0.8495   2.1643   0.2069   0.8248   1.2548   0.00    0.0   -0.01950    0.00468   -0.00242   0.00000  0.00000  0.00000  0.00000  0.00000  0.00000
2268 259288.996   4402958.2595    666835.7074   4550861.9920   6  10   1.6971   0.8479   2.1606   0.2068   0.8235   1.2528   0.00    0.0    0.01539    0.02472    0.02343   0.00000  0.00000  0.00000  0.00000  0.00000  0.00000
2268 259289.996   4402958.2288    666835.6897   4550861.9709   6  10   1.6938   0.8462   2.1570   0.2068   0.8221   1.2509   0.00    0.0    0.07947    0.00569    0.05611   0.00000  0.00000  0.00000  0.00000  0.00000  0.00000
2268 259290.996   4402958.1953    666835.7147   4550861.9524   6  10   1.6907   0.8446   2.1536   0.2067   0.8208   1.2490   0.00    0.0   -0.00457    0.01790   -0.03789   0.00000  0.00000  0.00000  0.00000  0.00000  0.00000
2268 259291.996   4402958.0854    666835.7337   4550861.8839   6  10   1.6876   0.8431   2.1502   0.2067   0.8196   1.2472   0.00    0.0    0.06759   -0.00628    0.06110   0.00000  0.00000  0.00000  0.00000  0.00000  0.00000
2268 259292.996   4402957.9926    666835.7601   4550861.7999   6  10   1.6845   0.8416   2.1470   0.2067   0.8183   1.2455   0.00    0.0    0.01238   -0.05383   -0.08591   0.00000  0.00000  0.00000  0.00000  0.00000  0.00000
2268 259293.996   4402957.9769    666835.7791   4550861.8454   6  10   1.6816   0.8401   2.1438   0.2067   0.8171   1.2438   0.00    0.0    0.01721   -0.00977   -0.01932   0.00000  0.00000  0.00000  0.00000  0.00000  0.00000
2268 259294.996   4402957.9665    666835.7178   4550861.8737   6  10   1.6787   0.8387   2.1407   0.2067   0.8160   1.2421   0.00    0.0    0.00744   -0.01598   -0.07941   0.00000  0.00000  0.00000  0.00000  0.00000  0.00000
2268 259295.996   4402958.0730    666835.7151   4550861.8996   6  10   1.6759   0.8373   2.1377   0.2067   0.8149   1.2405   0.00    0.0    0.00808    0.00594    0.00657   0.00000  0.00000  0.00000  0.00000  0.00000  0.00000
2268 259296.996   4402958.1380    666835.6883   4550861.8647   6  10   1.6732   0.8359   2.1348   0.2068   0.8138   1.2389   0.00    0.0   -0.01679   -0.02354   -0.09219   0.00000  0.00000  0.00000  0.00000  0.00000  0.00000
2268 259297.996   4402958.1119    666835.7221   4550861.8251   6  10   1.6705   0.8346   2.1320   0.2068   0.8127   1.2374   0.00    0.0    0.00953    0.01489   -0.14312   0.00000  0.00000  0.00000  0.00000  0.00000  0.00000
2268 259298.996   4402958.0786    666835.7149   4550861.8230   6  10   1.6679   0.8333   2.1292   0.2069   0.8117   1.2359   0.00    0.0   -0.02203    0.00302   -0.12319   0.00000  0.00000  0.00000  0.00000  0.00000  0.00000
2268 259299.996   4402958.0582    666835.7053   4550861.7679   6  10   1.6653   0.8321   2.1265   0.2069   0.8107   1.2345   0.00    0.0    0.02170    0.01981    0.01431   0.00000  0.00000  0.00000  0.00000  0.00000  0.00000
2268 259300.996   4402957.9679    666835.7084   4550861.6997   6  10   1.6629   0.8308   2.1239   0.2070   0.8097   1.2331   0.00    0.0    0.06156   -0.00567   -0.01169   0.00000  0.00000  0.00000  0.00000  0.00000  0.00000
2268 259301.996   4402958.0340    666835.7124   4550861.7904   6  10   1.6604   0.8296   2.1214   0.2071   0.8087   1.2318   0.00    0.0   -0.02069   -0.03083   -0.10038   0.00000  0.00000  0.00000  0.00000  0.00000  0.00000
2268 259302.996   4402957.9988    666835.7418   4550861.7672   6  10   1.6581   0.8284   2.1189   0.2072   0.8078   1.2304   0.00    0.0   -0.03505    0.03274    0.02680   0.00000  0.00000  0.00000  0.00000  0.00000  0.00000
2268 259303.996   4402957.9093    666835.7646   4550861.7958   6  10   1.6557   0.8273   2.1165   0.2073   0.8069   1.2292   0.00    0.0    0.02808    0.00727    0.02830   0.00000  0.00000  0.00000  0.00000  0.00000  0.00000
2268 259304.996   4402957.9327    666835.7191   4550861.8029   6  10   1.6535   0.8262   2.1141   0.2074   0.8060   1.2279   0.00    0.0   -0.02313   -0.02110    0.01815   0.00000  0.00000  0.00000  0.00000  0.00000  0.00000
2268 259305.996   4402957.9009    666835.7428   4550861.7380   6  10   1.6513   0.8251   2.1118   0.2075   0.8052   1.2267   0.00    0.0    0.03024    0.00008   -0.02563   0.00000  0.00000  0.00000  0.00000  0.00000  0.00000
2268 259306.996   4402957.9007    666835.7951   4550861.8834   6  10   1.6491   0.8240   2.1096   0.2076   0.8043   1.2255   0.00    0.0    0.02203    0.01225    0.05495   0.00000  0.00000  0.00000  0.00000  0.00000  0.00000
2268 259307.996   4402957.8743    666835.8076   4550861.9051   6  10   1.6470   0.8229   2.1074   0.2078   0.8035   1.2244   0.00    0.0    0.02369    0.00180   -0.01118   0.00000  0.00000  0.00000  0.00000  0.00000  0.00000
2268 259308.996   4402957.9856    666835.8324   4550861.9669   6  10   1.6449   0.8219   2.1053   0.2079   0.8027   1.2233   0.00    0.0   -0.00973    0.03143   -0.04347   0.00000  0.00000  0.00000  0.00000  0.00000  0.00000
2268 259309.996   4402958.1573    666835.8271   4550862.0716   6  10   1.6429   0.8209   2.1033   0.2081   0.8020   1.2222   0.00    0.0   -0.00288   -0.01240   -0.04386   0.00000  0.00000  0.00000  0.00000  0.00000  0.00000
2268 259310.996   4402958.1816    666835.8693   4550862.0946   6  10   1.6409   0.8199   2.1012   0.2082   0.8012   1.2211   0.00    0.0   -0.04427    0.03308    0.02162   0.00000  0.00000  0.00000  0.00000  0.00000  0.00000
2268 259311.996   4402958.1425    666835.8230   4550862.0419   6  10   1.6389   0.8189   2.0993   0.2084   0.8005   1.2201   0.00    0.0   -0.08306   -0.00889   -0.04198   0.00000  0.00000  0.00000  0.00000  0.00000  0.00000
2268 259312.996   4402958.0835    666835.8312   4550862.0265   6  10   1.6370   0.8180   2.0974   0.2085   0.7998   1.2191   0.00    0.0    0.01674   -0.02494   -0.04372   0.00000  0.00000  0.00000  0.00000  0.00000  0.00000
2268 259313.996   4402957.9414    666835.8121   4550861.9238   6  10   1.6351   0.8171   2.0955   0.2087   0.7991   1.2181   0.00    0.0   -0.01423    0.00219    0.01438   0.00000  0.00000  0.00000  0.00000  0.00000  0.00000
2268 259314.996   4402957.9501    666835.8370   4550861.9407   6  10   1.6333   0.8162   2.0937   0.2089   0.7984   1.2171   0.00    0.0    0.07624   -0.00349    0.10940   0.00000  0.00000  0.00000  0.00000  0.00000  0.00000
2268 259315.996   4402957.9523    666835.7772   4550861.9260   6  10   1.6315   0.8153   2.0919   0.2090   0.7978   1.2162   0.00    0.0    0.02298    0.01699    0.08604   0.00000  0.00000  0.00000  0.00000  0.00000  0.00000
2268 259316.996   4402957.9053    666835.7913   4550861.9549   6  10   1.6298   0.8144   2.0901   0.2092   0.7971   1.2153   0.00    0.0    0.00634    0.01576   -0.02791   0.00000  0.00000  0.00000  0.00000  0.00000  0.00000
2268 259317.996   4402957.8519    666835.7552   4550861.8259   6  10   1.6280   0.8136   2.0884   0.2094   0.7965   1.2144   0.00    0.0   -0.00490   -0.00933   -0.05583   0.00000  0.00000  0.00000  0.00000  0.00000  0.00000
2268 259318.996   4402957.8711    666835.7492   4550861.8239   6  10   1.6263   0.8127   2.0868   0.2096   0.7959   1.2136   0.00    0.0   -0.00729   -0.01292    0.01999   0.00000  0.00000  0.00000  0.00000  0.00000  0.00000
2268 259319.996   4402957.9265    666835.7352   4550861.7795   6  10   1.6247   0.8119   2.0852   0.2098   0.7953   1.2127   0.00    0.0    0.00418    0.01843   -0.05623   0.00000  0.00000  0.00000  0.00000  0.00000  0.00000
2268 259320.996   4402957.9825    666835.6972   4550861.8058   6  10   1.6231   0.8111   2.0836   0.2100   0.7947   1.2119   0.00    0.0    0.02398   -0.00452   -0.00830   0.00000  0.00000  0.00000  0.00000  0.00000  0.00000
2268 259321.996   4402958.0159    666835.6345   4550861.7807   6  10   1.6215   0.8103   2.0820   0.2102   0.7941   1.2111   0.00    0.0    0.02789    0.00780    0.00693   0.00000  0.00000  0.00000  0.00000  0.00000  0.00000
2268 259322.996   4402958.0730    666835.6787   4550861.9607   6  10   1.6199   0.8095   2.0805   0.2104   0.7936   1.2103   0.00    0.0   -0.01026   -0.02330    0.01877   0.00000  0.00000  0.00000  0.00000  0.00000  0.00000
2268 259323.996   4402958.0555    666835.6932   4550862.0344   6  10   1.6184   0.8088   2.0791   0.2106   0.7930   1.2096   0.00    0.0   -0.04836   -0.02193   -0.09586   0.00000  0.00000  0.00000  0.00000  0.00000  0.00000
2268 259324.996   4402958.1059    666835.7003   4550862.0733   6  10   1.6168   0.8080   2.0776   0.2108   0.7925   1.2088   0.00    0.0    0.03991    0.00479    0.08964   0.00000  0.00000  0.00000  0.00000  0.00000  0.00000
2268 259325.996   4402958.0670    666835.7570   4550862.0692   6  10   1.6154   0.8073   2.0762   0.2110   0.7920   1.2081   0.00    0.0    0.02264   -0.00859   -0.11554   0.00000  0.00000  0.00000  0.00000  0.00000  0.00000
2268 259326.996   4402958.0025    666835.7752   4550862.0280   6  10   1.6139   0.8066   2.0749   0.2112   0.7915   1.2074   0.00    0.0    0.04828   -0.04590   -0.01142   0.00000  0.00000  0.00000  0.00000  0.00000  0.00000
2268 259327.996   4402957.9942    666835.7723   4550862.1744   6  10   1.6125   0.8059   2.0735   0.2115   0.7910   1.2067   0.00    0.0    0.05244   -0.00425   -0.00533   0.00000  0.00000  0.00000  0.00000  0.00000  0.00000
2268 259328.996   4402957.9446    666835.7439   4550862.1368   6  10   1.6111   0.8052   2.0722   0.2117   0.7905   1.2061   0.00    0.0   -0.01492   -0.00172   -0.02827   0.00000  0.00000  0.00000  0.00000  0.00000  0.00000
2268 259329.996   4402957.9108    666835.7415   4550862.0809   6  10   1.6097   0.8045   2.0709   0.2119   0.7901   1.2054   0.00    0.0   -0.01642   -0.00086   -0.02536   0.00000  0.00000  0.00000  0.00000  0.00000  0.00000
2268 259330.996   4402957.9045    666835.7228   4550862.0860   6  10   1.6083   0.8038   2.0697   0.2122   0.7896   1.2048   0.00    0.0   -0.00871   -0.00415    0.01849   0.00000  0.00000  0.00000  0.00000  0.00000  0.00000
2268 259331.996   4402957.8023    666835.7111   4550861.8922   6  10   1.6070   0.8032   2.0685   0.2124   0.7892   1.2042   0.00    0.0    0.09738    0.00928    0.00609   0.00000  0.00000  0.00000  0.00000  0.00000  0.00000
2268 259332.996   4402957.8175    666835.7269   4550861.9726   6  10   1.6057   0.8025   2.0673   0.2126   0.7887   1.2036   0.00    0.0    0.06522   -0.00423   -0.00814   0.00000  0.00000  0.00000  0.00000  0.00000  0.00000
2268 259333.996   4402957.8660    666835.7105   4550861.9702   6  10   1.6044   0.8019   2.0661   0.2129   0.7883   1.2030   0.00    0.0   -0.03274    0.00022   -0.00441   0.00000  0.00000  0.00000  0.00000  0.00000  0.00000
2268 259334.996   4402957.9692    666835.7216   4550862.0858   6  10   1.6031   0.8013   2.0649   0.2131   0.7879   1.2024   0.00    0.0    0.08050    0.01643    0.06875   0.00000  0.00000  0.00000  0.00000  0.00000  0.00000
2268 259335.996   4402958.0204    666835.7348   4550861.9760   6  10   1.6019   0.8007   2.0638   0.2133   0.7875   1.2018   0.00    0.0    0.04735    0.05478    0.04111   0.00000  0.00000  0.00000  0.00000  0.00000  0.00000
2268 259336.996   4402957.9844    666835.7671   4550861.8986   6  10   1.6007   0.8001   2.0627   0.2136   0.7871   1.2013   0.00    0.0    0.01352   -0.05784    0.06347   0.00000  0.00000  0.00000  0.00000  0.00000  0.00000
2268 259337.996   4402957.9682    666835.7713   4550861.8949   6  10   1.5995   0.7995   2.0617   0.2138   0.7867   1.2008   0.00    0.0    0.03220    0.03592    0.07387   0.00000  0.00000  0.00000  0.00000  0.00000  0.00000
2268 259338.996   4402957.9652    666835.7561   4550861.9162   6  10   1.5983   0.7989   2.0606   0.2141   0.7863   1.2002   0.00    0.0   -0.00077    0.00938    0.00781   0.00000  0.00000  0.00000  0.00000  0.00000  0.00000
2268 259339.996   4402957.9722    666835.7684   4550862.0540   6  10   1.5971   0.7983   2.0596   0.2143   0.7860   1.1997   0.00    0.0    0.00690   -0.01008   -0.04062   0.00000  0.00000  0.00000  0.00000  0.00000  0.00000
2268 259340.996   4402957.9748    666835.7789   4550862.0511   6  10   1.5960   0.7978   2.0586   0.2146   0.7856   1.1992   0.00    0.0    0.03534   -0.00042   -0.00282   0.00000  0.00000  0.00000  0.00000  0.00000  0.00000
2268 259341.996   4402957.9071    666835.7787   4550862.0731   6  10   1.5948   0.7972   2.0576   0.2148   0.7852   1.1987   0.00    0.0   -0.03287   -0.03747   -0.05327   0.00000  0.00000  0.00000  0.00000  0.00000  0.00000
2268 259342.996   4402957.8714    666835.7745   4550862.0555   6  10   1.5937   0.7967   2.0567   0.2151   0.7849   1.1983   0.00    0.0   -0.00060    0.01325   -0.01702   0.00000  0.00000  0.00000  0.00000  0.00000  0.00000
2268 259343.996   4402957.8087    666835.7720   4550862.0992   6  10   1.5926   0.7961   2.0558   0.2154   0.7846   1.1978   0.00    0.0    0.02075   -0.01597   -0.02433   0.00000  0.00000  0.00000  0.00000  0.00000  0.00000
2268 259344.996   4402957.8400    666835.8009   4550862.2180   6  10   1.5916   0.7956   2.0549   0.2156   0.7842   1.1974   0.00    0.0    0.02309    0.01225    0.07873   0.00000  0.00000  0.00000  0.00000  0.00000  0.00000
2268 259345.996   4402957.7753    666835.8015   4550862.0666   6  10   1.5905   0.7951   2.0540   0.2159   0.7839   1.1969   0.00    0.0   -0.05345    0.02496   -0.05025   0.00000  0.00000  0.00000  0.00000  0.00000  0.00000
2268 259346.996   4402957.8917    666835.8083   4550862.1142   6  10   1.5895   0.7946   2.0531   0.2161   0.7836   1.1965   0.00    0.0    0.01087    0.01226    0.00250   0.00000  0.00000  0.00000  0.00000  0.00000  0.00000
2268 259347.996   4402957.9247    666835.7866   4550862.1358   6  10   1.5884   0.7941   2.0522   0.2164   0.7833   1.1961   0.00    0.0    0.05612   -0.00178    0.02947   0.00000  0.00000  0.00000  0.00000  0.00000  0.00000
2268 259348.996   4402957.8770    666835.7912   4550862.1118   6  10   1.5874   0.7936   2.0514   0.2167   0.7830   1.1957   0.00    0.0    0.02621    0.02279   -0.05461   0.00000  0.00000  0.00000  0.00000  0.00000  0.00000
2268 259349.996   4402957.8025    666835.7907   4550861.9803   6  10   1.5864   0.7931   2.0506   0.2169   0.7827   1.1953   0.00    0.0    0.01297   -0.02089   -0.07487   0.00000  0.00000  0.00000  0.00000  0.00000  0.00000
2268 259350.996   4402957.7797    666835.7935   4550861.9031   6  10   1.5854   0.7926   2.0498   0.2172   0.7824   1.1949   0.00    0.0    0.02796   -0.02245    0.03010   0.00000  0.00000  0.00000  0.00000  0.00000  0.00000
2268 259351.996   4402957.8059    666835.7641   4550861.9216   6  10   1.5845   0.7922   2.0490   0.2175   0.7822   1.1946   0.00    0.0   -0.03543   -0.00102    0.07568   0.00000  0.00000  0.00000  0.00000  0.00000  0.00000
2268 259352.996   4402957.8710    666835.7917   4550862.0924   6  10   1.5835   0.7917   2.0483   0.2178   0.7819   1.1942   0.00    0.0   -0.04136   -0.02298    0.02361   0.00000  0.00000  0.00000  0.00000  0.00000  0.00000
2268 259353.996   4402958.0116    666835.7560   4550862.1759   6  10   1.5826   0.7912   2.0475   0.2180   0.7816   1.1938   0.00    0.0    0.01071   -0.01491    0.01618   0.00000  0.00000  0.00000  0.00000  0.00000  0.00000
2268 259354.996   4402957.9569    666835.7345   4550862.1605   6  10   1.5817   0.7908   2.0468   0.2183   0.7814   1.1935   0.00    0.0   -0.02834    0.00019   -0.00663   0.00000  0.00000  0.00000  0.00000  0.00000  0.00000
2268 259355.996   4402957.9401    666835.7307   4550862.1213   6  10   1.5807   0.7903   2.0461   0.2186   0.7811   1.1932   0.00    0.0    0.02370    0.00700    0.00278   0.00000  0.00000  0.00000  0.00000  0.00000  0.00000
2268 259356.996   4402957.9103    666835.7356   4550862.0365   6  10   1.5798   0.7899   2.0454   0.2189   0.7809   1.1928   0.00    0.0   -0.02950   -0.02180   -0.00056   0.00000  0.00000  0.00000  0.00000  0.00000  0.00000
2268 259357.996   4402957.9602    666835.7834   4550862.0300   6  10   1.5790   0.7895   2.0447   0.2191   0.7806   1.1925   0.00    0.0   -0.01742   -0.00421   -0.02613   0.00000  0.00000  0.00000  0.00000  0.00000  0.00000
2268 259358.996   4402957.9409    666835.8278   4550861.9452   6  10   1.5781   0.7891   2.0441   0.2194   0.7804   1.1922   0.00    0.0    0.02428    0.02444    0.03754   0.00000  0.00000  0.00000  0.00000  0.00000  0.00000
2268 259359.996   4402957.9049    666835.8551   4550861.9196   6  10   1.5772   0.7886   2.0434   0.2197   0.7802   1.1919   0.00    0.0   -0.02943   -0.01198   -0.02745   0.00000  0.00000  0.00000  0.00000  0.00000  0.00000
2268 259360.996   4402957.8961    666835.8525   4550862.0026   6  10   1.5764   0.7882   2.0428   0.2200   0.7800   1.1916   0.00    0.0    0.03259   -0.00625   -0.00845   0.00000  0.00000  0.00000  0.00000  0.00000  0.00000
2268 259361.996   4402957.9355    666835.8326   4550861.9914   6  10   1.5755   0.7878   2.0422   0.2202   0.7798   1.1913   0.00    0.0   -0.02370    0.03234   -0.02038   0.00000  0.00000  0.00000  0.00000  0.00000  0.00000
2268 259362.996   4402957.8929    666835.8106   4550862.0370   6  10   1.5747   0.7874   2.0416   0.2205   0.7795   1.1911   0.00    0.0   -0.02387   -0.00721   -0.09993   0.00000  0.00000  0.00000  0.00000  0.00000  0.00000
2268 259363.996   4402957.9799    666835.7785   4550862.0214   6  10   1.5739   0.7870   2.0410   0.2208   0.7793   1.1908   0.00    0.0   -0.01258   -0.03141   -0.00103   0.00000  0.00000  0.00000  0.00000  0.00000  0.00000
2268 259375.000   4402957.9569    666835.8184   4550862.1036   6  10   1.5733   0.7870   2.0452   0.2252   0.7812   1.1938   0.00    0.0   -0.02327   -0.01285    0.01392   0.00000  0.00000  0.00000  0.00000  0.00000  0.00000
2268 259376.000   4402958.0244    666835.8650   4550862.1344   6  10   1.5751   0.7868   2.0446   0.2181   0.7804   1.1941   0.00    0.0   -0.02556   -0.00130   -0.05149   0.00000  0.00000  0.00000  0.00000  0.00000  0.00000
2268 259377.000   4402957.9478    666835.8398   4550862.0661   6  10   1.5738   0.7863   2.0440   0.2175   0.7801   1.1936   0.00    0.0   -0.03218   -0.01200   -0.02467   0.00000  0.00000  0.00000  0.00000  0.00000  0.00000
2268 259378.000   4402957.8869    666835.8872   4550862.0692   6  10   1.5728   0.7859   2.0434   0.2174   0.7799   1.1933   0.00    0.0   -0.05734   -0.02088   -0.07606   0.00000  0.00000  0.00000  0.00000  0.00000  0.00000
2268 259379.000   4402957.9138    666835.8506   4550861.9807   6  10   1.5719   0.7856   2.0429   0.2175   0.7797   1.1930   0.00    0.0    0.02976   -0.02317    0.05483   0.00000  0.00000  0.00000  0.00000  0.00000  0.00000
2268 259380.000   4402958.0591    666835.8022   4550861.9871   6  10   1.5711   0.7852   2.0424   0.2177   0.7795   1.1927   0.00    0.0    0.01145    0.01277    0.08297   0.00000  0.00000  0.00000  0.00000  0.00000  0.00000
2268 259381.000   4402957.9827    666835.7579   4550861.9029   6  10   1.5703   0.7848   2.0419   0.2179   0.7793   1.1925   0.00    0.0    0.07351    0.02354    0.07433   0.00000  0.00000  0.00000  0.00000  0.00000  0.00000
2268 259382.000   4402957.9428    666835.7535   4550861.8658   6  11   1.5693   0.7843   2.0411   0.2191   0.7788   1.1926   0.00    0.0   -0.01601    0.00106    0.02057   0.00000  0.00000  0.00000  0.00000  0.00000  0.00000
2268 259383.000   4402957.8834    666835.7333   4550861.8650   6  11   1.5685   0.7838   2.0405   0.2199   0.7784   1.1926   0.00    0.0   -0.00455    0.01686    0.05194   0.00000  0.00000  0.00000  0.00000  0.00000  0.00000
2268 259384.000   4402957.9281    666835.6976   4550861.9869   6  11   1.5677   0.7834   2.0399   0.2205   0.7781   1.1925   0.00    0.0    0.03706    0.02279    0.09790   0.00000  0.00000  0.00000  0.00000  0.00000  0.00000
2268 259385.000   4402957.9331    666835.7035   4550862.0430   6  11   1.5669   0.7830   2.0394   0.2209   0.7779   1.1923   0.00    0.0    0.07002   -0.02733    0.07090   0.00000  0.00000  0.00000  0.00000  0.00000  0.00000
2268 259386.000   4402957.8604    666835.7820   4550862.1302   6  11   1.5662   0.7827   2.0389   0.2212   0.7777   1.1921   0.00    0.0    0.06155    0.01094   -0.01904   0.00000  0.00000  0.00000  0.00000  0.00000  0.00000
2268 259387.000   4402957.8541    666835.8057   4550862.1159   6  11   1.5655   0.7823   2.0385   0.2216   0.7775   1.1920   0.00    0.0   -0.04456    0.00197    0.00264   0.00000  0.00000  0.00000  0.00000  0.00000  0.00000
2268 259388.000   4402957.8131    666835.7559   4550862.1157   6  11   1.5648   0.7820   2.0380   0.2219   0.7773   1.1918   0.00    0.0    0.02266    0.00894    0.02304   0.00000  0.00000  0.00000  0.00000  0.00000  0.00000
2268 259389.000   4402957.7412    666835.7198   4550861.8866   6  11   1.5641   0.7817   2.0376   0.2222   0.7772   1.1916   0.00    0.0    0.00271    0.00467    0.03971   0.00000  0.00000  0.00000  0.00000  0.00000  0.00000
2268 259390.000   4402957.8580    666835.7197   4550861.9473   6  11   1.5634   0.7813   2.0372   0.2225   0.7770   1.1915   0.00    0.0    0.03838   -0.00841    0.02440   0.00000  0.00000  0.00000  0.00000  0.00000  0.00000
2268 259391.000   4402957.9103    666835.7232   4550862.0000   6  11   1.5628   0.7810   2.0368   0.2228   0.7769   1.1913   0.00    0.0    0.05702   -0.02681    0.04611   0.00000  0.00000  0.00000  0.00000  0.00000  0.00000
2268 259392.000   4402957.9186    666835.7089   4550862.0871   6  11   1.5621   0.7807   2.0364   0.2231   0.7768   1.1912   0.00    0.0    0.04957    0.00314    0.02059   0.00000  0.00000  0.00000  0.00000  0.00000  0.00000
2268 259393.000   4402957.8684    666835.7480   4550862.1116   6  11   1.5615   0.7804   2.0360   0.2234   0.7766   1.1910   0.00    0.0    0.01863    0.01352    0.03976   0.00000  0.00000  0.00000  0.00000  0.00000  0.00000
2268 259394.000   4402957.9128    666835.7635   4550862.0959   6  11   1.5608   0.7801   2.0356   0.2237   0.7765   1.1909   0.00    0.0   -0.02175   -0.01430   -0.06349   0.00000  0.00000  0.00000  0.00000  0.00000  0.00000
2268 259395.000   4402957.8244    666835.7790   4550862.0222   6  11   1.5602   0.7798   2.0353   0.2240   0.7764   1.1908   0.00    0.0   -0.00033   -0.01699   -0.10522   0.00000  0.00000  0.00000  0.00000  0.00000  0.00000
2268 259396.000   4402957.8803    666835.8253   4550862.0934   6  11   1.5596   0.7795   2.0349   0.2243   0.7763   1.1906   0.00    0.0    0.00663    0.00598    0.03074   0.00000  0.00000  0.00000  0.00000  0.00000  0.00000
2268 259397.000   4402957.9546    666835.8720   4550862.0018   6  11   1.5590   0.7792   2.0346   0.2246   0.7762   1.1905   0.00    0.0    0.02203   -0.02043   -0.04866   0.00000  0.00000  0.00000  0.00000  0.00000  0.00000
2268 259398.000   4402957.9585    666835.8396   4550861.8878   6  11   1.5584   0.7789   2.0343   0.2249   0.7760   1.1904   0.00    0.0   -0.00792   -0.02720    0.03487   0.00000  0.00000  0.00000  0.00000  0.00000  0.00000
2268 259399.000   4402957.9006    666835.8305   4550861.8822   6  11   1.5578   0.7786   2.0339   0.2252   0.7759   1.1903   0.00    0.0    0.01053   -0.01501    0.03192   0.00000  0.00000  0.00000  0.00000  0.00000  0.00000
2268 259400.000   4402957.8381    666835.8429   4550861.9407   6  11   1.5572   0.7783   2.0336   0.2255   0.7758   1.1902   0.00    0.0    0.02546   -0.04398   -0.04951   0.00000  0.00000  0.00000  0.00000  0.00000  0.00000
2268 259401.000   4402957.8730    666835.8135   4550861.8582   6  11   1.5566   0.7781   2.0333   0.2258   0.7757   1.1900   0.00    0.0    0.00357    0.04505    0.04641   0.00000  0.00000  0.00000  0.00000  0.00000  0.00000
2268 259402.000   4402957.9065    666835.8062   4550861.9962   6  11   1.5560   0.7778   2.0330   0.2261   0.7756   1.1899   0.00    0.0   -0.00272    0.00523    0.00514   0.00000  0.00000  0.00000  0.00000  0.00000  0.00000
2268 259403.000   4402957.8720    666835.7676   4550861.9279   6  11   1.5555   0.7775   2.0327   0.2264   0.7755   1.1898   0.00    0.0   -0.04228    0.02215   -0.05038   0.00000  0.00000  0.00000  0.00000  0.00000  0.00000
2268 259404.000   4402957.7650    666835.7287   4550861.8918   6  11   1.5549   0.7773   2.0324   0.2267   0.7755   1.1897   0.00    0.0    0.03951    0.02583    0.01289   0.00000  0.00000  0.00000  0.00000  0.00000  0.00000
2268 259405.000   4402957.8329    666835.7368   4550862.0159   6  11   1.5544   0.7770   2.0322   0.2270   0.7754   1.1897   0.00    0.0    0.00832   -0.00388    0.02049   0.00000  0.00000  0.00000  0.00000  0.00000  0.00000
2268 259406.000   4402957.8756    666835.7593   4550862.0116   6  11   1.5538   0.7767   2.0319   0.2273   0.7753   1.1896   0.00    0.0    0.08548   -0.01172    0.07766   0.00000  0.00000  0.00000  0.00000  0.00000  0.00000
2268 259407.000   4402957.7257    666835.7811   4550861.8918   6  11   1.5533   0.7765   2.0316   0.2276   0.7752   1.1895   0.00    0.0   -0.02310   -0.01295   -0.01884   0.00000  0.00000  0.00000  0.00000  0.00000  0.00000
2268 259408.000   4402957.6962    666835.7865   4550861.8264   6  11   1.5527   0.7762   2.0314   0.2279   0.7751   1.1894   0.00    0.0    0.00456    0.02506   -0.00563   0.00000  0.00000  0.00000  0.00000  0.00000  0.00000
2268 259409.000   4402957.5515    666835.8077   4550861.7894   6  11   1.5522   0.7760   2.0312   0.2282   0.7751   1.1893   0.00    0.0   -0.06224   -0.00948   -0.09104   0.00000  0.00000  0.00000  0.00000  0.00000  0.00000
2268 259410.000   4402957.6422    666835.8526   4550861.9027   6  11   1.5517   0.7757   2.0309   0.2285   0.7750   1.1893   0.00    0.0    0.01331    0.02503    0.00665   0.00000  0.00000  0.00000  0.00000  0.00000  0.00000
2268 259411.000   4402957.6153    666835.8396   4550862.0038   6  11   1.5512   0.7755   2.0307   0.2288   0.7749   1.1892   0.00    0.0    0.01704    0.02104   -0.00386   0.00000  0.00000  0.00000  0.00000  0.00000  0.00000
2268 259412.000   4402957.7125    666835.8073   4550861.9922   6  11   1.5507   0.7753   2.0305   0.2291   0.7749   1.1891   0.00    0.0    0.00794    0.01293    0.11591   0.00000  0.00000  0.00000  0.00000  0.00000  0.00000
2268 259413.000   4402957.7190    666835.8416   4550861.9257   6  11   1.5502   0.7750   2.0303   0.2294   0.7748   1.1891   0.00    0.0   -0.02262    0.02497    0.01192   0.00000  0.00000  0.00000  0.00000  0.00000  0.00000
2268 259414.000   4402957.7266    666835.8041   4550862.0143   6  11   1.5497   0.7748   2.0301   0.2297   0.7747   1.1890   0.00    0.0    0.01864    0.00701    0.06443   0.00000  0.00000  0.00000  0.00000  0.00000  0.00000
2268 259415.000   4402957.7528    666835.7627   4550862.0658   6  11   1.5492   0.7746   2.0299   0.2300   0.7747   1.1890   0.00    0.0   -0.00539   -0.02750   -0.00922   0.00000  0.00000  0.00000  0.00000  0.00000  0.00000
2268 259416.000   4402957.7984    666835.8197   4550862.2340   6  11   1.5487   0.7743   2.0297   0.2304   0.7746   1.1889   0.00    0.0    0.07197   -0.03633    0.04430   0.00000  0.00000  0.00000  0.00000  0.00000  0.00000
2268 259417.000   4402957.8476    666835.8593   4550862.2169   6  11   1.5482   0.7741   2.0295   0.2307   0.7746   1.1889   0.00    0.0    0.00318    0.00953    0.02906   0.00000  0.00000  0.00000  0.00000  0.00000  0.00000
2268 259418.000   4402957.8962    666835.8533   4550862.2494   6  11   1.5477   0.7739   2.0293   0.2310   0.7745   1.1889   0.00    0.0    0.02467   -0.02318    0.00801   0.00000  0.00000  0.00000  0.00000  0.00000  0.00000
2268 259419.000   4402957.9440    666835.8288   4550862.1500   6  11   1.5472   0.7737   2.0291   0.2313   0.7745   1.1888   0.00    0.0   -0.00788    0.01645    0.00035   0.00000  0.00000  0.00000  0.00000  0.00000  0.00000
2268 259420.000   4402957.9104    666835.8592   4550862.0710   6  11   1.5468   0.7734   2.0290   0.2316   0.7744   1.1888   0.00    0.0    0.01019    0.01109    0.05306   0.00000  0.00000  0.00000  0.00000  0.00000  0.00000
2268 259421.000   4402957.9188    666835.8521   4550862.0454   6  11   1.5463   0.7732   2.0288   0.2319   0.7744   1.1888   0.00    0.0    0.02441    0.02731    0.05607   0.00000  0.00000  0.00000  0.00000  0.00000  0.00000
2268 259422.000   4402957.9783    666835.8351   4550862.0552   6  11   1.5459   0.7730   2.0286   0.2322   0.7744   1.1887   0.00    0.0   -0.06513    0.02124   -0.02718   0.00000  0.00000  0.00000  0.00000  0.00000  0.00000
2268 259423.000   4402958.0339    666835.7968   4550862.0081   6  11   1.5454   0.7728   2.0285   0.2325   0.7743   1.1887   0.00    0.0   -0.02442    0.00780    0.00229   0.00000  0.00000  0.00000  0.00000  0.00000  0.00000
2268 259424.000   4402958.0031    666835.7867   4550862.0705   6  11   1.5450   0.7726   2.0283   0.2328   0.7743   1.1887   0.00    0.0   -0.03840   -0.01967    0.05099   0.00000  0.00000  0.00000  0.00000  0.00000  0.00000
2268 259425.000   4402958.0619    666835.7534   4550862.0220   6  11   1.5445   0.7724   2.0282   0.2331   0.7743   1.1887   0.00    0.0   -0.05332   -0.02288   -0.05578   0.00000  0.00000  0.00000  0.00000  0.00000  0.00000
2268 259426.000   4402958.0698    666835.7951   4550862.0660   6  11   1.5441   0.7722   2.0281   0.2334   0.7742   1.1887   0.00    0.0    0.06755    0.01495    0.03775   0.00000  0.00000  0.00000  0.00000  0.00000  0.00000
2268 259427.000   4402958.0844    666835.7920   4550862.1314   6  11   1.5436   0.7720   2.0280   0.2337   0.7742   1.1886   0.00    0.0   -0.02862   -0.02245   -0.05596   0.00000  0.00000  0.00000  0.00000  0.00000  0.00000
2268 259428.000   4402958.1028    666835.8577   4550862.3137   6  11   1.5432   0.7718   2.0278   0.2340   0.7742   1.1886   0.00    0.0   -0.06221   -0.01296    0.00997   0.00000  0.00000  0.00000  0.00000  0.00000  0.00000
2268 259429.000   4402958.0177    666835.8712   4550862.2592   6  11   1.5428   0.7716   2.0277   0.2343   0.7742   1.1886   0.00    0.0    0.02747    0.02910    0.01124   0.00000  0.00000  0.00000  0.00000  0.00000  0.00000
2268 259430.000   4402957.9633    666835.8620   4550862.2997   6  11   1.5424   0.7714   2.0276   0.2346   0.7741   1.1886   0.00    0.0   -0.05279    0.02819   -0.02704   0.00000  0.00000  0.00000  0.00000  0.00000  0.00000
2268 259431.000   4402957.9452    666835.7758   4550862.1621   6  11   1.5420   0.7712   2.0275   0.2349   0.7741   1.1886   0.00    0.0    0.01164   -0.00320   -0.08353   0.00000  0.00000  0.00000  0.00000  0.00000  0.00000
2268 259432.000   4402957.7874    666835.7493   4550862.0961   6  11   1.5415   0.7710   2.0274   0.2352   0.7741   1.1886   0.00    0.0    0.03417    0.02409    0.06735   0.00000  0.00000  0.00000  0.00000  0.00000  0.00000
2268 259433.000   4402957.7512    666835.8230   4550862.0295   6  11   1.5411   0.7708   2.0273   0.2355   0.7741   1.1887   0.00    0.0    0.02680    0.02770    0.02347   0.00000  0.00000  0.00000  0.00000  0.00000  0.00000
2268 259434.000   4402957.7961    666835.8172   4550862.0704   6  11   1.5407   0.7706   2.0272   0.2359   0.7741   1.1887   0.00    0.0   -0.03458   -0.00835   -0.00318   0.00000  0.00000  0.00000  0.00000  0.00000  0.00000
2268 259435.000   4402957.7826    666835.8006   4550861.8500   6  11   1.5403   0.7705   2.0271   0.2362   0.7741   1.1887   0.00    0.0    0.02350   -0.00290    0.02470   0.00000  0.00000  0.00000  0.00000  0.00000  0.00000
2268 259436.000   4402957.7756    666835.8130   4550861.8055   6  11   1.5399   0.7703   2.0271   0.2365   0.7741   1.1887   0.00    0.0    0.03160    0.02231    0.05259   0.00000  0.00000  0.00000  0.00000  0.00000  0.00000
2268 259437.000   4402957.7562    666835.7879   4550861.8257   6  11   1.5396   0.7701   2.0270   0.2368   0.7740   1.1887   0.00    0.0    0.01300   -0.01021   -0.00004   0.00000  0.00000  0.00000  0.00000  0.00000  0.00000
2268 259438.000   4402957.8806    666835.7295   4550861.8203   6  11   1.5392   0.7699   2.0269   0.2371   0.7740   1.1887   0.00    0.0    0.01358    0.00383   -0.08995   0.00000  0.00000  0.00000  0.00000  0.00000  0.00000
2268 259439.000   4402957.7758    666835.7559   4550861.9401   6  11   1.5388   0.7697   2.0269   0.2374   0.7740   1.1888   0.00    0.0   -0.00516   -0.01238   -0.01790   0.00000  0.00000  0.00000  0.00000  0.00000  0.00000
2268 259440.000   4402957.8913    666835.7993   4550862.0073   6  11   1.5384   0.7696   2.0268   0.2377   0.7740   1.1888   0.00    0.0    0.02850   -0.00382   -0.03589   0.00000  0.00000  0.00000  0.00000  0.00000  0.00000
2268 259441.000   4402957.8532    666835.7686   4550861.9884   6  11   1.5380   0.7694   2.0267   0.2380   0.7740   1.1888   0.00    0.0    0.04979   -0.02772   -0.09823   0.00000  0.00000  0.00000  0.00000  0.00000  0.00000
2268 259442.000   4402957.8653    666835.7516   4550862.0316   6  11   1.5377   0.7692   2.0267   0.2383   0.7740   1.1889   0.00    0.0    0.04524    0.02789    0.03503   0.00000  0.00000  0.00000  0.00000  0.00000  0.00000
2268 259443.000   4402957.7961    666835.7605   4550862.0808   6  11   1.5373   0.7691   2.0267   0.2386   0.7740   1.1889   0.00    0.0    0.03275    0.02531    0.04652   0.00000  0.00000  0.00000  0.00000  0.00000  0.00000
2268 259444.000   4402957.8215    666835.7084   4550862.1280   6  11   1.5369   0.7689   2.0266   0.2389   0.7740   1.1889   0.00    0.0   -0.00169   -0.01181    0.03638   0.00000  0.00000  0.00000  0.00000  0.00000  0.00000
2268 259445.000   4402957.8510    666835.7416   4550862.1886   6  11   1.5366   0.7687   2.0266   0.2392   0.7741   1.1890   0.00    0.0    0.00804   -0.02686   -0.09252   0.00000  0.00000  0.00000  0.00000  0.00000  0.00000
2268 259446.000   4402957.8455    666835.7629   4550862.1272   6  11   1.5362   0.7686   2.0265   0.2395   0.7741   1.1890   0.00    0.0   -0.02483    0.01045   -0.00566   0.00000  0.00000  0.00000  0.00000  0.00000  0.00000
2268 259447.000   4402957.9382    666835.7891   4550861.9703   6  11   1.5358   0.7684   2.0265   0.2398   0.7741   1.1890   0.00    0.0   -0.03377   -0.01973   -0.01264   0.00000  0.00000  0.00000  0.00000  0.00000  0.00000
2268 259448.000   4402957.8790    666835.8967   4550862.0309   6  11   1.5355   0.7683   2.0265   0.2402   0.7741   1.1891   0.00    0.0   -0.01722   -0.01700   -0.15834   0.00000  0.00000  0.00000  0.00000  0.00000  0.00000
2268 259449.000   4402957.8148    666835.8042   4550861.9053   6  11   1.5351   0.7681   2.0265   0.2405   0.7741   1.1891   0.00    0.0    0.02820    0.03161    0.01678   0.00000  0.00000  0.00000  0.00000  0.00000  0.00000
2268 259450.000   4402957.9076    666835.7834   4550862.0351   6  11   1.5348   0.7679   2.0265   0.2408   0.7741   1.1892   0.00    0.0    0.01397    0.00331   -0.02453   0.00000  0.00000  0.00000  0.00000  0.00000  0.00000
2268 259451.000   4402957.9147    666835.7817   4550862.0704   6  11   1.5345   0.7678   2.0264   0.2411   0.7741   1.1893   0.00    0.0   -0.00960   -0.01974    0.08760   0.00000  0.00000  0.00000  0.00000  0.00000  0.00000
2268 259452.000   4402957.9084    666835.7730   4550861.9701   6  11   1.5341   0.7676   2.0264   0.2414   0.7742   1.1893   0.00    0.0   -0.07897   -0.02469   -0.09866   0.00000  0.00000  0.00000  0.00000  0.00000  0.00000
2268 259453.000   4402957.8938    666835.8143   4550861.9484   6  11   1.5338   0.7675   2.0264   0.2417   0.7742   1.1894   0.00    0.0    0.02321    0.03221    0.05416   0.00000  0.00000  0.00000  0.00000  0.00000  0.00000
2268 259454.000   4402957.8224    666835.8241   4550862.0267   6  11   1.5335   0.7673   2.0264   0.2420   0.7742   1.1894   0.00    0.0    0.00703    0.01900   -0.01275   0.00000  0.00000  0.00000  0.00000  0.00000  0.00000
2268 259455.000   4402957.7494    666835.7635   4550862.0314   6  11   1.5331   0.7672   2.0264   0.2423   0.7742   1.1895   0.00    0.0    0.02287   -0.02448   -0.01140   0.00000  0.00000  0.00000  0.00000  0.00000  0.00000
2268 259456.000   4402957.7269    666835.7331   4550861.9938   6  11   1.5328   0.7671   2.0264   0.2426   0.7742   1.1896   0.00    0.0   -0.04857    0.01290   -0.08894   0.00000  0.00000  0.00000  0.00000  0.00000  0.00000
2268 259457.000   4402957.6745    666835.7503   4550861.9874   6  11   1.5325   0.7669   2.0265   0.2429   0.7743   1.1896   0.00    0.0    0.03658    0.02562    0.01841   0.00000  0.00000  0.00000  0.00000  0.00000  0.00000
2268 259458.000   4402957.7414    666835.7870   4550862.1132   6  11   1.5322   0.7668   2.0265   0.2432   0.7743   1.1897   0.00    0.0   -0.01266   -0.00946    0.06021   0.00000  0.00000  0.00000  0.00000  0.00000  0.00000
2268 259459.000   4402957.7518    666835.7621   4550861.9796   6  11   1.5319   0.7666   2.0265   0.2435   0.7743   1.1898   0.00    0.0   -0.02342    0.00701   -0.06104   0.00000  0.00000  0.00000  0.00000  0.00000  0.00000
2268 259460.000   4402957.7254    666835.8119   4550862.0477   6  11   1.5315   0.7665   2.0265   0.2438   0.7744   1.1898   0.00    0.0    0.03039    0.00616   -0.05074   0.00000  0.00000  0.00000  0.00000  0.00000  0.00000
2268 259461.000   4402957.7199    666835.8050   4550861.9866   6  11   1.5312   0.7663   2.0265   0.2441   0.7744   1.1899   0.00    0.0   -0.01551    0.00559    0.03554   0.00000  0.00000  0.00000  0.00000  0.00000  0.00000
2268 259462.000   4402957.9035    666835.7965   4550862.0429   6  11   1.5309   0.7662   2.0266   0.2445   0.7744   1.1900   0.00    0.0   -0.11299   -0.03211   -0.12028   0.00000  0.00000  0.00000  0.00000  0.00000  0.00000
2268 259463.000   4402958.0748    666835.7643   4550862.1534   6  11   1.5306   0.7661   2.0266   0.2448   0.7745   1.1901   0.00    0.0   -0.01774    0.00317    0.01474   0.00000  0.00000  0.00000  0.00000  0.00000  0.00000
2268 259464.000   4402958.1459    666835.7698   4550862.1479   6  11   1.5303   0.7659   2.0266   0.2451   0.7745   1.1901   0.00    0.0   -0.00773   -0.02160   -0.05339   0.00000  0.00000  0.00000  0.00000  0.00000  0.00000
2268 259465.000   4402958.1636    666835.7693   4550862.1168   6  11   1.5300   0.7658   2.0267   0.2454   0.7745   1.1902   0.00    0.0   -0.08586   -0.02558   -0.03899   0.00000  0.00000  0.00000  0.00000  0.00000  0.00000
2268 259466.000   4402958.1354    666835.7392   4550862.0524   6  11   1.5297   0.7657   2.0267   0.2457   0.7746   1.1903   0.00    0.0   -0.02830    0.01698   -0.02830   0.00000  0.00000  0.00000  0.00000  0.00000  0.00000
2268 259467.000   4402958.1397    666835.7138   4550861.9535   6  11   1.5294   0.7656   2.0268   0.2460   0.7746   1.1904   0.00    0.0    0.01468    0.00485   -0.03874   0.00000  0.00000  0.00000  0.00000  0.00000  0.00000
2268 259468.000   4402958.0558    666835.7182   4550861.8847   6  11   1.5291   0.7654   2.0268   0.2463   0.7747   1.1905   0.00    0.0   -0.03352   -0.02103   -0.00300   0.00000  0.00000  0.00000  0.00000  0.00000  0.00000
2268 259469.000   4402957.8984    666835.7026   4550861.7494   6  11   1.5288   0.7653   2.0269   0.2466   0.7747   1.1906   0.00    0.0    0.00615   -0.00876   -0.01256   0.00000  0.00000  0.00000  0.00000  0.00000  0.00000
2268 259470.000   4402957.8857    666835.6825   4550861.8463   6  11   1.5286   0.7652   2.0269   0.2469   0.7747   1.1907   0.00    0.0   -0.04939   -0.00177    0.04748   0.00000  0.00000  0.00000  0.00000  0.00000  0.00000
2268 259471.000   4402957.8309    666835.6684   4550861.8285   6  11   1.5283   0.7650   2.0270   0.2472   0.7748   1.1908   0.00    0.0   -0.05964   -0.02322   -0.00545   0.00000  0.00000  0.00000  0.00000  0.00000  0.00000
2268 259472.000   4402957.8439    666835.6987   4550861.8955   6  11   1.5280   0.7649   2.0271   0.2475   0.7748   1.1908   0.00    0.0   -0.00879    0.00561   -0.01765   0.00000  0.00000  0.00000  0.00000  0.00000  0.00000
2268 259473.000   4402957.9166    666835.7372   4550861.9429   6  11   1.5277   0.7648   2.0271   0.2478   0.7749   1.1909   0.00    0.0   -0.02185   -0.00811    0.03494   0.00000  0.00000  0.00000  0.00000  0.00000  0.00000
2268 259474.000   4402957.8408    666835.7336   4550861.8788   6  11   1.5274   0.7647   2.0272   0.2481   0.7749   1.1910   0.00    0.0    0.00974   -0.03427    0.03459   0.00000  0.00000  0.00000  0.00000  0.00000  0.00000
2268 259475.000   4402957.9015    666835.7627   4550861.9767   6  11   1.5272   0.7646   2.0273   0.2484   0.7750   1.1911   0.00    0.0   -0.02467   -0.01667   -0.06782   0.00000  0.00000  0.00000  0.00000  0.00000  0.00000
2268 259476.000   4402958.0981    666835.7552   4550862.0965   6  11   1.5269   0.7644   2.0273   0.2488   0.7750   1.1912   0.00    0.0    0.01962    0.02596    0.10911   0.00000  0.00000  0.00000  0.00000  0.00000  0.00000
2268 259477.000   4402957.9861    666835.7387   4550862.1060   6  11   1.5266   0.7643   2.0274   0.2491   0.7751   1.1913   0.00    0.0    0.00771    0.00605    0.04876   0.00000  0.00000  0.00000  0.00000  0.00000  0.00000
2268 259478.000   4402957.9651    666835.7563   4550862.0803   6  11   1.5264   0.7642   2.0275   0.2494   0.7751   1.1915   0.00    0.0    0.04197   -0.03752   -0.07964   0.00000  0.00000  0.00000  0.00000  0.00000  0.00000
2268 259479.000   4402957.8903    666835.7677   4550861.9150   6  11   1.5261   0.7641   2.0276   0.2497   0.7752   1.1916   0.00    0.0   -0.12348    0.00406   -0.15013   0.00000  0.00000  0.00000  0.00000  0.00000  0.00000
2268 259480.000   4402957.7882    666835.7393   4550861.8274   6  11   1.5258   0.7640   2.0277   0.2500   0.7752   1.1917   0.00    0.0    0.04495   -0.00570    0.09618   0.00000  0.00000  0.00000  0.00000  0.00000  0.00000
2268 259481.000   4402957.8283    666835.7735   4550861.9248   6  11   1.5256   0.7639   2.0278   0.2503   0.7753   1.1918   0.00    0.0    0.00558    0.01416   -0.06137   0.00000  0.00000  0.00000  0.00000  0.00000  0.00000
2268 259482.000   4402957.9233    666835.7885   4550862.0378   6  11   1.5253   0.7638   2.0279   0.2506   0.7754   1.1919   0.00    0.0    0.04791    0.03009    0.11317   0.00000  0.00000  0.00000  0.00000  0.00000  0.00000
2268 259483.000   4402957.9976    666835.7816   4550862.0211   6  11   1.5251   0.7637   2.0280   0.2509   0.7754   1.1920   0.00    0.0   -0.00569   -0.00963   -0.04447   0.00000  0.00000  0.00000  0.00000  0.00000  0.00000
2268 259484.000   4402958.0800    666835.8387   4550862.1858   6  11   1.5248   0.7636   2.0281   0.2512   0.7755   1.1921   0.00    0.0   -0.04725   -0.00320   -0.06633   0.00000  0.00000  0.00000  0.00000  0.00000  0.00000
2268 259485.000   4402957.9743    666835.8270   4550862.1103   6  11   1.5246   0.7634   2.0282   0.2515   0.7755   1.1922   0.00    0.0    0.03226   -0.02728    0.02184   0.00000  0.00000  0.00000  0.00000  0.00000  0.00000
2268 259486.000   4402957.9794    666835.8098   4550862.1625   6  11   1.5243   0.7633   2.0283   0.2518   0.7756   1.1923   0.00    0.0    0.06415    0.01005    0.00758   0.00000  0.00000  0.00000  0.00000  0.00000  0.00000
2268 259487.000   4402957.8616    666835.8123   4550862.0988   6  11   1.5241   0.7632   2.0284   0.2521   0.7757   1.1925   0.00    0.0   -0.00696    0.03084    0.00449   0.00000  0.00000  0.00000  0.00000  0.00000  0.00000
2268 259488.000   4402957.8585    666835.8043   4550862.0501   6  11   1.5238   0.7631   2.0285   0.2524   0.7757   1.1926   0.00    0.0   -0.00644   -0.01102   -0.06027   0.00000  0.00000  0.00000  0.00000  0.00000  0.00000
2268 259489.000   4402957.8799    666835.8291   4550862.0932   6  11   1.5236   0.7630   2.0286   0.2527   0.7758   1.1927   0.00    0.0    0.05297    0.00357   -0.00778   0.00000  0.00000  0.00000  0.00000  0.00000  0.00000
2268 259490.000   4402957.7745    666835.7844   4550861.8904   6  11   1.5233   0.7629   2.0287   0.2530   0.7759   1.1928   0.00    0.0    0.07430   -0.00360    0.06066   0.00000  0.00000  0.00000  0.00000  0.00000  0.00000
2268 259491.000   4402957.7945    666835.7453   4550861.9172   6  11   1.5231   0.7628   2.0288   0.2533   0.7759   1.1930   0.00    0.0    0.03688   -0.00410    0.02149   0.00000  0.00000  0.00000  0.00000  0.00000  0.00000
2268 259492.000   4402957.7737    666835.7733   4550861.8889   6  11   1.5229   0.7627   2.0289   0.2536   0.7760   1.1931   0.00    0.0    0.03769    0.00106    0.10119   0.00000  0.00000  0.00000  0.00000  0.00000  0.00000
2268 259493.000   4402957.8191    666835.7789   4550861.9845   6  11   1.5226   0.7626   2.0291   0.2540   0.7761   1.1932   0.00    0.0   -0.02642    0.00364   -0.03169   0.00000  0.00000  0.00000  0.00000  0.00000  0.00000
