% program   : GINav v0.1.0
% obs start : 2023/06/28 00:05:11.0
% obs end   : 2023/06/28 02:46:26.0
% mode      : SPP
% system    : GPS GALILEO 
% nfreqs    : 2
% elev mask : 10.0 deg
% ephemeris : broadcast
% ionos opt : iono-free LC
% trops opt : off
%
%  GPST              x-ecef(m)      y-ecef(m)      z-ecef(m)   Q  ns   sdx(m)   sdy(m)   sdz(m)  sdxy(m)  sdyz(m)  sdzx(m) age(s)  ratio    vx(m/s)    vy(m/s)    vz(m/s)      sdvx     sdvy     sdvz    sdvxy    sdvyz    sdvzx
2268 259511.000   4403264.8810    668280.6688   4550733.5813   5   6  57.4088  31.4783  40.9083 -34.0913 -26.3392  41.2823   0.00    0.0    0.00000    0.00000    0.00000   0.00000  0.00000  0.00000  0.00000  0.00000  0.00000
2268 259512.000   4403265.0574    668280.5788   4550733.6698   5   6  57.4047  31.4752  40.9113 -34.0854 -26.3369  41.2824   0.00    0.0    0.00000    0.00000    0.00000   0.00000  0.00000  0.00000  0.00000  0.00000  0.00000
2268 259513.000   4403265.0276    668280.6874   4550733.6209   5   6  57.4005  31.4720  40.9142 -34.0796 -26.3345  41.2825   0.00    0.0    0.00000    0.00000    0.00000   0.00000  0.00000  0.00000  0.00000  0.00000  0.00000
2268 259514.000   4403264.7716    668280.7977   4550733.4392   5   6  57.3964  31.4688  40.9171 -34.0737 -26.3322  41.2826   0.00    0.0    0.00000    0.00000    0.00000   0.00000  0.00000  0.00000  0.00000  0.00000  0.00000
2268 259515.000   4403264.5974    668280.9186   4550733.2850   5   6  57.3923  31.4657  40.9200 -34.0679 -26.3299  41.2827   0.00    0.0    0.00000    0.00000    0.00000   0.00000  0.00000  0.00000  0.00000  0.00000  0.00000
2268 259516.000   4403264.6500    668280.8526   4550733.3186   5   6  57.3882  31.4625  40.9229 -34.0620 -26.3275  41.2828   0.00    0.0    0.00000    0.00000    0.00000   0.00000  0.00000  0.00000  0.00000  0.00000  0.00000
2268 259517.000   4403264.6446    668280.8942   4550733.3754   5   6  57.3840  31.4593  40.9259 -34.0561 -26.3252  41.2829   0.00    0.0    0.00000    0.00000    0.00000   0.00000  0.00000  0.00000  0.00000  0.00000  0.00000
2268 259518.000   4403264.6920    668280.7847   4550733.3330   5   6  57.3799  31.4562  40.9288 -34.0503 -26.3228  41.2831   0.00    0.0    0.00000    0.00000    0.00000   0.00000  0.00000  0.00000  0.00000  0.00000  0.00000
2268 259519.000   4403264.7572    668280.7587   4550733.1981   5   6  57.3758  31.4530  40.9317 -34.0444 -26.3205  41.2832   0.00    0.0    0.00000    0.00000    0.00000   0.00000  0.00000  0.00000  0.00000  0.00000  0.00000
2268 259520.000   4403264.8413    668280.7637   4550733.4203   5   6  57.3716  31.4498  40.9346 -34.0386 -26.3181  41.2833   0.00    0.0    0.00000    0.00000    0.00000   0.00000  0.00000  0.00000  0.00000  0.00000  0.00000
2268 259521.000   4403264.8136    668280.6766   4550733.5205   5   6  57.3675  31.4467  40.9375 -34.0327 -26.3158  41.2834   0.00    0.0    0.00000    0.00000    0.00000   0.00000  0.00000  0.00000  0.00000  0.00000  0.00000
2268 259522.000   4403264.8848    668280.6175   4550733.5724   5   6  57.3634  31.4435  40.9404 -34.0268 -26.3134  41.2835   0.00    0.0    0.00000    0.00000    0.00000   0.00000  0.00000  0.00000  0.00000  0.00000  0.00000
2268 259523.000   4403265.0116    668280.6049   4550733.7675   5   6  57.3592  31.4404  40.9434 -34.0210 -26.3111  41.2836   0.00    0.0    0.00000    0.00000    0.00000   0.00000  0.00000  0.00000  0.00000  0.00000  0.00000
2268 259524.000   4403264.5650    668280.7282   4550733.3884   5   6  57.3551  31.4372  40.9463 -34.0151 -26.3087  41.2837   0.00    0.0    0.00000    0.00000    0.00000   0.00000  0.00000  0.00000  0.00000  0.00000  0.00000
2268 259525.000   4403264.7007    668280.7040   4550733.3822   5   6  57.3510  31.4340  40.9492 -34.0093 -26.3064  41.2838   0.00    0.0    0.00000    0.00000    0.00000   0.00000  0.00000  0.00000  0.00000  0.00000  0.00000
2268 259526.000   4403264.7229    668280.6577   4550733.4380   5   6  57.3469  31.4309  40.9521 -34.0034 -26.3040  41.2839   0.00    0.0    0.00000    0.00000    0.00000   0.00000  0.00000  0.00000  0.00000  0.00000  0.00000
2268 259527.000   4403264.8195    668280.6898   4550733.4466   5   6  57.3427  31.4277  40.9550 -33.9975 -26.3016  41.2840   0.00    0.0    0.00000    0.00000    0.00000   0.00000  0.00000  0.00000  0.00000  0.00000  0.00000
2268 259528.000   4403264.8843    668280.7363   4550733.4755   5   6  57.3386  31.4245  40.9579 -33.9917 -26.2993  41.2841   0.00    0.0    0.00000    0.00000    0.00000   0.00000  0.00000  0.00000  0.00000  0.00000  0.00000
2268 259529.000   4403265.0157    668280.7696   4550733.4863   5   6  57.3345  31.4214  40.9609 -33.9858 -26.2969  41.2842   0.00    0.0    0.00000    0.00000    0.00000   0.00000  0.00000  0.00000  0.00000  0.00000  0.00000
2268 259530.000   4403264.8138    668280.8898   4550733.6541   5   6  57.3304  31.4182  40.9638 -33.9799 -26.2945  41.2843   0.00    0.0    0.00000    0.00000    0.00000   0.00000  0.00000  0.00000  0.00000  0.00000  0.00000
2268 259531.000   4403264.8543    668280.8827   4550733.5497   5   6  57.3262  31.4151  40.9667 -33.9741 -26.2922  41.2844   0.00    0.0    0.00000    0.00000    0.00000   0.00000  0.00000  0.00000  0.00000  0.00000  0.00000
2268 259532.000   4403264.7440    668280.9785   4550733.4128   5   6  57.3221  31.4119  40.9696 -33.9682 -26.2898  41.2845   0.00    0.0    0.00000    0.00000    0.00000   0.00000  0.00000  0.00000  0.00000  0.00000  0.00000
2268 259533.000   4403264.7301    668280.9080   4550733.2984   5   6  57.3180  31.4087  40.9725 -33.9623 -26.2874  41.2846   0.00    0.0    0.00000    0.00000    0.00000   0.00000  0.00000  0.00000  0.00000  0.00000  0.00000
2268 259534.000   4403264.6512    668280.8568   4550733.4414   5   6  57.3139  31.4056  40.9754 -33.9564 -26.2851  41.2847   0.00    0.0    0.00000    0.00000    0.00000   0.00000  0.00000  0.00000  0.00000  0.00000  0.00000
2268 259535.000   4403264.6875    668280.6755   4550733.4555   5   6  57.3097  31.4024  40.9783 -33.9506 -26.2827  41.2848   0.00    0.0    0.00000    0.00000    0.00000   0.00000  0.00000  0.00000  0.00000  0.00000  0.00000
2268 259536.000   4403264.7384    668280.5922   4550733.5616   5   6  57.3056  31.3993  40.9812 -33.9447 -26.2803  41.2849   0.00    0.0    0.00000    0.00000    0.00000   0.00000  0.00000  0.00000  0.00000  0.00000  0.00000
2268 259537.000   4403264.6320    668280.6578   4550733.5915   5   6  57.3015  31.3961  40.9842 -33.9388 -26.2779  41.2850   0.00    0.0    0.00000    0.00000    0.00000   0.00000  0.00000  0.00000  0.00000  0.00000  0.00000
2268 259538.000   4403264.6651    668280.7405   4550733.6702   5   6  57.2974  31.3929  40.9871 -33.9330 -26.2756  41.2851   0.00    0.0    0.00000    0.00000    0.00000   0.00000  0.00000  0.00000  0.00000  0.00000  0.00000
2268 259539.000   4403264.6754    668280.7047   4550733.7674   5   6  57.2933  31.3898  40.9900 -33.9271 -26.2732  41.2851   0.00    0.0    0.00000    0.00000    0.00000   0.00000  0.00000  0.00000  0.00000  0.00000  0.00000
2268 259540.000   4403264.8947    668280.5751   4550733.8597   5   6  57.2891  31.3866  40.9929 -33.9212 -26.2708  41.2852   0.00    0.0    0.00000    0.00000    0.00000   0.00000  0.00000  0.00000  0.00000  0.00000  0.00000
2268 259541.000   4403264.9633    668280.6305   4550733.9358   5   6  57.2850  31.3835  40.9958 -33.9153 -26.2684  41.2853   0.00    0.0    0.00000    0.00000    0.00000   0.00000  0.00000  0.00000  0.00000  0.00000  0.00000
2268 259542.000   4403265.0380    668280.6832   4550733.8368   5   6  57.2809  31.3803  40.9987 -33.9095 -26.2660  41.2854   0.00    0.0    0.00000    0.00000    0.00000   0.00000  0.00000  0.00000  0.00000  0.00000  0.00000
2268 259543.000   4403265.2647    668280.7001   4550733.9416   5   6  57.2768  31.3771  41.0016 -33.9036 -26.2637  41.2855   0.00    0.0    0.00000    0.00000    0.00000   0.00000  0.00000  0.00000  0.00000  0.00000  0.00000
2268 259544.000   4403264.8376    668280.7550   4550733.7029   5   6  57.2727  31.3740  41.0045 -33.8977 -26.2613  41.2856   0.00    0.0    0.00000    0.00000    0.00000   0.00000  0.00000  0.00000  0.00000  0.00000  0.00000
2268 259545.000   4403264.9032    668280.6883   4550733.6716   5   6  57.2685  31.3708  41.0074 -33.8918 -26.2589  41.2857   0.00    0.0    0.00000    0.00000    0.00000   0.00000  0.00000  0.00000  0.00000  0.00000  0.00000
2268 259546.000   4403264.9733    668280.6866   4550733.5289   5   6  57.2644  31.3677  41.0104 -33.8859 -26.2565  41.2858   0.00    0.0    0.00000    0.00000    0.00000   0.00000  0.00000  0.00000  0.00000  0.00000  0.00000
2268 259547.000   4403264.9348    668280.7059   4550733.6631   5   6  57.2603  31.3645  41.0133 -33.8801 -26.2541  41.2859   0.00    0.0    0.00000    0.00000    0.00000   0.00000  0.00000  0.00000  0.00000  0.00000  0.00000
2268 259548.000   4403264.9501    668280.6816   4550733.6540   5   6  57.2562  31.3614  41.0162 -33.8742 -26.2517  41.2860   0.00    0.0    0.00000    0.00000    0.00000   0.00000  0.00000  0.00000  0.00000  0.00000  0.00000
2268 259549.000   4403264.8763    668280.6872   4550733.5951   5   6  57.2521  31.3582  41.0191 -33.8683 -26.2493  41.2861   0.00    0.0    0.00000    0.00000    0.00000   0.00000  0.00000  0.00000  0.00000  0.00000  0.00000
2268 259550.000   4403264.8222    668280.7590   4550733.6334   5   6  57.2480  31.3550  41.0220 -33.8624 -26.2469  41.2862   0.00    0.0    0.00000    0.00000    0.00000   0.00000  0.00000  0.00000  0.00000  0.00000  0.00000
2268 259551.000   4403264.8475    668280.7336   4550733.7250   5   6  57.2438  31.3519  41.0249 -33.8565 -26.2445  41.2863   0.00    0.0    0.00000    0.00000    0.00000   0.00000  0.00000  0.00000  0.00000  0.00000  0.00000
2268 259552.000   4403265.2820    668280.4864   4550733.9573   5   6  57.2397  31.3487  41.0278 -33.8507 -26.2421  41.2863   0.00    0.0    0.00000    0.00000    0.00000   0.00000  0.00000  0.00000  0.00000  0.00000  0.00000
2268 259553.000   4403265.2285    668280.6119   4550733.9410   5   6  57.2356  31.3456  41.0307 -33.8448 -26.2397  41.2864   0.00    0.0    0.00000    0.00000    0.00000   0.00000  0.00000  0.00000  0.00000  0.00000  0.00000
2268 259554.000   4403265.3295    668280.6974   4550733.9965   5   6  57.2315  31.3424  41.0336 -33.8389 -26.2373  41.2865   0.00    0.0    0.00000    0.00000    0.00000   0.00000  0.00000  0.00000  0.00000  0.00000  0.00000
2268 259555.000   4403265.4545    668280.6023   4550734.0383   5   6  57.2274  31.3393  41.0365 -33.8330 -26.2349  41.2866   0.00    0.0    0.00000    0.00000    0.00000   0.00000  0.00000  0.00000  0.00000  0.00000  0.00000
2268 259556.000   4403265.3535    668280.6153   4550733.9950   5   6  57.2233  31.3361  41.0394 -33.8271 -26.2325  41.2867   0.00    0.0    0.00000    0.00000    0.00000   0.00000  0.00000  0.00000  0.00000  0.00000  0.00000
2268 259557.000   4403265.2906    668280.7276   4550733.8935   5   6  57.2192  31.3330  41.0423 -33.8212 -26.2301  41.2868   0.00    0.0    0.00000    0.00000    0.00000   0.00000  0.00000  0.00000  0.00000  0.00000  0.00000
2268 259558.000   4403265.2621    668280.6767   4550733.9474   5   6  57.2150  31.3298  41.0452 -33.8153 -26.2277  41.2869   0.00    0.0    0.00000    0.00000    0.00000   0.00000  0.00000  0.00000  0.00000  0.00000  0.00000
2268 259559.000   4403265.0235    668280.6987   4550733.7595   5   6  57.2109  31.3267  41.0481 -33.8094 -26.2253  41.2869   0.00    0.0    0.00000    0.00000    0.00000   0.00000  0.00000  0.00000  0.00000  0.00000  0.00000
2268 259560.000   4403264.8361    668280.7087   4550733.9377   5   6  57.2068  31.3235  41.0510 -33.8036 -26.2229  41.2870   0.00    0.0    0.00000    0.00000    0.00000   0.00000  0.00000  0.00000  0.00000  0.00000  0.00000
2268 259561.000   4403264.9664    668280.6218   4550733.8591   5   6  57.2027  31.3203  41.0539 -33.7977 -26.2204  41.2871   0.00    0.0    0.00000    0.00000    0.00000   0.00000  0.00000  0.00000  0.00000  0.00000  0.00000
2268 259562.000   4403265.0167    668280.7463   4550733.8634   5   6  57.1986  31.3172  41.0568 -33.7918 -26.2180  41.2872   0.00    0.0    0.00000    0.00000    0.00000   0.00000  0.00000  0.00000  0.00000  0.00000  0.00000
2268 259563.000   4403265.1343    668280.7258   4550733.9851   5   6  57.1945  31.3140  41.0597 -33.7859 -26.2156  41.2873   0.00    0.0    0.00000    0.00000    0.00000   0.00000  0.00000  0.00000  0.00000  0.00000  0.00000
2268 259564.000   4403265.1398    668280.6498   4550734.0497   5   6  57.1904  31.3109  41.0626 -33.7800 -26.2132  41.2874   0.00    0.0    0.00000    0.00000    0.00000   0.00000  0.00000  0.00000  0.00000  0.00000  0.00000
2268 259565.000   4403265.1020    668280.6301   4550733.9360   5   6  57.1863  31.3077  41.0655 -33.7741 -26.2108  41.2875   0.00    0.0    0.00000    0.00000    0.00000   0.00000  0.00000  0.00000  0.00000  0.00000  0.00000
2268 259566.000   4403265.0794    668280.6127   4550733.8612   5   6  57.1822  31.3046  41.0684 -33.7682 -26.2083  41.2875   0.00    0.0    0.00000    0.00000    0.00000   0.00000  0.00000  0.00000  0.00000  0.00000  0.00000
2268 259567.000   4403264.9895    668280.6359   4550733.8085   5   6  57.1781  31.3014  41.0713 -33.7623 -26.2059  41.2876   0.00    0.0    0.00000    0.00000    0.00000   0.00000  0.00000  0.00000  0.00000  0.00000  0.00000
2268 259568.000   4403265.2683    668280.5682   4550733.9415   5   6  57.1739  31.2983  41.0742 -33.7564 -26.2035  41.2877   0.00    0.0    0.00000    0.00000    0.00000   0.00000  0.00000  0.00000  0.00000  0.00000  0.00000
2268 259569.000   4403265.2377    668280.5449   4550733.8762   5   6  57.1698  31.2951  41.0771 -33.7505 -26.2011  41.2878   0.00    0.0    0.00000    0.00000    0.00000   0.00000  0.00000  0.00000  0.00000  0.00000  0.00000
2268 259570.000   4403265.2638    668280.5757   4550733.7596   5   6  57.1657  31.2920  41.0800 -33.7446 -26.1986  41.2879   0.00    0.0    0.00000    0.00000    0.00000   0.00000  0.00000  0.00000  0.00000  0.00000  0.00000
2268 259571.000   4403264.9387    668280.5854   4550733.6396   5   6  57.1616  31.2888  41.0829 -33.7387 -26.1962  41.2879   0.00    0.0    0.00000    0.00000    0.00000   0.00000  0.00000  0.00000  0.00000  0.00000  0.00000
2268 259572.000   4403264.8738    668280.6017   4550733.8080   5   6  57.1575  31.2857  41.0858 -33.7328 -26.1938  41.2880   0.00    0.0    0.00000    0.00000    0.00000   0.00000  0.00000  0.00000  0.00000  0.00000  0.00000
2268 259573.000   4403264.9178    668280.5579   4550733.8863   5   6  57.1534  31.2825  41.0887 -33.7269 -26.1913  41.2881   0.00    0.0    0.00000    0.00000    0.00000   0.00000  0.00000  0.00000  0.00000  0.00000  0.00000
2268 259574.000   4403265.0037    668280.6520   4550733.8742   5   6  57.1493  31.2794  41.0916 -33.7210 -26.1889  41.2882   0.00    0.0    0.00000    0.00000    0.00000   0.00000  0.00000  0.00000  0.00000  0.00000  0.00000
2268 259575.000   4403264.9628    668280.6786   4550733.9990   5   6  57.1452  31.2762  41.0945 -33.7151 -26.1865  41.2883   0.00    0.0    0.00000    0.00000    0.00000   0.00000  0.00000  0.00000  0.00000  0.00000  0.00000
2268 259576.000   4403264.9305    668280.7693   4550734.0561   5   6  57.1411  31.2731  41.0974 -33.7092 -26.1840  41.2883   0.00    0.0    0.00000    0.00000    0.00000   0.00000  0.00000  0.00000  0.00000  0.00000  0.00000
2268 259577.000   4403264.8575    668280.6674   4550733.9084   5   6  57.1370  31.2699  41.1003 -33.7033 -26.1816  41.2884   0.00    0.0    0.00000    0.00000    0.00000   0.00000  0.00000  0.00000  0.00000  0.00000  0.00000
2268 259578.000   4403265.0376    668280.6936   4550734.0212   5   6  57.1329  31.2668  41.1032 -33.6974 -26.1792  41.2885   0.00    0.0    0.00000    0.00000    0.00000   0.00000  0.00000  0.00000  0.00000  0.00000  0.00000
2268 259579.000   4403265.0490    668280.7116   4550733.8318   5   6  57.1288  31.2636  41.1061 -33.6915 -26.1767  41.2886   0.00    0.0    0.00000    0.00000    0.00000   0.00000  0.00000  0.00000  0.00000  0.00000  0.00000
2268 259580.000   4403265.2076    668280.7820   4550733.9236   5   6  57.1247  31.2605  41.1090 -33.6856 -26.1743  41.2886   0.00    0.0    0.00000    0.00000    0.00000   0.00000  0.00000  0.00000  0.00000  0.00000  0.00000
2268 259581.000   4403264.9809    668280.7961   4550733.7491   5   6  57.1206  31.2573  41.1119 -33.6797 -26.1718  41.2887   0.00    0.0    0.00000    0.00000    0.00000   0.00000  0.00000  0.00000  0.00000  0.00000  0.00000
2268 259582.000   4403265.0733    668280.7611   4550733.7982   5   6  57.1165  31.2542  41.1148 -33.6738 -26.1694  41.2888   0.00    0.0    0.00000    0.00000    0.00000   0.00000  0.00000  0.00000  0.00000  0.00000  0.00000
2268 259583.000   4403265.1368    668280.7998   4550733.7445   5   6  57.1124  31.2510  41.1177 -33.6679 -26.1669  41.2889   0.00    0.0    0.00000    0.00000    0.00000   0.00000  0.00000  0.00000  0.00000  0.00000  0.00000
2268 259584.000   4403264.9697    668280.6542   4550733.5656   5   6  57.1083  31.2479  41.1206 -33.6620 -26.1645  41.2889   0.00    0.0    0.00000    0.00000    0.00000   0.00000  0.00000  0.00000  0.00000  0.00000  0.00000
2268 259585.000   4403264.7090    668280.7115   4550733.4300   5   6  57.1042  31.2447  41.1235 -33.6561 -26.1620  41.2890   0.00    0.0    0.00000    0.00000    0.00000   0.00000  0.00000  0.00000  0.00000  0.00000  0.00000
2268 259586.000   4403265.0611    668280.6743   4550733.5543   5   6  57.1001  31.2416  41.1264 -33.6502 -26.1596  41.2891   0.00    0.0    0.00000    0.00000    0.00000   0.00000  0.00000  0.00000  0.00000  0.00000  0.00000
2268 259587.000   4403265.0461    668280.7671   4550733.5691   5   6  57.0960  31.2384  41.1293 -33.6443 -26.1571  41.2891   0.00    0.0    0.00000    0.00000    0.00000   0.00000  0.00000  0.00000  0.00000  0.00000  0.00000
2268 259588.000   4403264.9552    668280.7514   4550733.6305   5   6  57.0919  31.2353  41.1322 -33.6384 -26.1547  41.2892   0.00    0.0    0.00000    0.00000    0.00000   0.00000  0.00000  0.00000  0.00000  0.00000  0.00000
2268 259589.000   4403265.0929    668280.7000   4550733.7857   5   6  57.0878  31.2322  41.1351 -33.6324 -26.1522  41.2893   0.00    0.0    0.00000    0.00000    0.00000   0.00000  0.00000  0.00000  0.00000  0.00000  0.00000
2268 259590.000   4403264.9919    668280.8169   4550733.8060   5   6  57.0837  31.2290  41.1380 -33.6265 -26.1497  41.2894   0.00    0.0    0.00000    0.00000    0.00000   0.00000  0.00000  0.00000  0.00000  0.00000  0.00000
2268 259591.000   4403265.0163    668280.8282   4550733.8834   5   6  57.0796  31.2259  41.1409 -33.6206 -26.1473  41.2894   0.00    0.0    0.00000    0.00000    0.00000   0.00000  0.00000  0.00000  0.00000  0.00000  0.00000
2268 259592.000   4403265.1788    668280.8172   4550734.0108   5   6  57.0755  31.2227  41.1437 -33.6147 -26.1448  41.2895   0.00    0.0    0.00000    0.00000    0.00000   0.00000  0.00000  0.00000  0.00000  0.00000  0.00000
2268 259593.000   4403265.0825    668280.7448   4550733.8758   5   6  57.0714  31.2196  41.1466 -33.6088 -26.1423  41.2896   0.00    0.0    0.00000    0.00000    0.00000   0.00000  0.00000  0.00000  0.00000  0.00000  0.00000
2268 259594.000   4403265.1615    668280.6892   4550733.9179   5   6  57.0673  31.2164  41.1495 -33.6029 -26.1399  41.2896   0.00    0.0    0.00000    0.00000    0.00000   0.00000  0.00000  0.00000  0.00000  0.00000  0.00000
2268 259595.000   4403265.4153    668280.6131   4550734.0854   5   6  57.0632  31.2133  41.1524 -33.5970 -26.1374  41.2897   0.00    0.0    0.00000    0.00000    0.00000   0.00000  0.00000  0.00000  0.00000  0.00000  0.00000
2268 259596.000   4403265.3523    668280.6365   4550734.0911   5   6  57.0591  31.2101  41.1553 -33.5910 -26.1349  41.2898   0.00    0.0    0.00000    0.00000    0.00000   0.00000  0.00000  0.00000  0.00000  0.00000  0.00000
2268 259597.000   4403265.3016    668280.7552   4550734.0523   5   6  57.0550  31.2070  41.1582 -33.5851 -26.1325  41.2898   0.00    0.0    0.00000    0.00000    0.00000   0.00000  0.00000  0.00000  0.00000  0.00000  0.00000
2268 259598.000   4403265.4158    668280.5171   4550734.1343   5   6  57.0509  31.2038  41.1611 -33.5792 -26.1300  41.2899   0.00    0.0    0.00000    0.00000    0.00000   0.00000  0.00000  0.00000  0.00000  0.00000  0.00000
2268 259599.000   4403265.1778    668280.5617   4550734.1251   5   6  57.0468  31.2007  41.1640 -33.5733 -26.1275  41.2900   0.00    0.0    0.00000    0.00000    0.00000   0.00000  0.00000  0.00000  0.00000  0.00000  0.00000
2268 259600.000   4403265.1380    668280.5000   4550734.0753   5   6  57.0428  31.1976  41.1669 -33.5674 -26.1250  41.2900   0.00    0.0    0.00000    0.00000    0.00000   0.00000  0.00000  0.00000  0.00000  0.00000  0.00000
2268 259601.000   4403265.2101    668280.3830   4550734.0001   5   6  57.0387  31.1944  41.1697 -33.5614 -26.1226  41.2901   0.00    0.0    0.00000    0.00000    0.00000   0.00000  0.00000  0.00000  0.00000  0.00000  0.00000
2268 259602.000   4403264.9611    668280.4749   4550733.7729   5   6  57.0346  31.1913  41.1726 -33.5555 -26.1201  41.2902   0.00    0.0    0.00000    0.00000    0.00000   0.00000  0.00000  0.00000  0.00000  0.00000  0.00000
2268 259603.000   4403264.9653    668280.6227   4550733.7983   5   6  57.0305  31.1881  41.1755 -33.5496 -26.1176  41.2902   0.00    0.0    0.00000    0.00000    0.00000   0.00000  0.00000  0.00000  0.00000  0.00000  0.00000
2268 259604.000   4403264.9648    668280.6686   4550733.7816   5   6  57.0264  31.1850  41.1784 -33.5437 -26.1151  41.2903   0.00    0.0    0.00000    0.00000    0.00000   0.00000  0.00000  0.00000  0.00000  0.00000  0.00000
2268 259605.000   4403264.8871    668280.7656   4550733.7347   5   6  57.0223  31.1819  41.1813 -33.5378 -26.1126  41.2904   0.00    0.0    0.00000    0.00000    0.00000   0.00000  0.00000  0.00000  0.00000  0.00000  0.00000
2268 259606.000   4403265.0974    668280.6421   4550733.8834   5   6  57.0182  31.1787  41.1842 -33.5318 -26.1101  41.2904   0.00    0.0    0.00000    0.00000    0.00000   0.00000  0.00000  0.00000  0.00000  0.00000  0.00000
2268 259607.000   4403265.1604    668280.5537   4550733.8759   5   6  57.0141  31.1756  41.1871 -33.5259 -26.1077  41.2905   0.00    0.0    0.00000    0.00000    0.00000   0.00000  0.00000  0.00000  0.00000  0.00000  0.00000
2268 259608.000   4403265.0625    668280.6044   4550733.9639   5   6  57.0100  31.1724  41.1900 -33.5200 -26.1052  41.2906   0.00    0.0    0.00000    0.00000    0.00000   0.00000  0.00000  0.00000  0.00000  0.00000  0.00000
2268 259609.000   4403265.0733    668280.6378   4550733.9172   5   6  57.0059  31.1693  41.1928 -33.5141 -26.1027  41.2906   0.00    0.0    0.00000    0.00000    0.00000   0.00000  0.00000  0.00000  0.00000  0.00000  0.00000
2268 259610.000   4403264.9315    668280.7361   4550734.0356   5   6  57.0019  31.1661  41.1957 -33.5081 -26.1002  41.2907   0.00    0.0    0.00000    0.00000    0.00000   0.00000  0.00000  0.00000  0.00000  0.00000  0.00000
2268 259611.000   4403265.1627    668280.5695   4550734.1294   5   6  56.9978  31.1630  41.1986 -33.5022 -26.0977  41.2907   0.00    0.0    0.00000    0.00000    0.00000   0.00000  0.00000  0.00000  0.00000  0.00000  0.00000
2268 259612.000   4403265.1399    668280.5313   4550734.0179   5   6  56.9937  31.1599  41.2015 -33.4963 -26.0952  41.2908   0.00    0.0    0.00000    0.00000    0.00000   0.00000  0.00000  0.00000  0.00000  0.00000  0.00000
2268 259613.000   4403265.1713    668280.5584   4550733.9778   5   6  56.9896  31.1567  41.2044 -33.4904 -26.0927  41.2909   0.00    0.0    0.00000    0.00000    0.00000   0.00000  0.00000  0.00000  0.00000  0.00000  0.00000
2268 259614.000   4403264.8965    668280.7562   4550733.7985   5   6  56.9855  31.1536  41.2073 -33.4844 -26.0902  41.2909   0.00    0.0    0.00000    0.00000    0.00000   0.00000  0.00000  0.00000  0.00000  0.00000  0.00000
2268 259615.000   4403264.9111    668280.7771   4550733.8458   5   6  56.9814  31.1504  41.2101 -33.4785 -26.0877  41.2910   0.00    0.0    0.00000    0.00000    0.00000   0.00000  0.00000  0.00000  0.00000  0.00000  0.00000
2268 259616.000   4403265.0219    668280.7645   4550733.9074   5   6  56.9773  31.1473  41.2130 -33.4726 -26.0852  41.2910   0.00    0.0    0.00000    0.00000    0.00000   0.00000  0.00000  0.00000  0.00000  0.00000  0.00000
2268 259617.000   4403265.1474    668280.7634   4550733.9961   5   6  56.9732  31.1442  41.2159 -33.4666 -26.0827  41.2911   0.00    0.0    0.00000    0.00000    0.00000   0.00000  0.00000  0.00000  0.00000  0.00000  0.00000
2268 259618.000   4403265.3433    668280.6563   4550734.1812   5   6  56.9692  31.1410  41.2188 -33.4607 -26.0802  41.2911   0.00    0.0    0.00000    0.00000    0.00000   0.00000  0.00000  0.00000  0.00000  0.00000  0.00000
2268 259619.000   4403265.2709    668280.7481   4550734.1939   5   6  56.9651  31.1379  41.2217 -33.4548 -26.0777  41.2912   0.00    0.0    0.00000    0.00000    0.00000   0.00000  0.00000  0.00000  0.00000  0.00000  0.00000
2268 259620.000   4403265.4789    668280.6764   4550734.1699   5   6  56.9610  31.1348  41.2245 -33.4488 -26.0752  41.2913   0.00    0.0    0.00000    0.00000    0.00000   0.00000  0.00000  0.00000  0.00000  0.00000  0.00000
2268 259621.000   4403265.5805    668280.5046   4550734.2253   5   6  56.9569  31.1316  41.2274 -33.4429 -26.0727  41.2913   0.00    0.0    0.00000    0.00000    0.00000   0.00000  0.00000  0.00000  0.00000  0.00000  0.00000
2268 259622.000   4403265.4957    668280.4105   4550734.2746   5   6  56.9528  31.1285  41.2303 -33.4370 -26.0701  41.2914   0.00    0.0    0.00000    0.00000    0.00000   0.00000  0.00000  0.00000  0.00000  0.00000  0.00000
2268 259623.000   4403265.5021    668280.5542   4550734.3213   5   6  56.9487  31.1253  41.2332 -33.4310 -26.0676  41.2914   0.00    0.0    0.00000    0.00000    0.00000   0.00000  0.00000  0.00000  0.00000  0.00000  0.00000
2268 259624.000   4403265.9151    668280.5698   4550734.5789   5   6  56.9447  31.1222  41.2361 -33.4251 -26.0651  41.2915   0.00    0.0    0.00000    0.00000    0.00000   0.00000  0.00000  0.00000  0.00000  0.00000  0.00000
2268 259625.000   4403265.6335    668280.5099   4550734.4957   5   6  56.9406  31.1191  41.2389 -33.4191 -26.0626  41.2915   0.00    0.0    0.00000    0.00000    0.00000   0.00000  0.00000  0.00000  0.00000  0.00000  0.00000
2268 259626.000   4403265.2790    668280.6734   4550734.1470   5   6  56.9365  31.1159  41.2418 -33.4132 -26.0601  41.2916   0.00    0.0    0.00000    0.00000    0.00000   0.00000  0.00000  0.00000  0.00000  0.00000  0.00000
2268 259627.000   4403265.3269    668280.7268   4550734.1491   5   6  56.9324  31.1128  41.2447 -33.4073 -26.0576  41.2916   0.00    0.0    0.00000    0.00000    0.00000   0.00000  0.00000  0.00000  0.00000  0.00000  0.00000
2268 259628.000   4403265.1705    668280.7098   4550734.0568   5   6  56.9283  31.1097  41.2476 -33.4013 -26.0550  41.2917   0.00    0.0    0.00000    0.00000    0.00000   0.00000  0.00000  0.00000  0.00000  0.00000  0.00000
2268 259629.000   4403265.1505    668280.6797   4550734.1085   5   6  56.9243  31.1065  41.2505 -33.3954 -26.0525  41.2917   0.00    0.0    0.00000    0.00000    0.00000   0.00000  0.00000  0.00000  0.00000  0.00000  0.00000
2268 259630.000   4403265.0880    668280.6985   4550734.0878   5   6  56.9202  31.1034  41.2533 -33.3894 -26.0500  41.2918   0.00    0.0    0.00000    0.00000    0.00000   0.00000  0.00000  0.00000  0.00000  0.00000  0.00000
2268 259631.000   4403265.1149    668280.7519   4550734.1943   5   6  56.9161  31.1003  41.2562 -33.3835 -26.0475  41.2918   0.00    0.0    0.00000    0.00000    0.00000   0.00000  0.00000  0.00000  0.00000  0.00000  0.00000
2268 259632.000   4403265.2446    668280.7060   4550734.2107   5   6  56.9120  31.0971  41.2591 -33.3776 -26.0449  41.2919   0.00    0.0    0.00000    0.00000    0.00000   0.00000  0.00000  0.00000  0.00000  0.00000  0.00000
2268 259633.000   4403265.1233    668280.7381   4550734.2445   5   6  56.9080  31.0940  41.2620 -33.3716 -26.0424  41.2919   0.00    0.0    0.00000    0.00000    0.00000   0.00000  0.00000  0.00000  0.00000  0.00000  0.00000
2268 259634.000   4403265.1986    668280.7104   4550734.1602   5   6  56.9039  31.0909  41.2648 -33.3657 -26.0399  41.2920   0.00    0.0    0.00000    0.00000    0.00000   0.00000  0.00000  0.00000  0.00000  0.00000  0.00000
2268 259635.000   4403265.0448    668280.8658   4550734.1084   5   6  56.8998  31.0877  41.2677 -33.3597 -26.0373  41.2920   0.00    0.0    0.00000    0.00000    0.00000   0.00000  0.00000  0.00000  0.00000  0.00000  0.00000
2268 259636.000   4403265.1210    668280.8762   4550734.1775   5   6  56.8957  31.0846  41.2706 -33.3538 -26.0348  41.2921   0.00    0.0    0.00000    0.00000    0.00000   0.00000  0.00000  0.00000  0.00000  0.00000  0.00000
2268 259637.000   4403265.2382    668280.6884   4550734.2809   5   6  56.8917  31.0815  41.2735 -33.3478 -26.0323  41.2921   0.00    0.0    0.00000    0.00000    0.00000   0.00000  0.00000  0.00000  0.00000  0.00000  0.00000
2268 259638.000   4403265.2640    668280.5991   4550734.3268   5   6  56.8876  31.0783  41.2763 -33.3419 -26.0297  41.2922   0.00    0.0    0.00000    0.00000    0.00000   0.00000  0.00000  0.00000  0.00000  0.00000  0.00000
2268 259639.000   4403265.2495    668280.5933   4550734.3985   5   6  56.8835  31.0752  41.2792 -33.3359 -26.0272  41.2922   0.00    0.0    0.00000    0.00000    0.00000   0.00000  0.00000  0.00000  0.00000  0.00000  0.00000
2268 259640.000   4403264.9832    668280.7336   4550734.2522   5   6  56.8794  31.0721  41.2821 -33.3300 -26.0246  41.2923   0.00    0.0    0.00000    0.00000    0.00000   0.00000  0.00000  0.00000  0.00000  0.00000  0.00000
2268 259641.000   4403265.3660    668280.5751   4550734.4724   5   6  56.8754  31.0689  41.2849 -33.3240 -26.0221  41.2923   0.00    0.0    0.00000    0.00000    0.00000   0.00000  0.00000  0.00000  0.00000  0.00000  0.00000
2268 259642.000   4403265.3298    668280.6512   4550734.4990   5   6  56.8713  31.0658  41.2878 -33.3181 -26.0196  41.2924   0.00    0.0    0.00000    0.00000    0.00000   0.00000  0.00000  0.00000  0.00000  0.00000  0.00000
2268 259643.000   4403265.1542    668280.6443   4550734.3288   5   6  56.8672  31.0627  41.2907 -33.3121 -26.0170  41.2924   0.00    0.0    0.00000    0.00000    0.00000   0.00000  0.00000  0.00000  0.00000  0.00000  0.00000
2268 259644.000   4403265.2315    668280.7330   4550734.2723   5   6  56.8631  31.0595  41.2936 -33.3062 -26.0145  41.2925   0.00    0.0    0.00000    0.00000    0.00000   0.00000  0.00000  0.00000  0.00000  0.00000  0.00000
2268 259645.000   4403265.5219    668280.6974   4550734.3176   5   6  56.8591  31.0564  41.2964 -33.3002 -26.0119  41.2925   0.00    0.0    0.00000    0.00000    0.00000   0.00000  0.00000  0.00000  0.00000  0.00000  0.00000
2268 259646.000   4403265.3337    668280.6526   4550734.2143   5   6  56.8550  31.0533  41.2993 -33.2943 -26.0094  41.2926   0.00    0.0    0.00000    0.00000    0.00000   0.00000  0.00000  0.00000  0.00000  0.00000  0.00000
2268 259647.000   4403265.2520    668280.6880   4550734.1924   5   6  56.8509  31.0501  41.3022 -33.2883 -26.0068  41.2926   0.00    0.0    0.00000    0.00000    0.00000   0.00000  0.00000  0.00000  0.00000  0.00000  0.00000
2268 259648.000   4403265.3482    668280.5750   4550734.2153   5   6  56.8469  31.0470  41.3050 -33.2824 -26.0043  41.2926   0.00    0.0    0.00000    0.00000    0.00000   0.00000  0.00000  0.00000  0.00000  0.00000  0.00000
2268 259649.000   4403265.3295    668280.7104   4550734.1869   5   6  56.8428  31.0439  41.3079 -33.2764 -26.0017  41.2927   0.00    0.0    0.00000    0.00000    0.00000   0.00000  0.00000  0.00000  0.00000  0.00000  0.00000
2268 259650.000   4403265.4172    668280.7418   4550734.1923   5   6  56.8387  31.0408  41.3108 -33.2704 -25.9991  41.2927   0.00    0.0    0.00000    0.00000    0.00000   0.00000  0.00000  0.00000  0.00000  0.00000  0.00000
2268 259651.000   4403265.2197    668280.7601   4550734.1265   5   6  56.8346  31.0376  41.3136 -33.2645 -25.9966  41.2928   0.00    0.0    0.00000    0.00000    0.00000   0.00000  0.00000  0.00000  0.00000  0.00000  0.00000
2268 259652.000   4403265.4678    668280.6726   4550734.1580   5   6  56.8306  31.0345  41.3165 -33.2585 -25.9940  41.2928   0.00    0.0    0.00000    0.00000    0.00000   0.00000  0.00000  0.00000  0.00000  0.00000  0.00000
2268 259653.000   4403265.5331    668280.6432   4550734.3658   5   6  56.8265  31.0314  41.3194 -33.2526 -25.9915  41.2929   0.00    0.0    0.00000    0.00000    0.00000   0.00000  0.00000  0.00000  0.00000  0.00000  0.00000
2268 259654.000   4403265.4082    668280.6548   4550734.4223   5   6  56.8224  31.0282  41.3223 -33.2466 -25.9889  41.2929   0.00    0.0    0.00000    0.00000    0.00000   0.00000  0.00000  0.00000  0.00000  0.00000  0.00000
2268 259655.000   4403265.1837    668280.7329   4550734.2474   5   6  56.8184  31.0251  41.3251 -33.2406 -25.9863  41.2929   0.00    0.0    0.00000    0.00000    0.00000   0.00000  0.00000  0.00000  0.00000  0.00000  0.00000
2268 259656.000   4403265.0801    668280.7831   4550734.2537   5   6  56.8143  31.0220  41.3280 -33.2347 -25.9838  41.2930   0.00    0.0    0.00000    0.00000    0.00000   0.00000  0.00000  0.00000  0.00000  0.00000  0.00000
2268 259657.000   4403265.0580    668280.6942   4550734.2765   5   6  56.8102  31.0189  41.3309 -33.2287 -25.9812  41.2930   0.00    0.0    0.00000    0.00000    0.00000   0.00000  0.00000  0.00000  0.00000  0.00000  0.00000
2268 259658.000   4403265.3374    668280.5166   4550734.2644   5   6  56.8062  31.0157  41.3337 -33.2228 -25.9786  41.2931   0.00    0.0    0.00000    0.00000    0.00000   0.00000  0.00000  0.00000  0.00000  0.00000  0.00000
2268 259659.000   4403265.2998    668280.4364   4550734.1996   5   6  56.8021  31.0126  41.3366 -33.2168 -25.9760  41.2931   0.00    0.0    0.00000    0.00000    0.00000   0.00000  0.00000  0.00000  0.00000  0.00000  0.00000
2268 259660.000   4403265.5158    668280.3774   4550734.3616   5   6  56.7980  31.0095  41.3394 -33.2108 -25.9735  41.2931   0.00    0.0    0.00000    0.00000    0.00000   0.00000  0.00000  0.00000  0.00000  0.00000  0.00000
2268 259661.000   4403265.4580    668280.4485   4550734.4366   5   6  56.7940  31.0064  41.3423 -33.2049 -25.9709  41.2932   0.00    0.0    0.00000    0.00000    0.00000   0.00000  0.00000  0.00000  0.00000  0.00000  0.00000
2268 259662.000   4403265.3472    668280.5460   4550734.4154   5   6  56.7899  31.0032  41.3452 -33.1989 -25.9683  41.2932   0.00    0.0    0.00000    0.00000    0.00000   0.00000  0.00000  0.00000  0.00000  0.00000  0.00000
2268 259663.000   4403265.3425    668280.6590   4550734.3581   5   6  56.7859  31.0001  41.3480 -33.1929 -25.9657  41.2932   0.00    0.0    0.00000    0.00000    0.00000   0.00000  0.00000  0.00000  0.00000  0.00000  0.00000
2268 259664.000   4403265.1070    668280.8355   4550734.1268   5   6  56.7818  30.9970  41.3509 -33.1870 -25.9632  41.2933   0.00    0.0    0.00000    0.00000    0.00000   0.00000  0.00000  0.00000  0.00000  0.00000  0.00000
2268 259665.000   4403265.1505    668280.7849   4550734.2251   5   6  56.7777  30.9939  41.3538 -33.1810 -25.9606  41.2933   0.00    0.0    0.00000    0.00000    0.00000   0.00000  0.00000  0.00000  0.00000  0.00000  0.00000
2268 259666.000   4403265.0786    668280.6847   4550734.1350   5   6  56.7737  30.9907  41.3566 -33.1750 -25.9580  41.2933   0.00    0.0    0.00000    0.00000    0.00000   0.00000  0.00000  0.00000  0.00000  0.00000  0.00000
2268 259667.000   4403264.8770    668280.7621   4550733.9615   5   6  56.7696  30.9876  41.3595 -33.1691 -25.9554  41.2934   0.00    0.0    0.00000    0.00000    0.00000   0.00000  0.00000  0.00000  0.00000  0.00000  0.00000
2268 259668.000   4403264.8968    668280.9231   4550733.9043   5   6  56.7656  30.9845  41.3624 -33.1631 -25.9528  41.2934   0.00    0.0    0.00000    0.00000    0.00000   0.00000  0.00000  0.00000  0.00000  0.00000  0.00000
2268 259669.000   4403265.0162    668280.8061   4550734.0891   5   6  56.7615  30.9814  41.3652 -33.1571 -25.9502  41.2934   0.00    0.0    0.00000    0.00000    0.00000   0.00000  0.00000  0.00000  0.00000  0.00000  0.00000
2268 259670.000   4403265.0531    668280.8165   4550734.1431   5   6  56.7574  30.9782  41.3681 -33.1511 -25.9476  41.2935   0.00    0.0    0.00000    0.00000    0.00000   0.00000  0.00000  0.00000  0.00000  0.00000  0.00000
2268 259671.000   4403265.2349    668280.8084   4550734.2333   5   6  56.7534  30.9751  41.3709 -33.1452 -25.9450  41.2935   0.00    0.0    0.00000    0.00000    0.00000   0.00000  0.00000  0.00000  0.00000  0.00000  0.00000
2268 259672.000   4403265.2580    668280.8586   4550734.2480   5   6  56.7493  30.9720  41.3738 -33.1392 -25.9425  41.2935   0.00    0.0    0.00000    0.00000    0.00000   0.00000  0.00000  0.00000  0.00000  0.00000  0.00000
2268 259673.000   4403265.1709    668280.8889   4550734.2523   5   6  56.7453  30.9689  41.3767 -33.1332 -25.9399  41.2936   0.00    0.0    0.00000    0.00000    0.00000   0.00000  0.00000  0.00000  0.00000  0.00000  0.00000
2268 259674.000   4403265.3257    668280.7318   4550734.2006   5   6  56.7412  30.9657  41.3795 -33.1272 -25.9373  41.2936   0.00    0.0    0.00000    0.00000    0.00000   0.00000  0.00000  0.00000  0.00000  0.00000  0.00000
2268 259675.000   4403265.2785    668280.7981   4550734.1397   5   6  56.7371  30.9626  41.3824 -33.1213 -25.9347  41.2936   0.00    0.0    0.00000    0.00000    0.00000   0.00000  0.00000  0.00000  0.00000  0.00000  0.00000
2268 259676.000   4403265.1520    668280.7903   4550734.1611   5   6  56.7331  30.9595  41.3852 -33.1153 -25.9321  41.2937   0.00    0.0    0.00000    0.00000    0.00000   0.00000  0.00000  0.00000  0.00000  0.00000  0.00000
2268 259677.000   4403265.3705    668280.7693   4550734.2549   5   6  56.7290  30.9564  41.3881 -33.1093 -25.9295  41.2937   0.00    0.0    0.00000    0.00000    0.00000   0.00000  0.00000  0.00000  0.00000  0.00000  0.00000
2268 259678.000   4403265.5355    668280.6942   4550734.5253   5   6  56.7250  30.9533  41.3910 -33.1033 -25.9269  41.2937   0.00    0.0    0.00000    0.00000    0.00000   0.00000  0.00000  0.00000  0.00000  0.00000  0.00000
2268 259679.000   4403265.5059    668280.6569   4550734.5978   5   6  56.7209  30.9501  41.3938 -33.0973 -25.9242  41.2938   0.00    0.0    0.00000    0.00000    0.00000   0.00000  0.00000  0.00000  0.00000  0.00000  0.00000
2268 259680.000   4403265.6548    668280.6959   4550734.7751   5   6  56.7169  30.9470  41.3967 -33.0914 -25.9216  41.2938   0.00    0.0    0.00000    0.00000    0.00000   0.00000  0.00000  0.00000  0.00000  0.00000  0.00000
2268 259681.000   4403265.7034    668280.6249   4550734.7618   5   6  56.7128  30.9439  41.3995 -33.0854 -25.9190  41.2938   0.00    0.0    0.00000    0.00000    0.00000   0.00000  0.00000  0.00000  0.00000  0.00000  0.00000
2268 259682.000   4403265.7831    668280.4971   4550734.7647   5   6  56.7087  30.9408  41.4024 -33.0794 -25.9164  41.2938   0.00    0.0    0.00000    0.00000    0.00000   0.00000  0.00000  0.00000  0.00000  0.00000  0.00000
2268 259683.000   4403265.6133    668280.6759   4550734.5268   5   6  56.7047  30.9377  41.4052 -33.0734 -25.9138  41.2939   0.00    0.0    0.00000    0.00000    0.00000   0.00000  0.00000  0.00000  0.00000  0.00000  0.00000
2268 259684.000   4403265.6087    668280.5805   4550734.6408   5   6  56.7006  30.9345  41.4081 -33.0674 -25.9112  41.2939   0.00    0.0    0.00000    0.00000    0.00000   0.00000  0.00000  0.00000  0.00000  0.00000  0.00000
2268 259685.000   4403265.6416    668280.5996   4550734.6022   5   6  56.6966  30.9314  41.4109 -33.0615 -25.9086  41.2939   0.00    0.0    0.00000    0.00000    0.00000   0.00000  0.00000  0.00000  0.00000  0.00000  0.00000
2268 259686.000   4403265.5358    668280.7143   4550734.5386   5   6  56.6925  30.9283  41.4138 -33.0555 -25.9060  41.2939   0.00    0.0    0.00000    0.00000    0.00000   0.00000  0.00000  0.00000  0.00000  0.00000  0.00000
2268 259687.000   4403265.5051    668280.6972   4550734.5272   5   6  56.6885  30.9252  41.4167 -33.0495 -25.9033  41.2940   0.00    0.0    0.00000    0.00000    0.00000   0.00000  0.00000  0.00000  0.00000  0.00000  0.00000
2268 259688.000   4403265.8886    668280.5947   4550734.6204   5   6  56.6844  30.9221  41.4195 -33.0435 -25.9007  41.2940   0.00    0.0    0.00000    0.00000    0.00000   0.00000  0.00000  0.00000  0.00000  0.00000  0.00000
2268 259689.000   4403265.5573    668280.7694   4550734.3547   5   6  56.6804  30.9190  41.4224 -33.0375 -25.8981  41.2940   0.00    0.0    0.00000    0.00000    0.00000   0.00000  0.00000  0.00000  0.00000  0.00000  0.00000
2268 259690.000   4403265.7056    668280.6146   4550734.5090   5   6  56.6763  30.9158  41.4252 -33.0315 -25.8955  41.2940   0.00    0.0    0.00000    0.00000    0.00000   0.00000  0.00000  0.00000  0.00000  0.00000  0.00000
2268 259691.000   4403265.4674    668280.5835   4550734.3351   5   6  56.6723  30.9127  41.4281 -33.0255 -25.8929  41.2941   0.00    0.0    0.00000    0.00000    0.00000   0.00000  0.00000  0.00000  0.00000  0.00000  0.00000
2268 259692.000   4403265.3363    668280.5941   4550734.3203   5   6  56.6682  30.9096  41.4309 -33.0195 -25.8902  41.2941   0.00    0.0    0.00000    0.00000    0.00000   0.00000  0.00000  0.00000  0.00000  0.00000  0.00000
2268 259693.000   4403265.0762    668280.6614   4550734.1918   5   6  56.6642  30.9065  41.4338 -33.0136 -25.8876  41.2941   0.00    0.0    0.00000    0.00000    0.00000   0.00000  0.00000  0.00000  0.00000  0.00000  0.00000
2268 259694.000   4403265.1210    668280.5712   4550734.1800   5   6  56.6601  30.9034  41.4366 -33.0076 -25.8850  41.2941   0.00    0.0    0.00000    0.00000    0.00000   0.00000  0.00000  0.00000  0.00000  0.00000  0.00000
2268 259695.000   4403265.2112    668280.5935   4550734.2922   5   6  56.6561  30.9003  41.4395 -33.0016 -25.8823  41.2942   0.00    0.0    0.00000    0.00000    0.00000   0.00000  0.00000  0.00000  0.00000  0.00000  0.00000
2268 259696.000   4403265.0045    668280.8454   4550734.1530   5   6  56.6520  30.8971  41.4423 -32.9956 -25.8797  41.2942   0.00    0.0    0.00000    0.00000    0.00000   0.00000  0.00000  0.00000  0.00000  0.00000  0.00000
2268 259697.000   4403265.0803    668280.7891   4550734.1651   5   6  56.6480  30.8940  41.4452 -32.9896 -25.8771  41.2942   0.00    0.0    0.00000    0.00000    0.00000   0.00000  0.00000  0.00000  0.00000  0.00000  0.00000
2268 259698.000   4403265.0820    668280.7715   4550734.2466   5   6  56.6439  30.8909  41.4480 -32.9836 -25.8744  41.2942   0.00    0.0    0.00000    0.00000    0.00000   0.00000  0.00000  0.00000  0.00000  0.00000  0.00000
2268 259699.000   4403265.1390    668280.7639   4550734.2368   5   6  56.6399  30.8878  41.4509 -32.9776 -25.8718  41.2942   0.00    0.0    0.00000    0.00000    0.00000   0.00000  0.00000  0.00000  0.00000  0.00000  0.00000
2268 259700.000   4403265.1144    668280.8565   4550734.1904   5   6  56.6359  30.8847  41.4537 -32.9716 -25.8692  41.2943   0.00    0.0    0.00000    0.00000    0.00000   0.00000  0.00000  0.00000  0.00000  0.00000  0.00000
2268 259701.000   4403265.3928    668280.7242   4550734.2977   5   6  56.6318  30.8816  41.4566 -32.9656 -25.8665  41.2943   0.00    0.0    0.00000    0.00000    0.00000   0.00000  0.00000  0.00000  0.00000  0.00000  0.00000
2268 259702.000   4403265.4297    668280.6785   4550734.5255   5   6  56.6278  30.8785  41.4594 -32.9596 -25.8639  41.2943   0.00    0.0    0.00000    0.00000    0.00000   0.00000  0.00000  0.00000  0.00000  0.00000  0.00000
2268 259703.000   4403265.4029    668280.7132   4550734.5411   5   6  56.6237  30.8753  41.4623 -32.9536 -25.8612  41.2943   0.00    0.0    0.00000    0.00000    0.00000   0.00000  0.00000  0.00000  0.00000  0.00000  0.00000
2268 259704.000   4403265.3191    668280.7778   4550734.5315   5   6  56.6197  30.8722  41.4651 -32.9476 -25.8586  41.2943   0.00    0.0    0.00000    0.00000    0.00000   0.00000  0.00000  0.00000  0.00000  0.00000  0.00000
2268 259705.000   4403265.4199    668280.6345   4550734.5664   5   6  56.6156  30.8691  41.4680 -32.9416 -25.8559  41.2943   0.00    0.0    0.00000    0.00000    0.00000   0.00000  0.00000  0.00000  0.00000  0.00000  0.00000
2268 259706.000   4403265.4609    668280.7013   4550734.6185   5   6  56.6116  30.8660  41.4708 -32.9356 -25.8533  41.2944   0.00    0.0    0.00000    0.00000    0.00000   0.00000  0.00000  0.00000  0.00000  0.00000  0.00000
2268 259707.000   4403265.4998    668280.8284   4550734.5192   5   6  56.6075  30.8629  41.4737 -32.9296 -25.8506  41.2944   0.00    0.0    0.00000    0.00000    0.00000   0.00000  0.00000  0.00000  0.00000  0.00000  0.00000
2268 259708.000   4403265.4317    668280.8798   4550734.4550   5   6  56.6035  30.8598  41.4765 -32.9236 -25.8480  41.2944   0.00    0.0    0.00000    0.00000    0.00000   0.00000  0.00000  0.00000  0.00000  0.00000  0.00000
2268 259709.000   4403265.5357    668280.7292   4550734.5812   5   6  56.5995  30.8567  41.4794 -32.9176 -25.8453  41.2944   0.00    0.0    0.00000    0.00000    0.00000   0.00000  0.00000  0.00000  0.00000  0.00000  0.00000
2268 259710.000   4403265.6090    668280.8238   4550734.5915   5   6  56.5954  30.8536  41.4822 -32.9116 -25.8427  41.2944   0.00    0.0    0.00000    0.00000    0.00000   0.00000  0.00000  0.00000  0.00000  0.00000  0.00000
2268 259711.000   4403265.7345    668280.7072   4550734.6431   5   6  56.5914  30.8505  41.4850 -32.9056 -25.8400  41.2944   0.00    0.0    0.00000    0.00000    0.00000   0.00000  0.00000  0.00000  0.00000  0.00000  0.00000
2268 259712.000   4403265.7694    668280.5990   4550734.6795   5   6  56.5873  30.8473  41.4879 -32.8996 -25.8373  41.2944   0.00    0.0    0.00000    0.00000    0.00000   0.00000  0.00000  0.00000  0.00000  0.00000  0.00000
2268 259713.000   4403265.5623    668280.7352   4550734.5515   5   6  56.5833  30.8442  41.4907 -32.8936 -25.8347  41.2945   0.00    0.0    0.00000    0.00000    0.00000   0.00000  0.00000  0.00000  0.00000  0.00000  0.00000
2268 259714.000   4403265.6365    668280.6321   4550734.5646   5   6  56.5793  30.8411  41.4936 -32.8876 -25.8320  41.2945   0.00    0.0    0.00000    0.00000    0.00000   0.00000  0.00000  0.00000  0.00000  0.00000  0.00000
2268 259715.000   4403265.4814    668280.5828   4550734.5668   5   6  56.5752  30.8380  41.4964 -32.8816 -25.8294  41.2945   0.00    0.0    0.00000    0.00000    0.00000   0.00000  0.00000  0.00000  0.00000  0.00000  0.00000
2268 259716.000   4403265.4804    668280.5955   4550734.5746   5   6  56.5712  30.8349  41.4993 -32.8756 -25.8267  41.2945   0.00    0.0    0.00000    0.00000    0.00000   0.00000  0.00000  0.00000  0.00000  0.00000  0.00000
2268 259717.000   4403265.5356    668280.5474   4550734.7046   5   6  56.5672  30.8318  41.5021 -32.8695 -25.8240  41.2945   0.00    0.0    0.00000    0.00000    0.00000   0.00000  0.00000  0.00000  0.00000  0.00000  0.00000
2268 259718.000   4403265.5325    668280.6940   4550734.6896   5   6  56.5631  30.8287  41.5049 -32.8635 -25.8213  41.2945   0.00    0.0    0.00000    0.00000    0.00000   0.00000  0.00000  0.00000  0.00000  0.00000  0.00000
2268 259719.000   4403265.7570    668280.6768   4550734.8052   5   6  56.5591  30.8256  41.5078 -32.8575 -25.8187  41.2945   0.00    0.0    0.00000    0.00000    0.00000   0.00000  0.00000  0.00000  0.00000  0.00000  0.00000
2268 259720.000   4403265.9273    668280.6450   4550734.9570   5   6  56.5550  30.8225  41.5106 -32.8515 -25.8160  41.2945   0.00    0.0    0.00000    0.00000    0.00000   0.00000  0.00000  0.00000  0.00000  0.00000  0.00000
2268 259721.000   4403265.6698    668280.6854   4550734.8169   5   6  56.5510  30.8194  41.5135 -32.8455 -25.8133  41.2945   0.00    0.0    0.00000    0.00000    0.00000   0.00000  0.00000  0.00000  0.00000  0.00000  0.00000
2268 259722.000   4403265.7379    668280.7204   4550734.7258   5   6  56.5470  30.8163  41.5163 -32.8395 -25.8107  41.2945   0.00    0.0    0.00000    0.00000    0.00000   0.00000  0.00000  0.00000  0.00000  0.00000  0.00000
2268 259723.000   4403265.5551    668280.8181   4550734.6572   5   6  56.5429  30.8132  41.5191 -32.8335 -25.8080  41.2946   0.00    0.0    0.00000    0.00000    0.00000   0.00000  0.00000  0.00000  0.00000  0.00000  0.00000
2268 259724.000   4403265.3685    668280.8807   4550734.7102   5   6  56.5389  30.8100  41.5220 -32.8275 -25.8053  41.2946   0.00    0.0    0.00000    0.00000    0.00000   0.00000  0.00000  0.00000  0.00000  0.00000  0.00000
2268 259725.000   4403265.2071    668280.9931   4550734.5558   5   6  56.5349  30.8069  41.5248 -32.8214 -25.8026  41.2946   0.00    0.0    0.00000    0.00000    0.00000   0.00000  0.00000  0.00000  0.00000  0.00000  0.00000
2268 259726.000   4403265.3488    668280.9386   4550734.5532   5   6  56.5308  30.8038  41.5277 -32.8154 -25.7999  41.2946   0.00    0.0    0.00000    0.00000    0.00000   0.00000  0.00000  0.00000  0.00000  0.00000  0.00000
2268 259727.000   4403265.2298    668280.8770   4550734.5214   5   6  56.5268  30.8007  41.5305 -32.8094 -25.7972  41.2946   0.00    0.0    0.00000    0.00000    0.00000   0.00000  0.00000  0.00000  0.00000  0.00000  0.00000
2268 259728.000   4403265.3321    668280.8891   4550734.4554   5   6  56.5228  30.7976  41.5333 -32.8034 -25.7946  41.2946   0.00    0.0    0.00000    0.00000    0.00000   0.00000  0.00000  0.00000  0.00000  0.00000  0.00000
2268 259729.000   4403265.2976    668280.8199   4550734.3864   5   6  56.5187  30.7945  41.5362 -32.7974 -25.7919  41.2946   0.00    0.0    0.00000    0.00000    0.00000   0.00000  0.00000  0.00000  0.00000  0.00000  0.00000
2268 259730.000   4403265.4495    668280.7441   4550734.5240   5   6  56.5147  30.7914  41.5390 -32.7914 -25.7892  41.2946   0.00    0.0    0.00000    0.00000    0.00000   0.00000  0.00000  0.00000  0.00000  0.00000  0.00000
2268 259731.000   4403265.2706    668280.7996   4550734.4329   5   6  56.5107  30.7883  41.5419 -32.7853 -25.7865  41.2946   0.00    0.0    0.00000    0.00000    0.00000   0.00000  0.00000  0.00000  0.00000  0.00000  0.00000
2268 259732.000   4403265.4777    668280.7307   4550734.5181   5   6  56.5066  30.7852  41.5447 -32.7793 -25.7838  41.2946   0.00    0.0    0.00000    0.00000    0.00000   0.00000  0.00000  0.00000  0.00000  0.00000  0.00000
2268 259733.000   4403265.5649    668280.5562   4550734.6219   5   6  56.5026  30.7821  41.5475 -32.7733 -25.7811  41.2946   0.00    0.0    0.00000    0.00000    0.00000   0.00000  0.00000  0.00000  0.00000  0.00000  0.00000
2268 259734.000   4403265.6960    668280.5800   4550734.7027   5   6  56.4986  30.7790  41.5504 -32.7673 -25.7784  41.2946   0.00    0.0    0.00000    0.00000    0.00000   0.00000  0.00000  0.00000  0.00000  0.00000  0.00000
2268 259735.000   4403265.4812    668280.6194   4550734.6561   5   6  56.4946  30.7759  41.5532 -32.7612 -25.7757  41.2946   0.00    0.0    0.00000    0.00000    0.00000   0.00000  0.00000  0.00000  0.00000  0.00000  0.00000
2268 259736.000   4403265.4865    668280.7518   4550734.5031   5   6  56.4905  30.7728  41.5560 -32.7552 -25.7730  41.2946   0.00    0.0    0.00000    0.00000    0.00000   0.00000  0.00000  0.00000  0.00000  0.00000  0.00000
2268 259737.000   4403265.5257    668280.7276   4550734.5689   5   6  56.4865  30.7697  41.5589 -32.7492 -25.7703  41.2946   0.00    0.0    0.00000    0.00000    0.00000   0.00000  0.00000  0.00000  0.00000  0.00000  0.00000
2268 259738.000   4403265.3965    668280.8783   4550734.3873   5   6  56.4825  30.7666  41.5617 -32.7432 -25.7676  41.2946   0.00    0.0    0.00000    0.00000    0.00000   0.00000  0.00000  0.00000  0.00000  0.00000  0.00000
2268 259739.000   4403265.2645    668280.9728   4550734.2615   5   6  56.4785  30.7635  41.5645 -32.7371 -25.7649  41.2946   0.00    0.0    0.00000    0.00000    0.00000   0.00000  0.00000  0.00000  0.00000  0.00000  0.00000
2268 259740.000   4403265.4353    668280.8325   4550734.4432   5   6  56.4744  30.7604  41.5674 -32.7311 -25.7622  41.2946   0.00    0.0    0.00000    0.00000    0.00000   0.00000  0.00000  0.00000  0.00000  0.00000  0.00000
2268 259741.000   4403265.1854    668280.9301   4550734.3602   5   6  56.4704  30.7573  41.5702 -32.7251 -25.7595  41.2946   0.00    0.0    0.00000    0.00000    0.00000   0.00000  0.00000  0.00000  0.00000  0.00000  0.00000
2268 259742.000   4403265.3840    668280.7696   4550734.7619   5   6  56.4664  30.7542  41.5730 -32.7191 -25.7568  41.2946   0.00    0.0    0.00000    0.00000    0.00000   0.00000  0.00000  0.00000  0.00000  0.00000  0.00000
2268 259743.000   4403265.7114    668280.6709   4550734.9448   5   6  56.4623  30.7511  41.5759 -32.7130 -25.7541  41.2946   0.00    0.0    0.00000    0.00000    0.00000   0.00000  0.00000  0.00000  0.00000  0.00000  0.00000
2268 259744.000   4403265.7814    668280.7091   4550734.8867   5   6  56.4583  30.7480  41.5787 -32.7070 -25.7513  41.2946   0.00    0.0    0.00000    0.00000    0.00000   0.00000  0.00000  0.00000  0.00000  0.00000  0.00000
2268 259745.000   4403265.5558    668280.7360   4550734.7692   5   6  56.4543  30.7449  41.5815 -32.7010 -25.7486  41.2946   0.00    0.0    0.00000    0.00000    0.00000   0.00000  0.00000  0.00000  0.00000  0.00000  0.00000
2268 259746.000   4403265.6358    668280.6779   4550734.9320   5   6  56.4503  30.7418  41.5844 -32.6949 -25.7459  41.2946   0.00    0.0    0.00000    0.00000    0.00000   0.00000  0.00000  0.00000  0.00000  0.00000  0.00000
2268 259747.000   4403265.5714    668280.7796   4550734.7904   5   6  56.4463  30.7387  41.5872 -32.6889 -25.7432  41.2946   0.00    0.0    0.00000    0.00000    0.00000   0.00000  0.00000  0.00000  0.00000  0.00000  0.00000
2268 259748.000   4403265.8310    668280.6399   4550734.8373   5   6  56.4422  30.7356  41.5900 -32.6829 -25.7405  41.2946   0.00    0.0    0.00000    0.00000    0.00000   0.00000  0.00000  0.00000  0.00000  0.00000  0.00000
2268 259749.000   4403265.7646    668280.6483   4550734.7852   5   6  56.4382  30.7325  41.5928 -32.6768 -25.7377  41.2946   0.00    0.0    0.00000    0.00000    0.00000   0.00000  0.00000  0.00000  0.00000  0.00000  0.00000
2268 259750.000   4403265.6106    668280.7522   4550734.8427   5   6  56.4342  30.7294  41.5957 -32.6708 -25.7350  41.2946   0.00    0.0    0.00000    0.00000    0.00000   0.00000  0.00000  0.00000  0.00000  0.00000  0.00000
2268 259751.000   4403265.4338    668280.8066   4550734.8401   5   6  56.4302  30.7263  41.5985 -32.6648 -25.7323  41.2946   0.00    0.0    0.00000    0.00000    0.00000   0.00000  0.00000  0.00000  0.00000  0.00000  0.00000
2268 259752.000   4403265.7214    668280.6705   4550734.9448   5   6  56.4261  30.7232  41.6013 -32.6587 -25.7296  41.2946   0.00    0.0    0.00000    0.00000    0.00000   0.00000  0.00000  0.00000  0.00000  0.00000  0.00000
2268 259753.000   4403265.5952    668280.8194   4550734.7929   5   6  56.4221  30.7201  41.6042 -32.6527 -25.7268  41.2946   0.00    0.0    0.00000    0.00000    0.00000   0.00000  0.00000  0.00000  0.00000  0.00000  0.00000
2268 259754.000   4403265.8510    668280.6969   4550734.6979   5   6  56.4181  30.7170  41.6070 -32.6466 -25.7241  41.2946   0.00    0.0    0.00000    0.00000    0.00000   0.00000  0.00000  0.00000  0.00000  0.00000  0.00000
2268 259755.000   4403265.7644    668280.7626   4550734.5434   5   6  56.4141  30.7139  41.6098 -32.6406 -25.7214  41.2946   0.00    0.0    0.00000    0.00000    0.00000   0.00000  0.00000  0.00000  0.00000  0.00000  0.00000
2268 259756.000   4403265.8486    668280.7801   4550734.6596   5   6  56.4101  30.7108  41.6126 -32.6346 -25.7186  41.2946   0.00    0.0    0.00000    0.00000    0.00000   0.00000  0.00000  0.00000  0.00000  0.00000  0.00000
2268 259757.000   4403265.6518    668280.8112   4550734.5683   5   6  56.4060  30.7077  41.6155 -32.6285 -25.7159  41.2946   0.00    0.0    0.00000    0.00000    0.00000   0.00000  0.00000  0.00000  0.00000  0.00000  0.00000
2268 259758.000   4403265.9460    668280.7475   4550734.8159   5   6  56.4020  30.7046  41.6183 -32.6225 -25.7132  41.2946   0.00    0.0    0.00000    0.00000    0.00000   0.00000  0.00000  0.00000  0.00000  0.00000  0.00000
2268 259759.000   4403265.6149    668280.8352   4550734.6660   5   6  56.3980  30.7015  41.6211 -32.6164 -25.7104  41.2946   0.00    0.0    0.00000    0.00000    0.00000   0.00000  0.00000  0.00000  0.00000  0.00000  0.00000
2268 259760.000   4403265.5600    668280.8235   4550734.6868   5   6  56.3940  30.6985  41.6239 -32.6104 -25.7077  41.2945   0.00    0.0    0.00000    0.00000    0.00000   0.00000  0.00000  0.00000  0.00000  0.00000  0.00000
2268 259761.000   4403265.5514    668280.7809   4550734.7306   5   6  56.3900  30.6954  41.6268 -32.6043 -25.7050  41.2945   0.00    0.0    0.00000    0.00000    0.00000   0.00000  0.00000  0.00000  0.00000  0.00000  0.00000
2268 259762.000   4403265.6839    668280.7409   4550734.9253   5   6  56.3860  30.6923  41.6296 -32.5983 -25.7022  41.2945   0.00    0.0    0.00000    0.00000    0.00000   0.00000  0.00000  0.00000  0.00000  0.00000  0.00000
2268 259763.000   4403265.5062    668280.6683   4550734.7427   5   6  56.3819  30.6892  41.6324 -32.5923 -25.6995  41.2945   0.00    0.0    0.00000    0.00000    0.00000   0.00000  0.00000  0.00000  0.00000  0.00000  0.00000
2268 259764.000   4403265.6682    668280.6748   4550734.8177   5   6  56.3779  30.6861  41.6352 -32.5862 -25.6967  41.2945   0.00    0.0    0.00000    0.00000    0.00000   0.00000  0.00000  0.00000  0.00000  0.00000  0.00000
2268 259765.000   4403265.7027    668280.7077   4550734.7151   5   6  56.3739  30.6830  41.6381 -32.5802 -25.6940  41.2945   0.00    0.0    0.00000    0.00000    0.00000   0.00000  0.00000  0.00000  0.00000  0.00000  0.00000
2268 259766.000   4403265.5571    668280.8190   4550734.7394   5   6  56.3699  30.6799  41.6409 -32.5741 -25.6912  41.2945   0.00    0.0    0.00000    0.00000    0.00000   0.00000  0.00000  0.00000  0.00000  0.00000  0.00000
2268 259767.000   4403265.4035    668280.8001   4550734.6897   5   6  56.3659  30.6768  41.6437 -32.5681 -25.6885  41.2945   0.00    0.0    0.00000    0.00000    0.00000   0.00000  0.00000  0.00000  0.00000  0.00000  0.00000
2268 259768.000   4403265.3439    668280.8471   4550734.6876   5   6  56.3619  30.6737  41.6465 -32.5620 -25.6857  41.2945   0.00    0.0    0.00000    0.00000    0.00000   0.00000  0.00000  0.00000  0.00000  0.00000  0.00000
2268 259769.000   4403265.5108    668280.7346   4550734.7895   5   6  56.3579  30.6706  41.6493 -32.5560 -25.6830  41.2944   0.00    0.0    0.00000    0.00000    0.00000   0.00000  0.00000  0.00000  0.00000  0.00000  0.00000
2268 259770.000   4403265.6319    668280.6962   4550734.9101   5   6  56.3539  30.6675  41.6522 -32.5499 -25.6802  41.2944   0.00    0.0    0.00000    0.00000    0.00000   0.00000  0.00000  0.00000  0.00000  0.00000  0.00000
2268 259771.000   4403265.7449    668280.6308   4550734.9294   5   6  56.3498  30.6644  41.6550 -32.5439 -25.6774  41.2944   0.00    0.0    0.00000    0.00000    0.00000   0.00000  0.00000  0.00000  0.00000  0.00000  0.00000
2268 259772.000   4403265.6609    668280.6777   4550734.7035   5   6  56.3458  30.6614  41.6578 -32.5378 -25.6747  41.2944   0.00    0.0    0.00000    0.00000    0.00000   0.00000  0.00000  0.00000  0.00000  0.00000  0.00000
2268 259773.000   4403265.6782    668280.6459   4550734.6623   5   6  56.3418  30.6583  41.6606 -32.5317 -25.6719  41.2944   0.00    0.0    0.00000    0.00000    0.00000   0.00000  0.00000  0.00000  0.00000  0.00000  0.00000
2268 259774.000   4403265.6780    668280.7164   4550734.7768   5   6  56.3378  30.6552  41.6634 -32.5257 -25.6691  41.2944   0.00    0.0    0.00000    0.00000    0.00000   0.00000  0.00000  0.00000  0.00000  0.00000  0.00000
