% program   : GINav v0.1.0
% obs start : 2023/06/28 00:00:20.0
% obs end   : 2023/06/28 01:37:29.0
% mode      : SPP
% system    : GPS GALILEO 
% nfreqs    : 2
% elev mask : 10.0 deg
% ephemeris : broadcast
% ionos opt : broadcast model
% trops opt : Saastamoinen model
%
%  GPST              x-ecef(m)      y-ecef(m)      z-ecef(m)   Q  ns   sdx(m)   sdy(m)   sdz(m)  sdxy(m)  sdyz(m)  sdzx(m) age(s)  ratio    vx(m/s)    vy(m/s)    vz(m/s)      sdvx     sdvy     sdvz    sdvxy    sdvyz    sdvzx
2268 259219.996   4402957.9714    666835.8469   4550862.3322   5   9   3.5724   1.7178   4.1605   0.8810   1.6034   2.3303   0.00    0.0    0.02486    0.00159   -0.07245   0.00000  0.00000  0.00000  0.00000  0.00000  0.00000
2268 259220.996   4402958.0178    666835.7633   4550862.2977   5  11   3.2576   1.6767   4.1444   0.4809   1.5936   2.3149   0.00    0.0   -0.03909   -0.04147   -0.12288   0.00000  0.00000  0.00000  0.00000  0.00000  0.00000
2268 259221.996   4402958.1835    666835.6929   4550862.3582   5  11   3.2575   1.6768   4.1454   0.4817   1.5941   2.3156   0.00    0.0   -0.05278   -0.01579   -0.13347   0.00000  0.00000  0.00000  0.00000  0.00000  0.00000
2268 259222.996   4402958.4957    666835.5327   4550861.9080   5  11   3.2575   1.6769   4.1464   0.4825   1.5946   2.3163   0.00    0.0    0.01445   -0.03281   -0.05510   0.00000  0.00000  0.00000  0.00000  0.00000  0.00000
2268 259223.996   4402958.5539    666835.7094   4550862.0903   5  11   3.2575   1.6769   4.1474   0.4833   1.5951   2.3170   0.00    0.0    0.00202   -0.03493   -0.05168   0.00000  0.00000  0.00000  0.00000  0.00000  0.00000
2268 259224.996   4402958.2787    666835.8326   4550862.2585   5  11   3.2575   1.6770   4.1484   0.4841   1.5956   2.3177   0.00    0.0    0.00455   -0.00129   -0.05869   0.00000  0.00000  0.00000  0.00000  0.00000  0.00000
2268 259225.996   4402958.7365    666835.6556   4550862.5420   5  11   3.2575   1.6771   4.1493   0.4849   1.5961   2.3184   0.00    0.0    0.00751   -0.02418    0.00091   0.00000  0.00000  0.00000  0.00000  0.00000  0.00000
2268 259226.996   4402958.2393    666835.7923   4550862.3587   5  11   3.2575   1.6772   4.1503   0.4858   1.5965   2.3191   0.00    0.0    0.01178   -0.02301   -0.03820   0.00000  0.00000  0.00000  0.00000  0.00000  0.00000
2268 259227.996   4402958.2081    666835.8701   4550862.6379   5  12   3.2553   1.6768   4.1483   0.4910   1.5952   2.3238   0.00    0.0    0.01691   -0.02165   -0.07559   0.00000  0.00000  0.00000  0.00000  0.00000  0.00000
2268 259228.996   4402958.1036    666836.1179   4550862.7609   5  12   3.2553   1.6769   4.1493   0.4919   1.5957   2.3244   0.00    0.0   -0.00660    0.00626   -0.11779   0.00000  0.00000  0.00000  0.00000  0.00000  0.00000
2268 259229.996   4402958.0430    666836.0177   4550862.7080   5  12   3.2553   1.6770   4.1503   0.4927   1.5962   2.3251   0.00    0.0    0.04226   -0.03446   -0.01956   0.00000  0.00000  0.00000  0.00000  0.00000  0.00000
2268 259230.996   4402957.7831    666836.1612   4550862.8654   5  12   3.2553   1.6771   4.1513   0.4935   1.5967   2.3258   0.00    0.0   -0.03290   -0.01542   -0.07663   0.00000  0.00000  0.00000  0.00000  0.00000  0.00000
2268 259231.996   4402957.8221    666836.0377   4550862.7310   5  12   3.2553   1.6771   4.1523   0.4943   1.5972   2.3265   0.00    0.0    0.01566   -0.03665    0.00330   0.00000  0.00000  0.00000  0.00000  0.00000  0.00000
2268 259232.996   4402957.9807    666835.9499   4550862.4978   5  12   3.2553   1.6772   4.1533   0.4951   1.5977   2.3272   0.00    0.0   -0.00566   -0.02033   -0.06965   0.00000  0.00000  0.00000  0.00000  0.00000  0.00000
2268 259233.996   4402957.8650    666835.8684   4550862.2488   5  12   3.2553   1.6773   4.1543   0.4959   1.5982   2.3279   0.00    0.0   -0.05154   -0.03557   -0.08297   0.00000  0.00000  0.00000  0.00000  0.00000  0.00000
2268 259234.996   4402957.9106    666835.8179   4550862.5835   5  12   3.2553   1.6774   4.1553   0.4967   1.5987   2.3286   0.00    0.0   -0.01413   -0.03502   -0.08663   0.00000  0.00000  0.00000  0.00000  0.00000  0.00000
2268 259235.996   4402957.9088    666835.7733   4550862.3383   5  12   3.2553   1.6774   4.1563   0.4975   1.5992   2.3293   0.00    0.0   -0.01512   -0.01953   -0.08136   0.00000  0.00000  0.00000  0.00000  0.00000  0.00000
2268 259236.996   4402958.0016    666835.7454   4550862.1334   5  12   3.2552   1.6775   4.1573   0.4984   1.5997   2.3299   0.00    0.0    0.00798   -0.01107   -0.04511   0.00000  0.00000  0.00000  0.00000  0.00000  0.00000
2268 259237.996   4402957.9412    666835.6631   4550862.1794   5  13   3.2510   1.6772   4.1499   0.5047   1.6029   2.3212   0.00    0.0    0.00072   -0.00804   -0.02923   0.00000  0.00000  0.00000  0.00000  0.00000  0.00000
2268 259238.996   4402957.9336    666835.7417   4550862.0995   5  13   3.2510   1.6773   4.1509   0.5055   1.6034   2.3219   0.00    0.0   -0.04734   -0.01311   -0.05193   0.00000  0.00000  0.00000  0.00000  0.00000  0.00000
2268 259239.996   4402957.8640    666835.8349   4550862.2915   5  13   3.2509   1.6774   4.1519   0.5064   1.6039   2.3226   0.00    0.0    0.05191   -0.03428    0.00948   0.00000  0.00000  0.00000  0.00000  0.00000  0.00000
2268 259240.996   4402957.8570    666835.7974   4550862.1074   5  13   3.2509   1.6775   4.1530   0.5072   1.6044   2.3233   0.00    0.0    0.02316   -0.02568   -0.03007   0.00000  0.00000  0.00000  0.00000  0.00000  0.00000
2268 259241.996   4402958.0929    666835.8900   4550862.4610   5  13   3.2509   1.6775   4.1540   0.5080   1.6049   2.3240   0.00    0.0    0.02263    0.00550   -0.02078   0.00000  0.00000  0.00000  0.00000  0.00000  0.00000
2268 259242.996   4402957.8757    666835.8414   4550862.0402   5  13   3.2509   1.6776   4.1551   0.5089   1.6055   2.3247   0.00    0.0   -0.03640   -0.01500   -0.03566   0.00000  0.00000  0.00000  0.00000  0.00000  0.00000
2268 259243.996   4402957.9407    666835.7191   4550861.8096   5  13   3.2509   1.6777   4.1561   0.5097   1.6060   2.3253   0.00    0.0    0.01950   -0.03181   -0.04845   0.00000  0.00000  0.00000  0.00000  0.00000  0.00000
2268 259244.996   4402957.5234    666835.7495   4550861.5972   5  13   3.2508   1.6778   4.1571   0.5105   1.6065   2.3260   0.00    0.0    0.02783   -0.02206   -0.07493   0.00000  0.00000  0.00000  0.00000  0.00000  0.00000
2268 259245.996   4402957.3542    666835.7268   4550861.5737   5  13   3.2508   1.6778   4.1582   0.5113   1.6070   2.3267   0.00    0.0   -0.02581   -0.05178   -0.08564   0.00000  0.00000  0.00000  0.00000  0.00000  0.00000
2268 259246.996   4402957.3807    666835.8454   4550861.7847   5  13   3.2508   1.6779   4.1592   0.5122   1.6075   2.3274   0.00    0.0   -0.05930   -0.02751   -0.06336   0.00000  0.00000  0.00000  0.00000  0.00000  0.00000
2268 259247.996   4402957.5005    666835.9165   4550862.6870   5  13   3.2508   1.6780   4.1603   0.5130   1.6080   2.3281   0.00    0.0    0.01696   -0.00559   -0.05868   0.00000  0.00000  0.00000  0.00000  0.00000  0.00000
2268 259248.996   4402957.7861    666835.7395   4550862.6058   5  13   3.2507   1.6781   4.1613   0.5138   1.6085   2.3288   0.00    0.0   -0.03487   -0.03791   -0.05280   0.00000  0.00000  0.00000  0.00000  0.00000  0.00000
2268 259249.996   4402957.7640    666835.7113   4550862.2712   5  13   3.2507   1.6781   4.1623   0.5146   1.6090   2.3295   0.00    0.0   -0.09233   -0.02004   -0.11814   0.00000  0.00000  0.00000  0.00000  0.00000  0.00000
2268 259250.996   4402957.9657    666835.5078   4550862.0369   5  13   3.2507   1.6782   4.1634   0.5154   1.6095   2.3302   0.00    0.0    0.00934    0.01099   -0.04897   0.00000  0.00000  0.00000  0.00000  0.00000  0.00000
2268 259251.996   4402957.9797    666835.5850   4550861.5644   5  13   3.2507   1.6783   4.1644   0.5162   1.6100   2.3309   0.00    0.0   -0.00766   -0.00036   -0.04887   0.00000  0.00000  0.00000  0.00000  0.00000  0.00000
2268 259252.996   4402958.1270    666835.5217   4550861.1251   5  13   3.2506   1.6784   4.1655   0.5171   1.6105   2.3316   0.00    0.0   -0.05324   -0.06587   -0.11895   0.00000  0.00000  0.00000  0.00000  0.00000  0.00000
2268 259253.996   4402958.0447    666835.5776   4550861.0388   5  13   3.2506   1.6784   4.1665   0.5179   1.6110   2.3323   0.00    0.0    0.03213   -0.01469   -0.03109   0.00000  0.00000  0.00000  0.00000  0.00000  0.00000
2268 259254.996   4402957.5792    666835.7177   4550860.8579   5  13   3.2506   1.6785   4.1676   0.5187   1.6115   2.3330   0.00    0.0   -0.03540   -0.03117   -0.02730   0.00000  0.00000  0.00000  0.00000  0.00000  0.00000
2268 259255.996   4402957.6705    666835.8915   4550861.3305   5  13   3.2506   1.6786   4.1686   0.5195   1.6120   2.3337   0.00    0.0    0.03244   -0.02679   -0.04332   0.00000  0.00000  0.00000  0.00000  0.00000  0.00000
2268 259256.996   4402957.7186    666836.0741   4550861.4257   5  13   3.2505   1.6787   4.1697   0.5203   1.6125   2.3344   0.00    0.0    0.06444   -0.03060    0.01956   0.00000  0.00000  0.00000  0.00000  0.00000  0.00000
2268 259257.996   4402957.6470    666836.0810   4550861.3605   5  13   3.2505   1.6787   4.1707   0.5211   1.6130   2.3351   0.00    0.0   -0.04096   -0.01400   -0.12714   0.00000  0.00000  0.00000  0.00000  0.00000  0.00000
2268 259258.996   4402957.9154    666835.9238   4550861.4952   5  13   3.2505   1.6788   4.1718   0.5219   1.6135   2.3358   0.00    0.0    0.03804    0.01426   -0.01250   0.00000  0.00000  0.00000  0.00000  0.00000  0.00000
2268 259259.996   4402957.4791    666836.0317   4550861.4841   5  13   3.2505   1.6789   4.1728   0.5228   1.6140   2.3364   0.00    0.0   -0.01734   -0.02676   -0.09505   0.00000  0.00000  0.00000  0.00000  0.00000  0.00000
2268 259260.996   4402957.4946    666835.9616   4550861.4983   5  13   3.2504   1.6790   4.1739   0.5236   1.6146   2.3371   0.00    0.0    0.00105   -0.02211   -0.07625   0.00000  0.00000  0.00000  0.00000  0.00000  0.00000
2268 259261.996   4402957.4562    666835.8373   4550861.9595   5  14   3.2385   1.6784   4.1749   0.5369   1.6149   2.3384   0.00    0.0   -0.00467   -0.01831   -0.01471   0.00000  0.00000  0.00000  0.00000  0.00000  0.00000
2268 259262.996   4402957.2771    666835.7544   4550861.9266   5  14   3.2385   1.6784   4.1759   0.5376   1.6154   2.3391   0.00    0.0   -0.00967   -0.05118   -0.05398   0.00000  0.00000  0.00000  0.00000  0.00000  0.00000
2268 259263.996   4402957.2866    666835.7740   4550861.7999   5  14   3.2384   1.6785   4.1770   0.5384   1.6160   2.3397   0.00    0.0   -0.00217   -0.00156   -0.04514   0.00000  0.00000  0.00000  0.00000  0.00000  0.00000
2268 259264.996   4402957.6315    666835.5872   4550861.8273   5  14   3.2383   1.6786   4.1780   0.5392   1.6165   2.3404   0.00    0.0   -0.06006   -0.04380   -0.02615   0.00000  0.00000  0.00000  0.00000  0.00000  0.00000
2268 259265.996   4402957.5365    666835.6240   4550861.5956   5  14   3.2383   1.6787   4.1791   0.5400   1.6170   2.3410   0.00    0.0    0.00363   -0.01824   -0.02668   0.00000  0.00000  0.00000  0.00000  0.00000  0.00000
2268 259266.996   4402957.4615    666835.5631   4550861.5592   5  14   3.2382   1.6788   4.1801   0.5408   1.6175   2.3417   0.00    0.0   -0.05918   -0.01815   -0.12774   0.00000  0.00000  0.00000  0.00000  0.00000  0.00000
2268 259267.996   4402957.7488    666835.6500   4550861.6734   5  14   3.2382   1.6788   4.1812   0.5416   1.6180   2.3424   0.00    0.0   -0.02584   -0.00440   -0.02764   0.00000  0.00000  0.00000  0.00000  0.00000  0.00000
2268 259268.996   4402957.8235    666835.5276   4550861.7405   5  14   3.2381   1.6789   4.1823   0.5424   1.6186   2.3430   0.00    0.0   -0.00232   -0.00852   -0.03294   0.00000  0.00000  0.00000  0.00000  0.00000  0.00000
2268 259269.996   4402957.5414    666835.6426   4550861.9123   5  15   3.2369   1.6789   4.1769   0.5444   1.6180   2.3479   0.00    0.0    0.01616   -0.02083   -0.10059   0.00000  0.00000  0.00000  0.00000  0.00000  0.00000
2268 259270.996   4402957.7714    666835.8060   4550862.5716   5  15   3.2368   1.6790   4.1779   0.5452   1.6185   2.3486   0.00    0.0   -0.04584   -0.04537   -0.11741   0.00000  0.00000  0.00000  0.00000  0.00000  0.00000
2268 259271.996   4402957.8246    666835.8642   4550862.7611   5  15   3.2368   1.6791   4.1789   0.5460   1.6190   2.3492   0.00    0.0   -0.00928   -0.03069   -0.06671   0.00000  0.00000  0.00000  0.00000  0.00000  0.00000
2268 259272.996   4402957.8880    666835.8008   4550862.2502   5  15   3.2367   1.6792   4.1798   0.5467   1.6195   2.3498   0.00    0.0    0.00925   -0.01673   -0.04240   0.00000  0.00000  0.00000  0.00000  0.00000  0.00000
2268 259273.996   4402958.2910    666835.6867   4550862.1926   5  15   3.2367   1.6792   4.1808   0.5475   1.6200   2.3505   0.00    0.0   -0.00054   -0.00026   -0.05443   0.00000  0.00000  0.00000  0.00000  0.00000  0.00000
2268 259274.996   4402958.3392    666835.5942   4550861.8285   5  15   3.2366   1.6793   4.1818   0.5483   1.6205   2.3511   0.00    0.0   -0.00188   -0.00958   -0.05899   0.00000  0.00000  0.00000  0.00000  0.00000  0.00000
2268 259275.996   4402958.7736    666835.5467   4550861.9899   5  15   3.2366   1.6794   4.1828   0.5491   1.6210   2.3517   0.00    0.0    0.00046   -0.02626   -0.03733   0.00000  0.00000  0.00000  0.00000  0.00000  0.00000
2268 259276.996   4402959.0365    666835.5433   4550861.8384   5  15   3.2365   1.6795   4.1837   0.5499   1.6215   2.3524   0.00    0.0    0.01859   -0.01222   -0.05951   0.00000  0.00000  0.00000  0.00000  0.00000  0.00000
2268 259277.996   4402958.8155    666835.5860   4550861.7976   5  15   3.2365   1.6796   4.1847   0.5506   1.6220   2.3530   0.00    0.0   -0.02029   -0.00026   -0.03566   0.00000  0.00000  0.00000  0.00000  0.00000  0.00000
2268 259278.996   4402958.5641    666835.5263   4550861.8003   5  15   3.2364   1.6796   4.1857   0.5514   1.6225   2.3536   0.00    0.0    0.00560    0.00234   -0.08967   0.00000  0.00000  0.00000  0.00000  0.00000  0.00000
2268 259279.996   4402958.5510    666835.6823   4550862.2716   5  15   3.2364   1.6797   4.1867   0.5522   1.6230   2.3543   0.00    0.0    0.03054    0.01413   -0.02967   0.00000  0.00000  0.00000  0.00000  0.00000  0.00000
2268 259280.996   4402958.6947    666835.6748   4550862.6599   5  15   3.2363   1.6798   4.1876   0.5529   1.6235   2.3549   0.00    0.0    0.06207    0.00993   -0.00588   0.00000  0.00000  0.00000  0.00000  0.00000  0.00000
2268 259281.996   4402958.1847    666835.5810   4550862.3121   5  15   3.2363   1.6799   4.1886   0.5537   1.6240   2.3555   0.00    0.0   -0.01744    0.01040   -0.10164   0.00000  0.00000  0.00000  0.00000  0.00000  0.00000
2268 259282.996   4402958.0987    666835.6102   4550862.4813   5  15   3.2362   1.6800   4.1896   0.5545   1.6245   2.3562   0.00    0.0    0.01204   -0.01503   -0.03080   0.00000  0.00000  0.00000  0.00000  0.00000  0.00000
2268 259283.996   4402958.1641    666835.6896   4550861.9832   5  15   3.2362   1.6800   4.1906   0.5553   1.6250   2.3568   0.00    0.0   -0.08058   -0.07790   -0.13161   0.00000  0.00000  0.00000  0.00000  0.00000  0.00000
2268 259284.996   4402957.8542    666835.7296   4550862.1204   5  15   3.2362   1.6801   4.1916   0.5560   1.6255   2.3574   0.00    0.0   -0.00319   -0.00249   -0.02147   0.00000  0.00000  0.00000  0.00000  0.00000  0.00000
2268 259285.996   4402957.7389    666835.6336   4550861.3375   5  15   3.2361   1.6802   4.1925   0.5568   1.6260   2.3581   0.00    0.0    0.01827   -0.02702   -0.04808   0.00000  0.00000  0.00000  0.00000  0.00000  0.00000
2268 259286.996   4402958.1546    666835.9042   4550861.5931   5  15   3.2361   1.6803   4.1935   0.5576   1.6265   2.3587   0.00    0.0    0.00933   -0.00339   -0.05780   0.00000  0.00000  0.00000  0.00000  0.00000  0.00000
2268 259287.996   4402958.4203    666836.0004   4550862.2751   5  15   3.2360   1.6804   4.1945   0.5583   1.6270   2.3593   0.00    0.0   -0.02601   -0.00794   -0.04570   0.00000  0.00000  0.00000  0.00000  0.00000  0.00000
2268 259288.996   4402958.3578    666836.2285   4550863.1578   5  15   3.2360   1.6804   4.1955   0.5591   1.6275   2.3600   0.00    0.0    0.02116    0.02231   -0.00415   0.00000  0.00000  0.00000  0.00000  0.00000  0.00000
2268 259289.996   4402958.1764    666836.1007   4550862.9077   5  15   3.2359   1.6805   4.1964   0.5598   1.6280   2.3606   0.00    0.0    0.03776   -0.00541    0.00557   0.00000  0.00000  0.00000  0.00000  0.00000  0.00000
2268 259290.996   4402958.0713    666836.2077   4550862.8438   5  15   3.2359   1.6806   4.1974   0.5606   1.6285   2.3612   0.00    0.0   -0.01563    0.00009   -0.10328   0.00000  0.00000  0.00000  0.00000  0.00000  0.00000
2268 259291.996   4402957.6849    666836.2221   4550862.5755   5  14   3.2488   1.6813   4.1984   0.5495   1.6288   2.3625   0.00    0.0    0.07090   -0.03837   -0.02789   0.00000  0.00000  0.00000  0.00000  0.00000  0.00000
2268 259292.996   4402957.4651    666836.2661   4550862.2485   5  14   3.2488   1.6814   4.1994   0.5503   1.6293   2.3632   0.00    0.0    0.01090   -0.05732   -0.08362   0.00000  0.00000  0.00000  0.00000  0.00000  0.00000
2268 259293.996   4402957.3989    666836.3056   4550862.3826   5  14   3.2488   1.6814   4.2004   0.5511   1.6298   2.3639   0.00    0.0    0.01179   -0.02206   -0.05515   0.00000  0.00000  0.00000  0.00000  0.00000  0.00000
2268 259294.996   4402957.4021    666836.0370   4550862.4502   5  14   3.2488   1.6815   4.2013   0.5519   1.6303   2.3645   0.00    0.0   -0.00553   -0.02322   -0.13595   0.00000  0.00000  0.00000  0.00000  0.00000  0.00000
2268 259295.996   4402957.7624    666835.9998   4550862.4520   5  14   3.2488   1.6816   4.2023   0.5526   1.6308   2.3652   0.00    0.0    0.01972   -0.00199   -0.01711   0.00000  0.00000  0.00000  0.00000  0.00000  0.00000
2268 259296.996   4402958.1047    666835.8772   4550862.2875   5  14   3.2488   1.6817   4.2033   0.5534   1.6313   2.3658   0.00    0.0   -0.00555   -0.03814   -0.10847   0.00000  0.00000  0.00000  0.00000  0.00000  0.00000
2268 259297.996   4402957.9867    666835.9787   4550862.1520   5  14   3.2487   1.6818   4.2043   0.5542   1.6318   2.3665   0.00    0.0    0.02168    0.00038   -0.12743   0.00000  0.00000  0.00000  0.00000  0.00000  0.00000
2268 259298.996   4402957.9241    666835.9378   4550862.1642   5  14   3.2487   1.6818   4.2053   0.5550   1.6323   2.3672   0.00    0.0   -0.02546   -0.01604   -0.13068   0.00000  0.00000  0.00000  0.00000  0.00000  0.00000
2268 259299.996   4402957.7881    666835.8895   4550861.8538   5  14   3.2487   1.6819   4.2062   0.5557   1.6328   2.3678   0.00    0.0    0.01707    0.01065   -0.02639   0.00000  0.00000  0.00000  0.00000  0.00000  0.00000
2268 259300.996   4402957.4090    666835.8895   4550861.6074   5  14   3.2487   1.6820   4.2072   0.5565   1.6333   2.3685   0.00    0.0    0.04905   -0.02792   -0.03529   0.00000  0.00000  0.00000  0.00000  0.00000  0.00000
2268 259301.996   4402957.7450    666835.9257   4550861.9944   5  14   3.2487   1.6821   4.2082   0.5573   1.6338   2.3692   0.00    0.0   -0.03316   -0.04011   -0.14726   0.00000  0.00000  0.00000  0.00000  0.00000  0.00000
2268 259302.996   4402957.6271    666836.0143   4550861.8408   5  14   3.2487   1.6822   4.2092   0.5580   1.6343   2.3698   0.00    0.0   -0.02004   -0.00312   -0.05339   0.00000  0.00000  0.00000  0.00000  0.00000  0.00000
2268 259303.996   4402957.3773    666836.0937   4550861.9777   5  14   3.2487   1.6822   4.2102   0.5588   1.6348   2.3705   0.00    0.0    0.02749   -0.01190   -0.02343   0.00000  0.00000  0.00000  0.00000  0.00000  0.00000
2268 259304.996   4402957.5548    666835.8968   4550862.0382   5  14   3.2486   1.6823   4.2111   0.5596   1.6353   2.3711   0.00    0.0   -0.01227   -0.03818   -0.07869   0.00000  0.00000  0.00000  0.00000  0.00000  0.00000
2268 259305.996   4402957.5136    666835.9790   4550861.8675   5  14   3.2486   1.6824   4.2121   0.5603   1.6358   2.3718   0.00    0.0   -0.00032   -0.00938   -0.06684   0.00000  0.00000  0.00000  0.00000  0.00000  0.00000
2268 259306.996   4402957.5406    666836.1699   4550862.4456   5  14   3.2486   1.6825   4.2131   0.5611   1.6363   2.3725   0.00    0.0    0.02361   -0.00527    0.00757   0.00000  0.00000  0.00000  0.00000  0.00000  0.00000
2268 259307.996   4402957.4640    666836.1946   4550862.5333   5  14   3.2486   1.6826   4.2141   0.5618   1.6368   2.3731   0.00    0.0    0.01723   -0.00437   -0.07507   0.00000  0.00000  0.00000  0.00000  0.00000  0.00000
2268 259308.996   4402957.9431    666836.2582   4550862.6798   5  14   3.2486   1.6826   4.2150   0.5626   1.6373   2.3738   0.00    0.0   -0.01292    0.00827   -0.08475   0.00000  0.00000  0.00000  0.00000  0.00000  0.00000
2268 259309.996   4402958.5587    666836.1998   4550862.9604   5  14   3.2486   1.6827   4.2160   0.5634   1.6378   2.3744   0.00    0.0   -0.00590   -0.00913   -0.07595   0.00000  0.00000  0.00000  0.00000  0.00000  0.00000
2268 259310.996   4402958.5913    666836.3130   4550862.9173   5  14   3.2486   1.6828   4.2170   0.5641   1.6383   2.3751   0.00    0.0   -0.01204   -0.00716   -0.06579   0.00000  0.00000  0.00000  0.00000  0.00000  0.00000
2268 259311.996   4402958.3058    666836.1027   4550862.6629   5  14   3.2485   1.6829   4.2180   0.5649   1.6388   2.3758   0.00    0.0   -0.07054   -0.02722   -0.11285   0.00000  0.00000  0.00000  0.00000  0.00000  0.00000
2268 259312.996   4402958.0225    666836.1062   4550862.5728   5  14   3.2485   1.6830   4.2190   0.5656   1.6393   2.3764   0.00    0.0    0.02513   -0.03384   -0.06478   0.00000  0.00000  0.00000  0.00000  0.00000  0.00000
2268 259313.996   4402957.4590    666836.0275   4550862.1528   5  14   3.2485   1.6831   4.2199   0.5664   1.6398   2.3771   0.00    0.0   -0.01372   -0.01182   -0.07536   0.00000  0.00000  0.00000  0.00000  0.00000  0.00000
2268 259314.996   4402957.5197    666836.0804   4550862.2084   5  14   3.2485   1.6831   4.2209   0.5671   1.6403   2.3777   0.00    0.0    0.06328   -0.02446   -0.02021   0.00000  0.00000  0.00000  0.00000  0.00000  0.00000
2268 259315.996   4402957.5873    666835.8407   4550862.2243   5  15   3.2430   1.6830   4.2217   0.5636   1.6412   2.3801   0.00    0.0    0.00913   -0.01013   -0.02016   0.00000  0.00000  0.00000  0.00000  0.00000  0.00000
2268 259316.996   4402957.4261    666835.9136   4550862.2883   5  15   3.2429   1.6831   4.2226   0.5644   1.6417   2.3808   0.00    0.0    0.02294   -0.00217   -0.03042   0.00000  0.00000  0.00000  0.00000  0.00000  0.00000
2268 259317.996   4402957.2739    666835.7935   4550861.7725   5  15   3.2429   1.6832   4.2236   0.5652   1.6422   2.3815   0.00    0.0   -0.00604   -0.01605   -0.11043   0.00000  0.00000  0.00000  0.00000  0.00000  0.00000
2268 259318.996   4402957.4056    666835.7646   4550861.8183   5  15   3.2429   1.6833   4.2246   0.5660   1.6427   2.3822   0.00    0.0   -0.00620   -0.03386   -0.06057   0.00000  0.00000  0.00000  0.00000  0.00000  0.00000
2268 259319.996   4402957.7610    666835.7335   4550861.8329   5  15   3.2428   1.6834   4.2255   0.5668   1.6432   2.3828   0.00    0.0   -0.00284   -0.00447   -0.07347   0.00000  0.00000  0.00000  0.00000  0.00000  0.00000
2268 259320.996   4402957.9292    666835.6166   4550861.9336   5  15   3.2428   1.6835   4.2265   0.5676   1.6437   2.3835   0.00    0.0    0.02362   -0.03580   -0.05790   0.00000  0.00000  0.00000  0.00000  0.00000  0.00000
2268 259321.996   4402958.0264    666835.3947   4550861.8407   5  15   3.2428   1.6835   4.2275   0.5683   1.6442   2.3842   0.00    0.0    0.02473   -0.00208   -0.06732   0.00000  0.00000  0.00000  0.00000  0.00000  0.00000
2268 259322.996   4402958.2554    666835.5628   4550862.5251   5  15   3.2428   1.6836   4.2285   0.5691   1.6447   2.3849   0.00    0.0   -0.02646   -0.03785   -0.06738   0.00000  0.00000  0.00000  0.00000  0.00000  0.00000
2268 259323.996   4402958.1631    666835.6460   4550862.7562   5  15   3.2427   1.6837   4.2294   0.5699   1.6452   2.3855   0.00    0.0   -0.05112   -0.03802   -0.12382   0.00000  0.00000  0.00000  0.00000  0.00000  0.00000
2268 259324.996   4402958.3594    666835.6712   4550862.8101   5  15   3.2427   1.6838   4.2304   0.5707   1.6457   2.3862   0.00    0.0    0.03445   -0.00685   -0.00283   0.00000  0.00000  0.00000  0.00000  0.00000  0.00000
2268 259325.996   4402958.2079    666835.8995   4550862.7386   5  15   3.2427   1.6839   4.2314   0.5715   1.6462   2.3869   0.00    0.0    0.01308   -0.01643   -0.09023   0.00000  0.00000  0.00000  0.00000  0.00000  0.00000
2268 259326.996   4402957.8873    666835.9853   4550862.4721   5  15   3.2426   1.6840   4.2323   0.5723   1.6467   2.3875   0.00    0.0   -0.00519   -0.03989   -0.11536   0.00000  0.00000  0.00000  0.00000  0.00000  0.00000
2268 259327.996   4402957.8696    666835.9488   4550862.9677   5  15   3.2426   1.6841   4.2333   0.5731   1.6472   2.3882   0.00    0.0    0.02311   -0.00619   -0.04774   0.00000  0.00000  0.00000  0.00000  0.00000  0.00000
2268 259328.996   4402957.6715    666835.8439   4550862.8437   5  15   3.2426   1.6842   4.2343   0.5739   1.6477   2.3889   0.00    0.0   -0.02495   -0.00731   -0.08774   0.00000  0.00000  0.00000  0.00000  0.00000  0.00000
2268 259329.996   4402957.5338    666835.8247   4550862.5626   5  15   3.2426   1.6842   4.2353   0.5747   1.6482   2.3895   0.00    0.0   -0.02462   -0.02382   -0.06949   0.00000  0.00000  0.00000  0.00000  0.00000  0.00000
2268 259330.996   4402957.5262    666835.7669   4550862.5888   5  16   3.2399   1.6843   4.2253   0.5741   1.6476   2.3818   0.00    0.0    0.01274   -0.02204   -0.04604   0.00000  0.00000  0.00000  0.00000  0.00000  0.00000
2268 259331.996   4402957.2047    666835.7543   4550861.9060   5  16   3.2398   1.6844   4.2263   0.5748   1.6481   2.3825   0.00    0.0    0.08402   -0.00535   -0.01001   0.00000  0.00000  0.00000  0.00000  0.00000  0.00000
2268 259332.996   4402957.3254    666835.8220   4550862.2136   5  16   3.2398   1.6845   4.2272   0.5756   1.6485   2.3831   0.00    0.0    0.04253   -0.01116   -0.00451   0.00000  0.00000  0.00000  0.00000  0.00000  0.00000
2268 259333.996   4402957.5676    666835.7482   4550862.1397   5  16   3.2398   1.6846   4.2281   0.5763   1.6490   2.3838   0.00    0.0   -0.01122   -0.01179   -0.06872   0.00000  0.00000  0.00000  0.00000  0.00000  0.00000
2268 259334.996   4402958.0001    666835.7746   4550862.5308   5  16   3.2397   1.6846   4.2290   0.5770   1.6495   2.3844   0.00    0.0    0.05897   -0.00026    0.03170   0.00000  0.00000  0.00000  0.00000  0.00000  0.00000
2268 259335.996   4402958.1631    666835.8416   4550862.1295   5  16   3.2397   1.6847   4.2299   0.5778   1.6499   2.3850   0.00    0.0    0.01969    0.01810   -0.05016   0.00000  0.00000  0.00000  0.00000  0.00000  0.00000
2268 259336.996   4402958.0449    666835.9504   4550861.8064   5  16   3.2397   1.6848   4.2308   0.5785   1.6504   2.3857   0.00    0.0    0.00372   -0.06254   -0.03626   0.00000  0.00000  0.00000  0.00000  0.00000  0.00000
2268 259337.996   4402957.9163    666835.9170   4550861.7369   5  16   3.2396   1.6849   4.2318   0.5792   1.6508   2.3863   0.00    0.0    0.03396   -0.00098    0.01981   0.00000  0.00000  0.00000  0.00000  0.00000  0.00000
2268 259338.996   4402957.9028    666835.8736   4550861.8398   5  16   3.2396   1.6850   4.2327   0.5799   1.6513   2.3870   0.00    0.0    0.01952   -0.00470   -0.03715   0.00000  0.00000  0.00000  0.00000  0.00000  0.00000
2268 259339.996   4402957.8932    666835.9129   4550862.3279   5  16   3.2396   1.6851   4.2336   0.5807   1.6518   2.3876   0.00    0.0   -0.00461   -0.02848   -0.04963   0.00000  0.00000  0.00000  0.00000  0.00000  0.00000
2268 259340.996   4402957.9456    666835.9308   4550862.3965   5  16   3.2395   1.6851   4.2345   0.5814   1.6522   2.3883   0.00    0.0    0.01708   -0.02815   -0.05941   0.00000  0.00000  0.00000  0.00000  0.00000  0.00000
2268 259341.996   4402957.6980    666835.9376   4550862.5614   5  16   3.2395   1.6852   4.2354   0.5821   1.6527   2.3889   0.00    0.0   -0.03647   -0.04339   -0.07788   0.00000  0.00000  0.00000  0.00000  0.00000  0.00000
2268 259342.996   4402957.5511    666835.9067   4550862.4094   5  16   3.2395   1.6853   4.2364   0.5828   1.6531   2.3895   0.00    0.0   -0.00231   -0.00359   -0.02539   0.00000  0.00000  0.00000  0.00000  0.00000  0.00000
2268 259343.996   4402957.3345    666835.8922   4550862.4463   5  16   3.2395   1.6854   4.2373   0.5836   1.6536   2.3902   0.00    0.0    0.02146   -0.02442   -0.03732   0.00000  0.00000  0.00000  0.00000  0.00000  0.00000
2268 259344.996   4402957.5264    666836.0196   4550862.9743   5  16   3.2394   1.6855   4.2382   0.5843   1.6541   2.3908   0.00    0.0    0.02522   -0.01153   -0.01954   0.00000  0.00000  0.00000  0.00000  0.00000  0.00000
2268 259345.996   4402957.2662    666836.0448   4550862.4941   5  16   3.2394   1.6856   4.2392   0.5850   1.6545   2.3915   0.00    0.0   -0.01876    0.00219   -0.07220   0.00000  0.00000  0.00000  0.00000  0.00000  0.00000
2268 259346.996   4402957.7689    666836.0322   4550862.6492   5  16   3.2394   1.6857   4.2401   0.5857   1.6550   2.3921   0.00    0.0   -0.00557   -0.00349   -0.03647   0.00000  0.00000  0.00000  0.00000  0.00000  0.00000
2268 259347.996   4402957.9040    666835.9675   4550862.6688   5  16   3.2393   1.6857   4.2410   0.5864   1.6554   2.3928   0.00    0.0    0.03082   -0.01113   -0.04157   0.00000  0.00000  0.00000  0.00000  0.00000  0.00000
2268 259348.996   4402957.6978    666835.9620   4550862.5703   5  16   3.2393   1.6858   4.2419   0.5872   1.6559   2.3934   0.00    0.0    0.03457   -0.00358   -0.05727   0.00000  0.00000  0.00000  0.00000  0.00000  0.00000
2268 259349.996   4402957.4068    666835.9400   4550862.0659   5  16   3.2393   1.6859   4.2429   0.5879   1.6564   2.3941   0.00    0.0    0.02697   -0.02822   -0.07444   0.00000  0.00000  0.00000  0.00000  0.00000  0.00000
2268 259350.996   4402957.3335    666835.9344   4550861.8266   5  16   3.2392   1.6860   4.2438   0.5886   1.6568   2.3947   0.00    0.0    0.00166   -0.03551   -0.04428   0.00000  0.00000  0.00000  0.00000  0.00000  0.00000
2268 259351.996   4402957.4779    666835.8186   4550861.8820   5  16   3.2392   1.6861   4.2447   0.5893   1.6573   2.3954   0.00    0.0   -0.00604   -0.02134   -0.04172   0.00000  0.00000  0.00000  0.00000  0.00000  0.00000
2268 259352.996   4402957.7424    666835.8874   4550862.5109   5  16   3.2392   1.6862   4.2457   0.5900   1.6577   2.3960   0.00    0.0   -0.02727   -0.03912   -0.02036   0.00000  0.00000  0.00000  0.00000  0.00000  0.00000
2268 259353.996   4402958.3145    666835.7971   4550862.8623   5  16   3.2391   1.6863   4.2466   0.5907   1.6582   2.3966   0.00    0.0    0.01416   -0.02522   -0.03499   0.00000  0.00000  0.00000  0.00000  0.00000  0.00000
2268 259354.996   4402958.0425    666835.7098   4550862.6884   5  16   3.2391   1.6863   4.2475   0.5914   1.6587   2.3973   0.00    0.0   -0.01783   -0.02487   -0.04668   0.00000  0.00000  0.00000  0.00000  0.00000  0.00000
2268 259355.996   4402957.9994    666835.7200   4550862.5148   5  16   3.2391   1.6864   4.2485   0.5922   1.6591   2.3979   0.00    0.0    0.02827   -0.01085   -0.02138   0.00000  0.00000  0.00000  0.00000  0.00000  0.00000
2268 259356.996   4402957.8599    666835.7746   4550862.1824   5  16   3.2390   1.6865   4.2494   0.5929   1.6596   2.3986   0.00    0.0   -0.00161   -0.02973   -0.02738   0.00000  0.00000  0.00000  0.00000  0.00000  0.00000
2268 259357.996   4402958.0444    666835.9577   4550862.0991   5  16   3.2390   1.6866   4.2503   0.5936   1.6601   2.3992   0.00    0.0    0.01283   -0.01951   -0.04871   0.00000  0.00000  0.00000  0.00000  0.00000  0.00000
2268 259358.996   4402957.8872    666836.1148   4550861.7833   5  16   3.2390   1.6867   4.2513   0.5943   1.6605   2.3999   0.00    0.0    0.04211    0.00359   -0.02193   0.00000  0.00000  0.00000  0.00000  0.00000  0.00000
2268 259359.996   4402957.7817    666836.2008   4550861.7273   5  16   3.2390   1.6868   4.2522   0.5950   1.6610   2.4005   0.00    0.0   -0.03042   -0.02694   -0.06479   0.00000  0.00000  0.00000  0.00000  0.00000  0.00000
2268 259360.996   4402957.7650    666836.1856   4550862.1462   5  16   3.2389   1.6869   4.2532   0.5957   1.6615   2.4012   0.00    0.0    0.04958   -0.03136   -0.05272   0.00000  0.00000  0.00000  0.00000  0.00000  0.00000
2268 259361.996   4402957.9532    666836.0783   4550862.1050   5  16   3.2389   1.6869   4.2541   0.5964   1.6619   2.4018   0.00    0.0   -0.01504    0.00903   -0.05179   0.00000  0.00000  0.00000  0.00000  0.00000  0.00000
2268 259362.996   4402957.7994    666835.9593   4550862.2753   5  16   3.2389   1.6870   4.2550   0.5971   1.6624   2.4025   0.00    0.0   -0.00670   -0.01897   -0.06587   0.00000  0.00000  0.00000  0.00000  0.00000  0.00000
2268 259363.996   4402958.1785    666835.8192   4550862.1932   5  16   3.2388   1.6871   4.2560   0.5978   1.6629   2.4031   0.00    0.0    0.00290   -0.04970   -0.01814   0.00000  0.00000  0.00000  0.00000  0.00000  0.00000
2268 259375.000   4402957.9630    666835.9939   4550862.4315   5  16   3.2385   1.6881   4.2664   0.6056   1.6680   2.4102   0.00    0.0   -0.02980   -0.02113   -0.02838   0.00000  0.00000  0.00000  0.00000  0.00000  0.00000
2268 259376.000   4402958.2314    666836.1498   4550862.4905   5  16   3.2410   1.6872   4.2671   0.5881   1.6665   2.4105   0.00    0.0    0.00079   -0.01763   -0.04106   0.00000  0.00000  0.00000  0.00000  0.00000  0.00000
2268 259377.000   4402957.9803    666836.0594   4550862.2743   5  16   3.2410   1.6873   4.2680   0.5889   1.6670   2.4111   0.00    0.0    0.01698   -0.03196   -0.03767   0.00000  0.00000  0.00000  0.00000  0.00000  0.00000
2268 259378.000   4402957.7487    666836.2302   4550862.2377   5  16   3.2410   1.6873   4.2690   0.5896   1.6674   2.4118   0.00    0.0   -0.05821   -0.02350   -0.10011   0.00000  0.00000  0.00000  0.00000  0.00000  0.00000
2268 259379.000   4402957.8670    666836.0741   4550861.9082   5  16   3.2409   1.6874   4.2699   0.5903   1.6679   2.4124   0.00    0.0    0.02442   -0.03297   -0.01444   0.00000  0.00000  0.00000  0.00000  0.00000  0.00000
2268 259380.000   4402958.4671    666835.8946   4550861.9972   5  16   3.2409   1.6875   4.2709   0.5911   1.6684   2.4131   0.00    0.0    0.00214    0.00249   -0.00547   0.00000  0.00000  0.00000  0.00000  0.00000  0.00000
2268 259381.000   4402958.0527    666835.7475   4550861.6746   5  16   3.2409   1.6876   4.2719   0.5918   1.6689   2.4137   0.00    0.0    0.05596    0.02241    0.02221   0.00000  0.00000  0.00000  0.00000  0.00000  0.00000
2268 259382.000   4402957.9711    666835.7224   4550861.5736   5  17   3.2406   1.6863   4.2704   0.5950   1.6664   2.4156   0.00    0.0    0.01409   -0.01636   -0.01613   0.00000  0.00000  0.00000  0.00000  0.00000  0.00000
2268 259383.000   4402957.6729    666835.6329   4550861.5620   5  17   3.2405   1.6864   4.2713   0.5957   1.6669   2.4163   0.00    0.0   -0.00735    0.00605   -0.06047   0.00000  0.00000  0.00000  0.00000  0.00000  0.00000
2268 259384.000   4402957.7842    666835.4877   4550861.9137   5  17   3.2405   1.6865   4.2723   0.5964   1.6673   2.4169   0.00    0.0    0.02175    0.00627    0.00595   0.00000  0.00000  0.00000  0.00000  0.00000  0.00000
2268 259385.000   4402957.7726    666835.5194   4550862.1489   5  17   3.2405   1.6866   4.2732   0.5972   1.6678   2.4176   0.00    0.0    0.04615   -0.03588   -0.04771   0.00000  0.00000  0.00000  0.00000  0.00000  0.00000
2268 259386.000   4402957.5917    666835.8417   4550862.5615   5  17   3.2405   1.6866   4.2742   0.5979   1.6683   2.4182   0.00    0.0    0.04124    0.00958   -0.00096   0.00000  0.00000  0.00000  0.00000  0.00000  0.00000
2268 259387.000   4402957.6366    666835.9303   4550862.4559   5  17   3.2404   1.6867   4.2752   0.5986   1.6688   2.4189   0.00    0.0   -0.02399   -0.00560   -0.02490   0.00000  0.00000  0.00000  0.00000  0.00000  0.00000
2268 259388.000   4402957.5239    666835.7444   4550862.5581   5  17   3.2404   1.6868   4.2761   0.5993   1.6693   2.4195   0.00    0.0    0.01693   -0.00956   -0.02207   0.00000  0.00000  0.00000  0.00000  0.00000  0.00000
2268 259389.000   4402957.3212    666835.6189   4550861.6638   5  17   3.2404   1.6869   4.2771   0.6000   1.6698   2.4202   0.00    0.0    0.01365   -0.00389   -0.01671   0.00000  0.00000  0.00000  0.00000  0.00000  0.00000
2268 259390.000   4402957.8020    666835.6254   4550861.9844   5  17   3.2403   1.6870   4.2780   0.6008   1.6702   2.4208   0.00    0.0    0.03609   -0.01546   -0.00442   0.00000  0.00000  0.00000  0.00000  0.00000  0.00000
2268 259391.000   4402957.9866    666835.6500   4550862.1759   5  17   3.2403   1.6871   4.2790   0.6015   1.6707   2.4215   0.00    0.0    0.03308   -0.02257   -0.01589   0.00000  0.00000  0.00000  0.00000  0.00000  0.00000
2268 259392.000   4402957.9840    666835.6121   4550862.5097   5  17   3.2403   1.6871   4.2800   0.6022   1.6712   2.4221   0.00    0.0    0.03527   -0.00186    0.01036   0.00000  0.00000  0.00000  0.00000  0.00000  0.00000
2268 259393.000   4402957.7557    666835.8077   4550862.6342   5  17   3.2402   1.6872   4.2809   0.6029   1.6717   2.4228   0.00    0.0    0.01882    0.00394   -0.02599   0.00000  0.00000  0.00000  0.00000  0.00000  0.00000
2268 259394.000   4402957.8563    666835.8528   4550862.5152   5  17   3.2402   1.6873   4.2819   0.6036   1.6722   2.4234   0.00    0.0   -0.01901   -0.02584   -0.08157   0.00000  0.00000  0.00000  0.00000  0.00000  0.00000
2268 259395.000   4402957.5413    666835.8895   4550862.2081   5  17   3.2402   1.6874   4.2829   0.6043   1.6727   2.4240   0.00    0.0    0.00702   -0.01459   -0.06225   0.00000  0.00000  0.00000  0.00000  0.00000  0.00000
2268 259396.000   4402957.8146    666836.0739   4550862.5593   5  17   3.2402   1.6875   4.2838   0.6051   1.6731   2.4247   0.00    0.0    0.02258   -0.00130    0.00503   0.00000  0.00000  0.00000  0.00000  0.00000  0.00000
2268 259397.000   4402958.1797    666836.2646   4550862.2781   5  17   3.2401   1.6876   4.2848   0.6058   1.6736   2.4253   0.00    0.0    0.03045   -0.03496   -0.05621   0.00000  0.00000  0.00000  0.00000  0.00000  0.00000
2268 259398.000   4402958.1739    666836.1369   4550861.7902   5  17   3.2401   1.6877   4.2858   0.6065   1.6741   2.4260   0.00    0.0    0.00018   -0.03373   -0.01117   0.00000  0.00000  0.00000  0.00000  0.00000  0.00000
2268 259399.000   4402957.9269    666836.0762   4550861.7012   5  17   3.2401   1.6877   4.2867   0.6072   1.6746   2.4266   0.00    0.0    0.02534   -0.01854    0.00074   0.00000  0.00000  0.00000  0.00000  0.00000  0.00000
2268 259400.000   4402957.6670    666836.0973   4550861.9171   5  17   3.2400   1.6878   4.2877   0.6079   1.6751   2.4273   0.00    0.0    0.01113   -0.03321   -0.05437   0.00000  0.00000  0.00000  0.00000  0.00000  0.00000
2268 259401.000   4402957.7967    666835.9745   4550861.5909   5  17   3.2400   1.6879   4.2887   0.6086   1.6756   2.4279   0.00    0.0    0.02486    0.02842   -0.01984   0.00000  0.00000  0.00000  0.00000  0.00000  0.00000
2268 259402.000   4402957.9151    666835.9318   4550862.0635   5  17   3.2400   1.6880   4.2896   0.6093   1.6761   2.4285   0.00    0.0    0.02596   -0.00752   -0.01255   0.00000  0.00000  0.00000  0.00000  0.00000  0.00000
2268 259403.000   4402957.7882    666835.7780   4550861.8194   5  17   3.2399   1.6881   4.2906   0.6100   1.6766   2.4292   0.00    0.0    0.00871   -0.00724   -0.04078   0.00000  0.00000  0.00000  0.00000  0.00000  0.00000
2268 259404.000   4402957.3478    666835.5974   4550861.7737   5  17   3.2399   1.6882   4.2916   0.6108   1.6771   2.4298   0.00    0.0    0.04369    0.01077   -0.03264   0.00000  0.00000  0.00000  0.00000  0.00000  0.00000
2268 259405.000   4402957.6111    666835.6614   4550862.2467   5  17   3.2399   1.6883   4.2926   0.6115   1.6776   2.4305   0.00    0.0    0.01022   -0.00824   -0.04076   0.00000  0.00000  0.00000  0.00000  0.00000  0.00000
2268 259406.000   4402957.7478    666835.7975   4550862.2358   5  17   3.2398   1.6884   4.2935   0.6122   1.6780   2.4311   0.00    0.0    0.03158   -0.00206    0.01185   0.00000  0.00000  0.00000  0.00000  0.00000  0.00000
2268 259407.000   4402957.2491    666835.8714   4550861.8134   5  17   3.2398   1.6884   4.2945   0.6129   1.6785   2.4317   0.00    0.0    0.00107   -0.01987   -0.05291   0.00000  0.00000  0.00000  0.00000  0.00000  0.00000
2268 259408.000   4402957.1471    666835.8626   4550861.5480   5  17   3.2398   1.6885   4.2955   0.6136   1.6790   2.4324   0.00    0.0    0.02092    0.00670   -0.05577   0.00000  0.00000  0.00000  0.00000  0.00000  0.00000
2268 259409.000   4402956.6554    666835.9406   4550861.4691   5  17   3.2397   1.6886   4.2964   0.6143   1.6795   2.4330   0.00    0.0    0.00355   -0.02757   -0.04414   0.00000  0.00000  0.00000  0.00000  0.00000  0.00000
2268 259410.000   4402957.0498    666836.1076   4550861.9102   5  17   3.2397   1.6887   4.2974   0.6150   1.6800   2.4337   0.00    0.0    0.02977    0.00857    0.01041   0.00000  0.00000  0.00000  0.00000  0.00000  0.00000
2268 259411.000   4402957.0100    666836.0656   4550862.3315   5  17   3.2397   1.6888   4.2984   0.6157   1.6805   2.4343   0.00    0.0    0.03475    0.00628    0.00371   0.00000  0.00000  0.00000  0.00000  0.00000  0.00000
2268 259412.000   4402957.4331    666835.9254   4550862.2485   5  17   3.2397   1.6889   4.2993   0.6164   1.6810   2.4349   0.00    0.0    0.00735    0.00060   -0.01132   0.00000  0.00000  0.00000  0.00000  0.00000  0.00000
2268 259413.000   4402957.5314    666836.0713   4550862.0339   5  17   3.2396   1.6890   4.3003   0.6171   1.6815   2.4356   0.00    0.0   -0.00115    0.00880   -0.01097   0.00000  0.00000  0.00000  0.00000  0.00000  0.00000
2268 259414.000   4402957.6267    666835.9736   4550862.4669   5  17   3.2396   1.6891   4.3013   0.6178   1.6820   2.4362   0.00    0.0   -0.01217    0.00897   -0.04848   0.00000  0.00000  0.00000  0.00000  0.00000  0.00000
2268 259415.000   4402957.7155    666835.7970   4550862.7087   5  17   3.2396   1.6891   4.3023   0.6185   1.6825   2.4368   0.00    0.0   -0.01030   -0.03063   -0.05056   0.00000  0.00000  0.00000  0.00000  0.00000  0.00000
2268 259416.000   4402957.9231    666836.0434   4550863.3278   5  17   3.2395   1.6892   4.3032   0.6192   1.6830   2.4375   0.00    0.0    0.02384   -0.02989   -0.03585   0.00000  0.00000  0.00000  0.00000  0.00000  0.00000
2268 259417.000   4402958.1064    666836.1651   4550863.2163   5  17   3.2395   1.6893   4.3042   0.6199   1.6835   2.4381   0.00    0.0    0.01297    0.00297   -0.00786   0.00000  0.00000  0.00000  0.00000  0.00000  0.00000
2268 259418.000   4402958.1874    666836.1114   4550863.1560   5  17   3.2395   1.6894   4.3052   0.6206   1.6840   2.4387   0.00    0.0    0.02241   -0.02098    0.00218   0.00000  0.00000  0.00000  0.00000  0.00000  0.00000
2268 259419.000   4402958.3720    666835.9990   4550862.6848   5  17   3.2394   1.6895   4.3061   0.6213   1.6845   2.4394   0.00    0.0   -0.00396   -0.00020   -0.01559   0.00000  0.00000  0.00000  0.00000  0.00000  0.00000
2268 259420.000   4402958.2063    666836.0465   4550862.2845   5  17   3.2394   1.6896   4.3071   0.6220   1.6850   2.4400   0.00    0.0    0.02421   -0.00317    0.00764   0.00000  0.00000  0.00000  0.00000  0.00000  0.00000
2268 259421.000   4402958.2428    666836.0399   4550862.2757   5  17   3.2394   1.6897   4.3081   0.6227   1.6855   2.4406   0.00    0.0    0.05236    0.00907    0.03013   0.00000  0.00000  0.00000  0.00000  0.00000  0.00000
2268 259422.000   4402958.4242    666835.9679   4550862.2621   5  17   3.2393   1.6898   4.3091   0.6234   1.6860   2.4413   0.00    0.0   -0.01320    0.00089   -0.03385   0.00000  0.00000  0.00000  0.00000  0.00000  0.00000
2268 259423.000   4402958.6065    666835.8469   4550862.0854   5  17   3.2393   1.6899   4.3100   0.6241   1.6865   2.4419   0.00    0.0   -0.00409   -0.00515   -0.04329   0.00000  0.00000  0.00000  0.00000  0.00000  0.00000
2268 259424.000   4402958.5100    666835.7951   4550862.3337   5  17   3.2393   1.6900   4.3110   0.6248   1.6870   2.4425   0.00    0.0    0.00919   -0.03319    0.04660   0.00000  0.00000  0.00000  0.00000  0.00000  0.00000
2268 259425.000   4402958.6306    666835.6701   4550862.0502   5  17   3.2392   1.6900   4.3120   0.6255   1.6875   2.4431   0.00    0.0    0.00209   -0.03602   -0.04969   0.00000  0.00000  0.00000  0.00000  0.00000  0.00000
2268 259426.000   4402958.6543    666835.8315   4550862.2897   5  17   3.2392   1.6901   4.3129   0.6262   1.6880   2.4438   0.00    0.0    0.07814    0.00950    0.04358   0.00000  0.00000  0.00000  0.00000  0.00000  0.00000
2268 259427.000   4402958.6777    666835.8111   4550862.4915   5  17   3.2392   1.6902   4.3139   0.6269   1.6885   2.4444   0.00    0.0   -0.01006   -0.02329   -0.02693   0.00000  0.00000  0.00000  0.00000  0.00000  0.00000
2268 259428.000   4402958.7690    666836.0723   4550863.2954   5  17   3.2391   1.6903   4.3149   0.6276   1.6890   2.4450   0.00    0.0   -0.01407   -0.03137   -0.00540   0.00000  0.00000  0.00000  0.00000  0.00000  0.00000
2268 259429.000   4402958.3631    666836.1374   4550863.0239   5  17   3.2391   1.6904   4.3158   0.6282   1.6895   2.4456   0.00    0.0    0.02704    0.02294    0.02144   0.00000  0.00000  0.00000  0.00000  0.00000  0.00000
2268 259430.000   4402958.1607    666836.0597   4550863.2196   5  17   3.2391   1.6905   4.3168   0.6289   1.6900   2.4463   0.00    0.0    0.00621    0.00446   -0.00226   0.00000  0.00000  0.00000  0.00000  0.00000  0.00000
2268 259431.000   4402958.0177    666835.6997   4550862.6526   5  17   3.2390   1.6906   4.3178   0.6296   1.6905   2.4469   0.00    0.0    0.02171   -0.00237   -0.03697   0.00000  0.00000  0.00000  0.00000  0.00000  0.00000
2268 259432.000   4402957.3392    666835.5701   4550862.3096   5  17   3.2390   1.6907   4.3188   0.6303   1.6910   2.4475   0.00    0.0    0.02935    0.01606    0.02922   0.00000  0.00000  0.00000  0.00000  0.00000  0.00000
2268 259433.000   4402957.1807    666835.8888   4550862.0931   5  17   3.2389   1.6908   4.3197   0.6310   1.6915   2.4481   0.00    0.0    0.00586    0.02516   -0.05696   0.00000  0.00000  0.00000  0.00000  0.00000  0.00000
2268 259434.000   4402957.3337    666835.8910   4550862.1940   5  17   3.2389   1.6909   4.3207   0.6317   1.6920   2.4487   0.00    0.0   -0.01579   -0.01447   -0.04393   0.00000  0.00000  0.00000  0.00000  0.00000  0.00000
2268 259435.000   4402957.3633    666835.8108   4550861.2971   5  17   3.2389   1.6910   4.3217   0.6324   1.6925   2.4494   0.00    0.0   -0.00374   -0.00131   -0.03843   0.00000  0.00000  0.00000  0.00000  0.00000  0.00000
2268 259436.000   4402957.3394    666835.8457   4550861.1669   5  17   3.2388   1.6911   4.3226   0.6330   1.6930   2.4500   0.00    0.0    0.04590    0.00733    0.02244   0.00000  0.00000  0.00000  0.00000  0.00000  0.00000
2268 259437.000   4402957.3505    666835.7351   4550861.3343   5  15   3.2473   1.6926   4.3562   0.6261   1.6983   2.4631   0.00    0.0    0.01368   -0.01253   -0.02107   0.00000  0.00000  0.00000  0.00000  0.00000  0.00000
2268 259438.000   4402957.8404    666835.5025   4550861.3523   5  15   3.2473   1.6927   4.3573   0.6268   1.6989   2.4638   0.00    0.0    0.01087    0.00073   -0.07412   0.00000  0.00000  0.00000  0.00000  0.00000  0.00000
2268 259439.000   4402957.4442    666835.5817   4550861.8826   5  15   3.2473   1.6928   4.3584   0.6275   1.6994   2.4644   0.00    0.0    0.03489   -0.02031    0.00118   0.00000  0.00000  0.00000  0.00000  0.00000  0.00000
2268 259440.000   4402957.8951    666835.7663   4550862.1668   5  15   3.2473   1.6929   4.3594   0.6282   1.7000   2.4651   0.00    0.0    0.03387   -0.00704   -0.03164   0.00000  0.00000  0.00000  0.00000  0.00000  0.00000
2268 259441.000   4402957.7821    666835.6670   4550862.0588   5  15   3.2473   1.6930   4.3605   0.6289   1.7005   2.4657   0.00    0.0    0.01307   -0.01669   -0.07597   0.00000  0.00000  0.00000  0.00000  0.00000  0.00000
2268 259442.000   4402957.8364    666835.6137   4550862.2202   5  15   3.2473   1.6931   4.3616   0.6296   1.7011   2.4664   0.00    0.0    0.03275    0.02967    0.01521   0.00000  0.00000  0.00000  0.00000  0.00000  0.00000
2268 259443.000   4402957.5451    666835.6744   4550862.4465   5  15   3.2473   1.6932   4.3626   0.6303   1.7017   2.4671   0.00    0.0    0.02484    0.02273    0.02514   0.00000  0.00000  0.00000  0.00000  0.00000  0.00000
2268 259444.000   4402957.6344    666835.4706   4550862.5670   5  15   3.2473   1.6933   4.3637   0.6310   1.7022   2.4677   0.00    0.0    0.00241   -0.01724    0.05092   0.00000  0.00000  0.00000  0.00000  0.00000  0.00000
2268 259445.000   4402957.8487    666835.6425   4550862.8705   5  15   3.2473   1.6934   4.3647   0.6317   1.7028   2.4684   0.00    0.0   -0.00106   -0.02075   -0.08718   0.00000  0.00000  0.00000  0.00000  0.00000  0.00000
2268 259446.000   4402957.8073    666835.7312   4550862.5364   5  15   3.2473   1.6935   4.3658   0.6324   1.7034   2.4691   0.00    0.0   -0.02376    0.00766   -0.01396   0.00000  0.00000  0.00000  0.00000  0.00000  0.00000
2268 259447.000   4402958.1722    666835.8443   4550861.8711   5  15   3.2473   1.6936   4.3669   0.6331   1.7039   2.4697   0.00    0.0   -0.02745   -0.02496   -0.01847   0.00000  0.00000  0.00000  0.00000  0.00000  0.00000
2268 259448.000   4402957.9553    666836.2883   4550862.0994   5  15   3.2472   1.6937   4.3679   0.6338   1.7045   2.4704   0.00    0.0   -0.01795   -0.01718   -0.12333   0.00000  0.00000  0.00000  0.00000  0.00000  0.00000
2268 259449.000   4402957.6431    666835.9346   4550861.5631   5  15   3.2472   1.6938   4.3690   0.6344   1.7050   2.4710   0.00    0.0    0.02057    0.02584    0.01925   0.00000  0.00000  0.00000  0.00000  0.00000  0.00000
2268 259450.000   4402957.9903    666835.8342   4550862.0715   5  15   3.2472   1.6939   4.3700   0.6351   1.7056   2.4717   0.00    0.0    0.01936    0.00219    0.01216   0.00000  0.00000  0.00000  0.00000  0.00000  0.00000
2268 259451.000   4402958.1155    666835.8311   4550862.2932   5  15   3.2472   1.6940   4.3711   0.6358   1.7062   2.4723   0.00    0.0    0.01066   -0.02332    0.07200   0.00000  0.00000  0.00000  0.00000  0.00000  0.00000
2268 259452.000   4402958.0638    666835.7743   4550861.8981   5  15   3.2472   1.6942   4.3721   0.6365   1.7067   2.4730   0.00    0.0   -0.03607   -0.02513   -0.06468   0.00000  0.00000  0.00000  0.00000  0.00000  0.00000
2268 259453.000   4402957.9443    666835.8945   4550861.7146   5  15   3.2472   1.6943   4.3732   0.6372   1.7073   2.4736   0.00    0.0    0.04360    0.02279    0.05533   0.00000  0.00000  0.00000  0.00000  0.00000  0.00000
2268 259454.000   4402957.7341    666835.9180   4550862.0701   5  15   3.2472   1.6944   4.3743   0.6379   1.7079   2.4743   0.00    0.0    0.02839    0.01294    0.00671   0.00000  0.00000  0.00000  0.00000  0.00000  0.00000
2268 259455.000   4402957.4316    666835.6722   4550862.0861   5  15   3.2472   1.6945   4.3753   0.6385   1.7084   2.4749   0.00    0.0    0.01242   -0.01274   -0.00081   0.00000  0.00000  0.00000  0.00000  0.00000  0.00000
2268 259456.000   4402957.4346    666835.5508   4550862.0260   5  15   3.2472   1.6946   4.3764   0.6392   1.7090   2.4756   0.00    0.0   -0.01160   -0.00297   -0.06469   0.00000  0.00000  0.00000  0.00000  0.00000  0.00000
2268 259457.000   4402957.2863    666835.6666   4550862.0756   5  15   3.2472   1.6947   4.3774   0.6399   1.7095   2.4762   0.00    0.0    0.03684    0.02103    0.02030   0.00000  0.00000  0.00000  0.00000  0.00000  0.00000
2268 259458.000   4402957.5580    666835.8108   4550862.5136   5  15   3.2472   1.6948   4.3785   0.6406   1.7101   2.4769   0.00    0.0    0.00702   -0.01139    0.04758   0.00000  0.00000  0.00000  0.00000  0.00000  0.00000
2268 259459.000   4402957.6028    666835.7286   4550861.9447   5  15   3.2472   1.6949   4.3795   0.6413   1.7107   2.4775   0.00    0.0   -0.00879    0.00330   -0.07155   0.00000  0.00000  0.00000  0.00000  0.00000  0.00000
2268 259460.000   4402957.5150    666835.9344   4550862.2147   5  15   3.2472   1.6950   4.3806   0.6419   1.7112   2.4782   0.00    0.0    0.02115    0.00811   -0.04952   0.00000  0.00000  0.00000  0.00000  0.00000  0.00000
2268 259461.000   4402957.4852    666835.9256   4550862.0277   5  15   3.2472   1.6951   4.3816   0.6426   1.7118   2.4788   0.00    0.0    0.00602    0.00089    0.04920   0.00000  0.00000  0.00000  0.00000  0.00000  0.00000
2268 259462.000   4402958.1934    666835.8639   4550862.1893   5  15   3.2472   1.6952   4.3826   0.6433   1.7124   2.4795   0.00    0.0   -0.07233   -0.03295   -0.10004   0.00000  0.00000  0.00000  0.00000  0.00000  0.00000
2268 259463.000   4402958.8253    666835.7369   4550862.6649   5  15   3.2472   1.6953   4.3837   0.6440   1.7129   2.4801   0.00    0.0    0.00489    0.00019    0.01276   0.00000  0.00000  0.00000  0.00000  0.00000  0.00000
2268 259464.000   4402959.1088    666835.7611   4550862.5880   5  15   3.2472   1.6954   4.3847   0.6446   1.7135   2.4807   0.00    0.0   -0.00362   -0.01104   -0.04780   0.00000  0.00000  0.00000  0.00000  0.00000  0.00000
2268 259465.000   4402959.1018    666835.7758   4550862.4746   5  15   3.2472   1.6955   4.3858   0.6453   1.7140   2.4814   0.00    0.0   -0.04657   -0.03504   -0.02565   0.00000  0.00000  0.00000  0.00000  0.00000  0.00000
2268 259466.000   4402958.9096    666835.6481   4550862.1776   5  15   3.2472   1.6956   4.3868   0.6460   1.7146   2.4820   0.00    0.0    0.01250    0.00460   -0.01181   0.00000  0.00000  0.00000  0.00000  0.00000  0.00000
2268 259467.000   4402958.8769    666835.5472   4550861.8502   5  15   3.2472   1.6957   4.3879   0.6466   1.7152   2.4827   0.00    0.0    0.02964    0.00131   -0.01507   0.00000  0.00000  0.00000  0.00000  0.00000  0.00000
2268 259468.000   4402958.4354    666835.5761   4550861.5625   5  15   3.2472   1.6958   4.3889   0.6473   1.7157   2.4833   0.00    0.0   -0.01212   -0.01926    0.01225   0.00000  0.00000  0.00000  0.00000  0.00000  0.00000
2268 259469.000   4402957.8052    666835.5265   4550861.0666   5  15   3.2471   1.6959   4.3899   0.6480   1.7163   2.4839   0.00    0.0    0.01482   -0.01418   -0.01005   0.00000  0.00000  0.00000  0.00000  0.00000  0.00000
2268 259470.000   4402957.8034    666835.4464   4550861.3966   5  15   3.2471   1.6960   4.3910   0.6486   1.7169   2.4846   0.00    0.0   -0.02140   -0.01411    0.05177   0.00000  0.00000  0.00000  0.00000  0.00000  0.00000
2268 259471.000   4402957.6690    666835.4293   4550861.3918   5  15   3.2471   1.6961   4.3920   0.6493   1.7174   2.4852   0.00    0.0   -0.02455   -0.03560   -0.00833   0.00000  0.00000  0.00000  0.00000  0.00000  0.00000
2268 259472.000   4402957.7322    666835.5692   4550861.6689   5  15   3.2471   1.6962   4.3930   0.6499   1.7180   2.4858   0.00    0.0    0.00330    0.00008   -0.02325   0.00000  0.00000  0.00000  0.00000  0.00000  0.00000
2268 259473.000   4402957.9819    666835.7327   4550861.8940   5  15   3.2471   1.6964   4.3941   0.6506   1.7185   2.4864   0.00    0.0   -0.02697   -0.00800    0.03829   0.00000  0.00000  0.00000  0.00000  0.00000  0.00000
2268 259474.000   4402957.6778    666835.6970   4550861.6141   5  15   3.2471   1.6965   4.3951   0.6513   1.7191   2.4871   0.00    0.0    0.00929   -0.03040    0.04732   0.00000  0.00000  0.00000  0.00000  0.00000  0.00000
2268 259475.000   4402957.9029    666835.8482   4550862.0802   5  15   3.2471   1.6966   4.3961   0.6519   1.7197   2.4877   0.00    0.0   -0.03390   -0.01153   -0.06075   0.00000  0.00000  0.00000  0.00000  0.00000  0.00000
2268 259476.000   4402958.6657    666835.8445   4550862.6259   5  15   3.2471   1.6967   4.3971   0.6526   1.7202   2.4883   0.00    0.0    0.01596    0.02396    0.10358   0.00000  0.00000  0.00000  0.00000  0.00000  0.00000
2268 259477.000   4402958.2423    666835.7677   4550862.6884   5  15   3.2471   1.6968   4.3982   0.6532   1.7208   2.4889   0.00    0.0    0.01487    0.00960    0.04976   0.00000  0.00000  0.00000  0.00000  0.00000  0.00000
2268 259478.000   4402958.1729    666835.8430   4550862.6217   5  15   3.2471   1.6969   4.3992   0.6539   1.7213   2.4896   0.00    0.0    0.00613   -0.01982   -0.07213   0.00000  0.00000  0.00000  0.00000  0.00000  0.00000
2268 259479.000   4402957.8885    666835.9072   4550861.9472   5  15   3.2471   1.6970   4.4002   0.6545   1.7219   2.4902   0.00    0.0   -0.08468   -0.00115   -0.11421   0.00000  0.00000  0.00000  0.00000  0.00000  0.00000
2268 259480.000   4402957.5049    666835.7918   4550861.5085   5  15   3.2471   1.6971   4.4012   0.6552   1.7225   2.4908   0.00    0.0    0.01815    0.00628    0.07342   0.00000  0.00000  0.00000  0.00000  0.00000  0.00000
2268 259481.000   4402957.6802    666835.9073   4550861.8483   5  15   3.2471   1.6972   4.4023   0.6558   1.7230   2.4914   0.00    0.0    0.00486    0.01877   -0.03898   0.00000  0.00000  0.00000  0.00000  0.00000  0.00000
2268 259482.000   4402958.0276    666835.9317   4550862.3586   5  15   3.2471   1.6973   4.4033   0.6565   1.7236   2.4920   0.00    0.0    0.04491    0.02728    0.10831   0.00000  0.00000  0.00000  0.00000  0.00000  0.00000
2268 259483.000   4402958.2534    666835.9389   4550862.2925   5  15   3.2471   1.6974   4.4043   0.6571   1.7241   2.4927   0.00    0.0    0.02017   -0.00788   -0.01561   0.00000  0.00000  0.00000  0.00000  0.00000  0.00000
2268 259484.000   4402958.5792    666836.1699   4550862.9050   5  15   3.2471   1.6975   4.4053   0.6578   1.7247   2.4933   0.00    0.0   -0.04154    0.00028   -0.04846   0.00000  0.00000  0.00000  0.00000  0.00000  0.00000
2268 259485.000   4402958.1813    666836.1138   4550862.5866   5  15   3.2471   1.6976   4.4063   0.6584   1.7253   2.4939   0.00    0.0    0.02017   -0.02242    0.02941   0.00000  0.00000  0.00000  0.00000  0.00000  0.00000
2268 259486.000   4402958.1724    666836.0451   4550862.8156   5  15   3.2471   1.6977   4.4073   0.6590   1.7258   2.4945   0.00    0.0    0.04987    0.01593    0.03298   0.00000  0.00000  0.00000  0.00000  0.00000  0.00000
2268 259487.000   4402957.6497    666836.0155   4550862.4912   5  15   3.2471   1.6979   4.4083   0.6597   1.7264   2.4951   0.00    0.0    0.01040    0.02773    0.00138   0.00000  0.00000  0.00000  0.00000  0.00000  0.00000
2268 259488.000   4402957.5430    666835.9578   4550862.2673   5  15   3.2471   1.6980   4.4093   0.6603   1.7269   2.4957   0.00    0.0   -0.01229   -0.00770   -0.04958   0.00000  0.00000  0.00000  0.00000  0.00000  0.00000
2268 259489.000   4402957.6603    666836.0888   4550862.5019   5  15   3.2471   1.6981   4.4103   0.6610   1.7275   2.4963   0.00    0.0    0.02620    0.01560    0.00333   0.00000  0.00000  0.00000  0.00000  0.00000  0.00000
2268 259490.000   4402957.2491    666835.9061   4550861.6700   5  15   3.2471   1.6982   4.4113   0.6616   1.7280   2.4969   0.00    0.0    0.05542    0.00340    0.06815   0.00000  0.00000  0.00000  0.00000  0.00000  0.00000
2268 259491.000   4402957.3087    666835.7362   4550861.7573   5  15   3.2470   1.6983   4.4123   0.6622   1.7286   2.4975   0.00    0.0    0.01964    0.00372    0.04288   0.00000  0.00000  0.00000  0.00000  0.00000  0.00000
2268 259492.000   4402957.2406    666835.8551   4550861.6114   5  15   3.2470   1.6984   4.4133   0.6629   1.7291   2.4981   0.00    0.0    0.04976    0.00531    0.13390   0.00000  0.00000  0.00000  0.00000  0.00000  0.00000
2268 259493.000   4402957.4494    666835.8756   4550862.0361   5  15   3.2470   1.6985   4.4143   0.6635   1.7297   2.4988   0.00    0.0   -0.01825    0.00868   -0.01863   0.00000  0.00000  0.00000  0.00000  0.00000  0.00000
