% program   : GINav v0.1.0
% obs start : 2023/06/28 00:00:00.0
% obs end   : 2023/06/28 02:00:00.0
% mode      : SPP
% system    : GPS GALILEO 
% nfreqs    : 2
% elev mask : 10.0 deg
% ephemeris : broadcast
% ionos opt : broadcast model
% trops opt : Saastamoinen model
%
%  GPST              x-ecef(m)      y-ecef(m)      z-ecef(m)   Q  ns   sdx(m)   sdy(m)   sdz(m)  sdxy(m)  sdyz(m)  sdzx(m) age(s)  ratio    vx(m/s)    vy(m/s)    vz(m/s)      sdvx     sdvy     sdvz    sdvxy    sdvyz    sdvzx
2268 259201.000   4402957.0440    666835.9303   4550862.2593   5  14   1.9004   0.6167   1.3009   0.2263   0.3242   0.9935   0.00    0.0    0.00695   -0.00197   -0.00038   0.00000  0.00000  0.00000  0.00000  0.00000  0.00000
2268 259202.000   4402957.0445    666835.9300   4550862.2591   5  14   1.9003   0.6167   1.3008   0.2263   0.3241   0.9934   0.00    0.0    0.00833   -0.00198    0.00021   0.00000  0.00000  0.00000  0.00000  0.00000  0.00000
2268 259203.000   4402957.0439    666835.9300   4550862.2593   5  14   1.9002   0.6167   1.3007   0.2263   0.3240   0.9933   0.00    0.0    0.00743   -0.00209   -0.00038   0.00000  0.00000  0.00000  0.00000  0.00000  0.00000
2268 259204.000   4402957.0446    666835.9304   4550862.2594   5  14   1.9001   0.6168   1.3007   0.2263   0.3240   0.9933   0.00    0.0    0.00680   -0.00201   -0.00026   0.00000  0.00000  0.00000  0.00000  0.00000  0.00000
2268 259205.000   4402957.0442    666835.9301   4550862.2588   5  14   1.8999   0.6168   1.3006   0.2263   0.3239   0.9932   0.00    0.0    0.00748   -0.00218   -0.00030   0.00000  0.00000  0.00000  0.00000  0.00000  0.00000
2268 259206.000   4402957.0431    666835.9304   4550862.2589   5  14   1.8998   0.6168   1.3006   0.2262   0.3239   0.9931   0.00    0.0    0.00758   -0.00186   -0.00044   0.00000  0.00000  0.00000  0.00000  0.00000  0.00000
2268 259207.000   4402957.0435    666835.9303   4550862.2587   5  14   1.8997   0.6168   1.3005   0.2262   0.3238   0.9930   0.00    0.0    0.00764   -0.00210   -0.00007   0.00000  0.00000  0.00000  0.00000  0.00000  0.00000
2268 259208.000   4402957.0428    666835.9300   4550862.2588   5  14   1.8996   0.6168   1.3005   0.2262   0.3238   0.9929   0.00    0.0    0.00754   -0.00197    0.00014   0.00000  0.00000  0.00000  0.00000  0.00000  0.00000
2268 259209.000   4402957.0432    666835.9300   4550862.2590   5  14   1.8995   0.6169   1.3004   0.2262   0.3237   0.9929   0.00    0.0    0.00680   -0.00212   -0.00030   0.00000  0.00000  0.00000  0.00000  0.00000  0.00000
2268 259210.000   4402957.0438    666835.9301   4550862.2589   5  14   1.8993   0.6169   1.3004   0.2261   0.3236   0.9928   0.00    0.0    0.00715   -0.00211   -0.00007   0.00000  0.00000  0.00000  0.00000  0.00000  0.00000
2268 259211.000   4402957.0433    666835.9304   4550862.2586   5  14   1.8992   0.6169   1.3003   0.2261   0.3236   0.9927   0.00    0.0    0.00679   -0.00201   -0.00028   0.00000  0.00000  0.00000  0.00000  0.00000  0.00000
2268 259212.000   4402957.0437    666835.9305   4550862.2591   5  14   1.8991   0.6169   1.3003   0.2261   0.3235   0.9926   0.00    0.0    0.00804   -0.00206   -0.00045   0.00000  0.00000  0.00000  0.00000  0.00000  0.00000
2268 259213.000   4402957.0431    666835.9303   4550862.2586   5  14   1.8990   0.6170   1.3002   0.2261   0.3235   0.9925   0.00    0.0    0.00744   -0.00201    0.00021   0.00000  0.00000  0.00000  0.00000  0.00000  0.00000
2268 259214.000   4402957.0427    666835.9303   4550862.2584   5  14   1.8988   0.6170   1.3002   0.2261   0.3234   0.9925   0.00    0.0    0.00761   -0.00213    0.00008   0.00000  0.00000  0.00000  0.00000  0.00000  0.00000
2268 259215.000   4402957.0429    666835.9304   4550862.2582   5  14   1.8987   0.6170   1.3001   0.2260   0.3234   0.9924   0.00    0.0    0.00718   -0.00212   -0.00036   0.00000  0.00000  0.00000  0.00000  0.00000  0.00000
2268 259216.000   4402957.0437    666835.9302   4550862.2588   5  14   1.8986   0.6170   1.3000   0.2260   0.3233   0.9923   0.00    0.0    0.00749   -0.00212    0.00014   0.00000  0.00000  0.00000  0.00000  0.00000  0.00000
2268 259217.000   4402957.0432    666835.9302   4550862.2583   5  14   1.8985   0.6170   1.3000   0.2260   0.3232   0.9922   0.00    0.0    0.00712   -0.00210    0.00003   0.00000  0.00000  0.00000  0.00000  0.00000  0.00000
2268 259218.000   4402957.0431    666835.9303   4550862.2583   5  14   1.8984   0.6171   1.2999   0.2260   0.3232   0.9921   0.00    0.0    0.00693   -0.00211   -0.00028   0.00000  0.00000  0.00000  0.00000  0.00000  0.00000
2268 259219.000   4402957.0433    666835.9302   4550862.2583   5  14   1.8982   0.6171   1.2999   0.2260   0.3231   0.9921   0.00    0.0    0.00655   -0.00217   -0.00034   0.00000  0.00000  0.00000  0.00000  0.00000  0.00000
2268 259220.000   4402957.0421    666835.9302   4550862.2577   5  14   1.8981   0.6171   1.2998   0.2259   0.3231   0.9920   0.00    0.0    0.00728   -0.00212    0.00008   0.00000  0.00000  0.00000  0.00000  0.00000  0.00000
2268 259221.000   4402957.0428    666835.9304   4550862.2583   5  14   1.8980   0.6171   1.2998   0.2259   0.3230   0.9919   0.00    0.0    0.00670   -0.00199   -0.00034   0.00000  0.00000  0.00000  0.00000  0.00000  0.00000
2268 259222.000   4402957.0432    666835.9303   4550862.2582   5  14   1.8979   0.6172   1.2997   0.2259   0.3230   0.9918   0.00    0.0    0.00704   -0.00212    0.00012   0.00000  0.00000  0.00000  0.00000  0.00000  0.00000
2268 259223.000   4402957.0418    666835.9302   4550862.2578   5  14   1.8978   0.6172   1.2997   0.2259   0.3229   0.9917   0.00    0.0    0.00728   -0.00193    0.00001   0.00000  0.00000  0.00000  0.00000  0.00000  0.00000
2268 259224.000   4402957.0417    666835.9304   4550862.2577   5  14   1.8976   0.6172   1.2996   0.2259   0.3228   0.9917   0.00    0.0    0.00721   -0.00201    0.00027   0.00000  0.00000  0.00000  0.00000  0.00000  0.00000
2268 259225.000   4402957.0432    666835.9303   4550862.2583   5  14   1.8975   0.6172   1.2996   0.2258   0.3228   0.9916   0.00    0.0    0.00706   -0.00195    0.00003   0.00000  0.00000  0.00000  0.00000  0.00000  0.00000
2268 259226.000   4402957.0417    666835.9304   4550862.2577   5  14   1.8974   0.6173   1.2995   0.2258   0.3227   0.9915   0.00    0.0    0.00690   -0.00196   -0.00003   0.00000  0.00000  0.00000  0.00000  0.00000  0.00000
2268 259227.000   4402957.0430    666835.9303   4550862.2583   5  14   1.8973   0.6173   1.2994   0.2258   0.3227   0.9914   0.00    0.0    0.00754   -0.00187    0.00014   0.00000  0.00000  0.00000  0.00000  0.00000  0.00000
2268 259228.000   4402957.0425    666835.9304   4550862.2578   5  14   1.8972   0.6173   1.2994   0.2258   0.3226   0.9913   0.00    0.0    0.00714   -0.00203    0.00013   0.00000  0.00000  0.00000  0.00000  0.00000  0.00000
2268 259229.000   4402957.0430    666835.9304   4550862.2583   5  14   1.8970   0.6173   1.2993   0.2258   0.3226   0.9913   0.00    0.0    0.00772   -0.00185    0.00023   0.00000  0.00000  0.00000  0.00000  0.00000  0.00000
2268 259230.000   4402957.0420    666835.9307   4550862.2576   5  14   1.8969   0.6173   1.2993   0.2257   0.3225   0.9912   0.00    0.0    0.00722   -0.00217    0.00019   0.00000  0.00000  0.00000  0.00000  0.00000  0.00000
2268 259231.000   4402957.0413    666835.9304   4550862.2574   5  14   1.8968   0.6174   1.2992   0.2257   0.3224   0.9911   0.00    0.0    0.00780   -0.00185    0.00004   0.00000  0.00000  0.00000  0.00000  0.00000  0.00000
2268 259232.000   4402957.0420    666835.9306   4550862.2574   5  14   1.8967   0.6174   1.2992   0.2257   0.3224   0.9910   0.00    0.0    0.00718   -0.00183    0.00052   0.00000  0.00000  0.00000  0.00000  0.00000  0.00000
2268 259233.000   4402957.0430    666835.9307   4550862.2580   5  14   1.8965   0.6174   1.2991   0.2257   0.3223   0.9909   0.00    0.0    0.00765   -0.00210    0.00068   0.00000  0.00000  0.00000  0.00000  0.00000  0.00000
2268 259234.000   4402957.0422    666835.9305   4550862.2577   5  14   1.8964   0.6174   1.2991   0.2257   0.3223   0.9909   0.00    0.0    0.00739   -0.00200    0.00033   0.00000  0.00000  0.00000  0.00000  0.00000  0.00000
2268 259235.000   4402957.0423    666835.9304   4550862.2573   5  14   1.8963   0.6175   1.2990   0.2256   0.3222   0.9908   0.00    0.0    0.00682   -0.00210   -0.00013   0.00000  0.00000  0.00000  0.00000  0.00000  0.00000
2268 259236.000   4402957.0414    666835.9306   4550862.2571   5  14   1.8962   0.6175   1.2989   0.2256   0.3222   0.9907   0.00    0.0    0.00732   -0.00215   -0.00001   0.00000  0.00000  0.00000  0.00000  0.00000  0.00000
2268 259237.000   4402957.0409    666835.9305   4550862.2568   5  14   1.8961   0.6175   1.2989   0.2256   0.3221   0.9906   0.00    0.0    0.00743   -0.00189    0.00009   0.00000  0.00000  0.00000  0.00000  0.00000  0.00000
2268 259238.000   4402957.0417    666835.9306   4550862.2569   5  14   1.8959   0.6175   1.2988   0.2256   0.3220   0.9905   0.00    0.0    0.00757   -0.00190    0.00020   0.00000  0.00000  0.00000  0.00000  0.00000  0.00000
2268 259239.000   4402957.0417    666835.9305   4550862.2576   5  14   1.8958   0.6176   1.2988   0.2256   0.3220   0.9905   0.00    0.0    0.00750   -0.00188    0.00018   0.00000  0.00000  0.00000  0.00000  0.00000  0.00000
2268 259240.000   4402957.0412    666835.9307   4550862.2571   5  14   1.8957   0.6176   1.2987   0.2255   0.3219   0.9904   0.00    0.0    0.00743   -0.00180    0.00028   0.00000  0.00000  0.00000  0.00000  0.00000  0.00000
2268 259241.000   4402957.0414    666835.9307   4550862.2572   5  14   1.8956   0.6176   1.2987   0.2255   0.3219   0.9903   0.00    0.0    0.00780   -0.00189    0.00033   0.00000  0.00000  0.00000  0.00000  0.00000  0.00000
2268 259242.000   4402957.0409    666835.9305   4550862.2571   5  14   1.8955   0.6176   1.2986   0.2255   0.3218   0.9902   0.00    0.0    0.00734   -0.00187    0.00027   0.00000  0.00000  0.00000  0.00000  0.00000  0.00000
2268 259243.000   4402957.0410    666835.9306   4550862.2566   5  14   1.8953   0.6176   1.2986   0.2255   0.3218   0.9902   0.00    0.0    0.00782   -0.00217   -0.00000   0.00000  0.00000  0.00000  0.00000  0.00000  0.00000
2268 259244.000   4402957.0413    666835.9307   4550862.2569   5  14   1.8952   0.6177   1.2985   0.2255   0.3217   0.9901   0.00    0.0    0.00692   -0.00199    0.00012   0.00000  0.00000  0.00000  0.00000  0.00000  0.00000
2268 259245.000   4402957.0402    666835.9307   4550862.2566   5  14   1.8951   0.6177   1.2984   0.2254   0.3216   0.9900   0.00    0.0    0.00676   -0.00183   -0.00010   0.00000  0.00000  0.00000  0.00000  0.00000  0.00000
2268 259246.000   4402957.0407    666835.9308   4550862.2567   5  14   1.8950   0.6177   1.2984   0.2254   0.3216   0.9899   0.00    0.0    0.00684   -0.00199    0.00015   0.00000  0.00000  0.00000  0.00000  0.00000  0.00000
2268 259247.000   4402957.0414    666835.9308   4550862.2566   5  14   1.8949   0.6177   1.2983   0.2254   0.3215   0.9898   0.00    0.0    0.00768   -0.00177    0.00049   0.00000  0.00000  0.00000  0.00000  0.00000  0.00000
2268 259248.000   4402957.0404    666835.9308   4550862.2567   5  14   1.8947   0.6178   1.2983   0.2254   0.3215   0.9898   0.00    0.0    0.00773   -0.00200    0.00047   0.00000  0.00000  0.00000  0.00000  0.00000  0.00000
2268 259249.000   4402957.0413    666835.9308   4550862.2565   5  14   1.8946   0.6178   1.2982   0.2254   0.3214   0.9897   0.00    0.0    0.00724   -0.00200   -0.00014   0.00000  0.00000  0.00000  0.00000  0.00000  0.00000
2268 259250.000   4402957.0414    666835.9310   4550862.2573   5  14   1.8945   0.6178   1.2982   0.2253   0.3213   0.9896   0.00    0.0    0.00744   -0.00174    0.00063   0.00000  0.00000  0.00000  0.00000  0.00000  0.00000
2268 259251.000   4402957.0410    666835.9307   4550862.2571   5  14   1.8944   0.6178   1.2981   0.2253   0.3213   0.9895   0.00    0.0    0.00692   -0.00202   -0.00004   0.00000  0.00000  0.00000  0.00000  0.00000  0.00000
2268 259252.000   4402957.0398    666835.9307   4550862.2566   5  14   1.8942   0.6179   1.2981   0.2253   0.3212   0.9894   0.00    0.0    0.00768   -0.00200    0.00031   0.00000  0.00000  0.00000  0.00000  0.00000  0.00000
2268 259253.000   4402957.0406    666835.9309   4550862.2567   5  14   1.8941   0.6179   1.2980   0.2253   0.3212   0.9894   0.00    0.0    0.00688   -0.00199   -0.00024   0.00000  0.00000  0.00000  0.00000  0.00000  0.00000
2268 259254.000   4402957.0413    666835.9308   4550862.2567   5  14   1.8940   0.6179   1.2979   0.2253   0.3211   0.9893   0.00    0.0    0.00805   -0.00198    0.00043   0.00000  0.00000  0.00000  0.00000  0.00000  0.00000
2268 259255.000   4402957.0398    666835.9309   4550862.2558   5  14   1.8939   0.6179   1.2979   0.2252   0.3211   0.9892   0.00    0.0    0.00755   -0.00204    0.00064   0.00000  0.00000  0.00000  0.00000  0.00000  0.00000
2268 259256.000   4402957.0400    666835.9309   4550862.2564   5  14   1.8938   0.6179   1.2978   0.2252   0.3210   0.9891   0.00    0.0    0.00734   -0.00220    0.00075   0.00000  0.00000  0.00000  0.00000  0.00000  0.00000
2268 259257.000   4402957.0400    666835.9311   4550862.2557   5  14   1.8936   0.6180   1.2978   0.2252   0.3209   0.9891   0.00    0.0    0.00737   -0.00203    0.00001   0.00000  0.00000  0.00000  0.00000  0.00000  0.00000
2268 259258.000   4402957.0411    666835.9305   4550862.2564   5  14   1.8935   0.6180   1.2977   0.2252   0.3209   0.9890   0.00    0.0    0.00703   -0.00226    0.00032   0.00000  0.00000  0.00000  0.00000  0.00000  0.00000
2268 259259.000   4402957.0401    666835.9308   4550862.2564   5  14   1.8934   0.6180   1.2977   0.2252   0.3208   0.9889   0.00    0.0    0.00674   -0.00212   -0.00018   0.00000  0.00000  0.00000  0.00000  0.00000  0.00000
2268 259260.000   4402957.0398    666835.9308   4550862.2557   5  14   1.8933   0.6180   1.2976   0.2251   0.3208   0.9888   0.00    0.0    0.00831   -0.00196    0.00068   0.00000  0.00000  0.00000  0.00000  0.00000  0.00000
2268 259261.000   4402957.0403    666835.9309   4550862.2558   5  14   1.8932   0.6181   1.2976   0.2251   0.3207   0.9887   0.00    0.0    0.00745   -0.00181    0.00006   0.00000  0.00000  0.00000  0.00000  0.00000  0.00000
2268 259262.000   4402957.0394    666835.9308   4550862.2559   5  14   1.8930   0.6181   1.2975   0.2251   0.3207   0.9887   0.00    0.0    0.00764   -0.00182    0.00063   0.00000  0.00000  0.00000  0.00000  0.00000  0.00000
2268 259263.000   4402957.0402    666835.9310   4550862.2561   5  14   1.8929   0.6181   1.2974   0.2251   0.3206   0.9886   0.00    0.0    0.00706   -0.00190    0.00019   0.00000  0.00000  0.00000  0.00000  0.00000  0.00000
2268 259264.000   4402957.0391    666835.9310   4550862.2553   5  14   1.8928   0.6181   1.2974   0.2251   0.3205   0.9885   0.00    0.0    0.00719   -0.00197    0.00028   0.00000  0.00000  0.00000  0.00000  0.00000  0.00000
2268 259265.000   4402957.0395    666835.9310   4550862.2558   5  14   1.8927   0.6182   1.2973   0.2251   0.3205   0.9884   0.00    0.0    0.00752   -0.00188    0.00028   0.00000  0.00000  0.00000  0.00000  0.00000  0.00000
2268 259266.000   4402957.0391    666835.9310   4550862.2554   5  14   1.8925   0.6182   1.2973   0.2250   0.3204   0.9884   0.00    0.0    0.00754   -0.00191    0.00054   0.00000  0.00000  0.00000  0.00000  0.00000  0.00000
2268 259267.000   4402957.0400    666835.9311   4550862.2560   5  14   1.8924   0.6182   1.2972   0.2250   0.3204   0.9883   0.00    0.0    0.00713   -0.00213   -0.00045   0.00000  0.00000  0.00000  0.00000  0.00000  0.00000
2268 259268.000   4402957.0394    666835.9308   4550862.2552   5  14   1.8923   0.6182   1.2972   0.2250   0.3203   0.9882   0.00    0.0    0.00719   -0.00203    0.00033   0.00000  0.00000  0.00000  0.00000  0.00000  0.00000
2268 259269.000   4402957.0392    666835.9308   4550862.2558   5  14   1.8922   0.6183   1.2971   0.2250   0.3202   0.9881   0.00    0.0    0.00815   -0.00193    0.00070   0.00000  0.00000  0.00000  0.00000  0.00000  0.00000
2268 259270.000   4402957.0396    666835.9309   4550862.2551   5  14   1.8921   0.6183   1.2970   0.2250   0.3202   0.9880   0.00    0.0    0.00751   -0.00198    0.00049   0.00000  0.00000  0.00000  0.00000  0.00000  0.00000
2268 259271.000   4402957.0398    666835.9308   4550862.2555   5  14   1.8919   0.6183   1.2970   0.2249   0.3201   0.9880   0.00    0.0    0.00771   -0.00184    0.00048   0.00000  0.00000  0.00000  0.00000  0.00000  0.00000
2268 259272.000   4402957.0394    666835.9309   4550862.2549   5  14   1.8918   0.6183   1.2969   0.2249   0.3201   0.9879   0.00    0.0    0.00807   -0.00184    0.00049   0.00000  0.00000  0.00000  0.00000  0.00000  0.00000
2268 259273.000   4402957.0388    666835.9309   4550862.2545   5  14   1.8917   0.6183   1.2969   0.2249   0.3200   0.9878   0.00    0.0    0.00752   -0.00192    0.00054   0.00000  0.00000  0.00000  0.00000  0.00000  0.00000
2268 259274.000   4402957.0390    666835.9311   4550862.2551   5  14   1.8916   0.6184   1.2968   0.2249   0.3200   0.9877   0.00    0.0    0.00778   -0.00190    0.00057   0.00000  0.00000  0.00000  0.00000  0.00000  0.00000
2268 259275.000   4402957.0391    666835.9310   4550862.2552   5  14   1.8915   0.6184   1.2968   0.2249   0.3199   0.9877   0.00    0.0    0.00685   -0.00208   -0.00013   0.00000  0.00000  0.00000  0.00000  0.00000  0.00000
2268 259276.000   4402957.0399    666835.9310   4550862.2549   5  14   1.8913   0.6184   1.2967   0.2249   0.3198   0.9876   0.00    0.0    0.00845   -0.00164    0.00101   0.00000  0.00000  0.00000  0.00000  0.00000  0.00000
2268 259277.000   4402957.0391    666835.9310   4550862.2550   5  14   1.8912   0.6184   1.2966   0.2248   0.3198   0.9875   0.00    0.0    0.00731   -0.00183    0.00057   0.00000  0.00000  0.00000  0.00000  0.00000  0.00000
2268 259278.000   4402957.0391    666835.9311   4550862.2554   5  14   1.8911   0.6185   1.2966   0.2248   0.3197   0.9874   0.00    0.0    0.00723   -0.00186    0.00053   0.00000  0.00000  0.00000  0.00000  0.00000  0.00000
2268 259279.000   4402957.0384    666835.9311   4550862.2548   5  14   1.8910   0.6185   1.2965   0.2248   0.3197   0.9873   0.00    0.0    0.00813   -0.00191    0.00114   0.00000  0.00000  0.00000  0.00000  0.00000  0.00000
2268 259280.000   4402957.0385    666835.9309   4550862.2551   5  14   1.8908   0.6185   1.2965   0.2248   0.3196   0.9873   0.00    0.0    0.00747   -0.00175    0.00021   0.00000  0.00000  0.00000  0.00000  0.00000  0.00000
2268 259281.000   4402957.0388    666835.9312   4550862.2548   5  14   1.8907   0.6185   1.2964   0.2248   0.3195   0.9872   0.00    0.0    0.00683   -0.00208    0.00048   0.00000  0.00000  0.00000  0.00000  0.00000  0.00000
2268 259282.000   4402957.0388    666835.9311   4550862.2548   5  14   1.8906   0.6186   1.2964   0.2247   0.3195   0.9871   0.00    0.0    0.00788   -0.00188    0.00049   0.00000  0.00000  0.00000  0.00000  0.00000  0.00000
2268 259283.000   4402957.0381    666835.9312   4550862.2542   5  14   1.8905   0.6186   1.2963   0.2247   0.3194   0.9870   0.00    0.0    0.00709   -0.00182    0.00056   0.00000  0.00000  0.00000  0.00000  0.00000  0.00000
2268 259284.000   4402957.0385    666835.9311   4550862.2545   5  14   1.8904   0.6186   1.2962   0.2247   0.3194   0.9870   0.00    0.0    0.00797   -0.00186    0.00088   0.00000  0.00000  0.00000  0.00000  0.00000  0.00000
2268 259285.000   4402957.0384    666835.9311   4550862.2543   5  14   1.8902   0.6186   1.2962   0.2247   0.3193   0.9869   0.00    0.0    0.00778   -0.00186    0.00073   0.00000  0.00000  0.00000  0.00000  0.00000  0.00000
2268 259286.000   4402957.0387    666835.9311   4550862.2540   5  14   1.8901   0.6187   1.2961   0.2247   0.3193   0.9868   0.00    0.0    0.00744   -0.00192    0.00031   0.00000  0.00000  0.00000  0.00000  0.00000  0.00000
2268 259287.000   4402957.0382    666835.9314   4550862.2545   5  14   1.8900   0.6187   1.2961   0.2247   0.3192   0.9867   0.00    0.0    0.00823   -0.00175    0.00082   0.00000  0.00000  0.00000  0.00000  0.00000  0.00000
2268 259288.000   4402957.0380    666835.9313   4550862.2547   5  14   1.8899   0.6187   1.2960   0.2246   0.3191   0.9867   0.00    0.0    0.00801   -0.00188    0.00072   0.00000  0.00000  0.00000  0.00000  0.00000  0.00000
2268 259289.000   4402957.0380    666835.9309   4550862.2544   5  14   1.8898   0.6187   1.2959   0.2246   0.3191   0.9866   0.00    0.0    0.00749   -0.00179    0.00080   0.00000  0.00000  0.00000  0.00000  0.00000  0.00000
2268 259290.000   4402957.0385    666835.9310   4550862.2539   5  14   1.8896   0.6188   1.2959   0.2246   0.3190   0.9865   0.00    0.0    0.00802   -0.00163    0.00113   0.00000  0.00000  0.00000  0.00000  0.00000  0.00000
2268 259291.000   4402957.0380    666835.9311   4550862.2532   5  14   1.8895   0.6188   1.2958   0.2246   0.3190   0.9864   0.00    0.0    0.00751   -0.00195    0.00082   0.00000  0.00000  0.00000  0.00000  0.00000  0.00000
2268 259292.000   4402957.0374    666835.9312   4550862.2535   5  14   1.8894   0.6188   1.2958   0.2246   0.3189   0.9863   0.00    0.0    0.00722   -0.00176    0.00089   0.00000  0.00000  0.00000  0.00000  0.00000  0.00000
2268 259293.000   4402957.0383    666835.9312   4550862.2539   5  14   1.8893   0.6188   1.2957   0.2246   0.3188   0.9863   0.00    0.0    0.00746   -0.00198    0.00073   0.00000  0.00000  0.00000  0.00000  0.00000  0.00000
2268 259294.000   4402957.0377    666835.9313   4550862.2539   5  14   1.8892   0.6188   1.2957   0.2245   0.3188   0.9862   0.00    0.0    0.00789   -0.00165    0.00094   0.00000  0.00000  0.00000  0.00000  0.00000  0.00000
2268 259295.000   4402957.0376    666835.9312   4550862.2538   5  14   1.8890   0.6189   1.2956   0.2245   0.3187   0.9861   0.00    0.0    0.00714   -0.00198    0.00054   0.00000  0.00000  0.00000  0.00000  0.00000  0.00000
2268 259296.000   4402957.0379    666835.9312   4550862.2537   5  14   1.8889   0.6189   1.2955   0.2245   0.3187   0.9860   0.00    0.0    0.00783   -0.00179    0.00103   0.00000  0.00000  0.00000  0.00000  0.00000  0.00000
2268 259297.000   4402957.0377    666835.9313   4550862.2536   5  14   1.8888   0.6189   1.2955   0.2245   0.3186   0.9860   0.00    0.0    0.00783   -0.00170    0.00068   0.00000  0.00000  0.00000  0.00000  0.00000  0.00000
2268 259298.000   4402957.0372    666835.9313   4550862.2536   5  14   1.8887   0.6189   1.2954   0.2245   0.3186   0.9859   0.00    0.0    0.00838   -0.00191    0.00082   0.00000  0.00000  0.00000  0.00000  0.00000  0.00000
2268 259299.000   4402957.0367    666835.9313   4550862.2533   5  14   1.8885   0.6190   1.2954   0.2244   0.3185   0.9858   0.00    0.0    0.00688   -0.00184    0.00015   0.00000  0.00000  0.00000  0.00000  0.00000  0.00000
2268 259300.000   4402957.0368    666835.9314   4550862.2533   5  14   1.8884   0.6190   1.2953   0.2244   0.3184   0.9857   0.00    0.0    0.00712   -0.00182    0.00041   0.00000  0.00000  0.00000  0.00000  0.00000  0.00000
2268 259301.000   4402957.0378    666835.9313   4550862.2536   5  14   1.8883   0.6190   1.2952   0.2244   0.3184   0.9857   0.00    0.0    0.00775   -0.00208    0.00085   0.00000  0.00000  0.00000  0.00000  0.00000  0.00000
2268 259302.000   4402957.0372    666835.9315   4550862.2533   5  14   1.8882   0.6190   1.2952   0.2244   0.3183   0.9856   0.00    0.0    0.00768   -0.00179    0.00074   0.00000  0.00000  0.00000  0.00000  0.00000  0.00000
2268 259303.000   4402957.0366    666835.9311   4550862.2528   5  14   1.8881   0.6191   1.2951   0.2244   0.3183   0.9855   0.00    0.0    0.00749   -0.00191    0.00096   0.00000  0.00000  0.00000  0.00000  0.00000  0.00000
2268 259304.000   4402957.0366    666835.9315   4550862.2530   5  14   1.8879   0.6191   1.2951   0.2244   0.3182   0.9854   0.00    0.0    0.00713   -0.00176    0.00018   0.00000  0.00000  0.00000  0.00000  0.00000  0.00000
2268 259305.000   4402957.0365    666835.9315   4550862.2529   5  14   1.8878   0.6191   1.2950   0.2243   0.3181   0.9854   0.00    0.0    0.00764   -0.00180    0.00088   0.00000  0.00000  0.00000  0.00000  0.00000  0.00000
2268 259306.000   4402957.0373    666835.9313   4550862.2531   5  14   1.8877   0.6191   1.2949   0.2243   0.3181   0.9853   0.00    0.0    0.00846   -0.00169    0.00127   0.00000  0.00000  0.00000  0.00000  0.00000  0.00000
2268 259307.000   4402957.0369    666835.9316   4550862.2530   5  14   1.8876   0.6192   1.2949   0.2243   0.3180   0.9852   0.00    0.0    0.00823   -0.00178    0.00074   0.00000  0.00000  0.00000  0.00000  0.00000  0.00000
2268 259308.000   4402957.0371    666835.9313   4550862.2528   5  14   1.8875   0.6192   1.2948   0.2243   0.3180   0.9851   0.00    0.0    0.00788   -0.00172    0.00093   0.00000  0.00000  0.00000  0.00000  0.00000  0.00000
2268 259309.000   4402957.0368    666835.9316   4550862.2530   5  14   1.8873   0.6192   1.2948   0.2243   0.3179   0.9851   0.00    0.0    0.00712   -0.00197    0.00103   0.00000  0.00000  0.00000  0.00000  0.00000  0.00000
2268 259310.000   4402957.0369    666835.9315   4550862.2523   5  14   1.8872   0.6192   1.2947   0.2243   0.3178   0.9850   0.00    0.0    0.00831   -0.00175    0.00090   0.00000  0.00000  0.00000  0.00000  0.00000  0.00000
2268 259311.000   4402957.0369    666835.9314   4550862.2530   5  14   1.8871   0.6193   1.2946   0.2242   0.3178   0.9849   0.00    0.0    0.00744   -0.00188    0.00087   0.00000  0.00000  0.00000  0.00000  0.00000  0.00000
2268 259312.000   4402957.0359    666835.9316   4550862.2528   5  14   1.8870   0.6193   1.2946   0.2242   0.3177   0.9848   0.00    0.0    0.00810   -0.00183    0.00092   0.00000  0.00000  0.00000  0.00000  0.00000  0.00000
2268 259313.000   4402957.0368    666835.9315   4550862.2529   5  14   1.8868   0.6193   1.2945   0.2242   0.3177   0.9848   0.00    0.0    0.00767   -0.00180    0.00088   0.00000  0.00000  0.00000  0.00000  0.00000  0.00000
2268 259314.000   4402957.0365    666835.9313   4550862.2524   5  14   1.8867   0.6193   1.2945   0.2242   0.3176   0.9847   0.00    0.0    0.00741   -0.00165    0.00087   0.00000  0.00000  0.00000  0.00000  0.00000  0.00000
2268 259315.000   4402957.0361    666835.9314   4550862.2524   5  14   1.8866   0.6193   1.2944   0.2242   0.3176   0.9846   0.00    0.0    0.00760   -0.00191    0.00103   0.00000  0.00000  0.00000  0.00000  0.00000  0.00000
2268 259316.000   4402957.0351    666835.9316   4550862.2519   5  14   1.8865   0.6194   1.2943   0.2242   0.3175   0.9845   0.00    0.0    0.00716   -0.00192    0.00043   0.00000  0.00000  0.00000  0.00000  0.00000  0.00000
2268 259317.000   4402957.0361    666835.9312   4550862.2525   5  14   1.8864   0.6194   1.2943   0.2241   0.3174   0.9844   0.00    0.0    0.00798   -0.00183    0.00071   0.00000  0.00000  0.00000  0.00000  0.00000  0.00000
2268 259318.000   4402957.0354    666835.9314   4550862.2518   5  14   1.8862   0.6194   1.2942   0.2241   0.3174   0.9844   0.00    0.0    0.00794   -0.00186    0.00126   0.00000  0.00000  0.00000  0.00000  0.00000  0.00000
2268 259319.000   4402957.0354    666835.9314   4550862.2512   5  14   1.8861   0.6194   1.2942   0.2241   0.3173   0.9843   0.00    0.0    0.00746   -0.00191    0.00094   0.00000  0.00000  0.00000  0.00000  0.00000  0.00000
2268 259320.000   4402957.0356    666835.9314   4550862.2521   5  14   1.8860   0.6195   1.2941   0.2241   0.3173   0.9842   0.00    0.0    0.00788   -0.00181    0.00085   0.00000  0.00000  0.00000  0.00000  0.00000  0.00000
2268 259321.000   4402957.0361    666835.9316   4550862.2523   5  14   1.8859   0.6195   1.2940   0.2241   0.3172   0.9841   0.00    0.0    0.00724   -0.00190    0.00060   0.00000  0.00000  0.00000  0.00000  0.00000  0.00000
2268 259322.000   4402957.0365    666835.9314   4550862.2516   5  14   1.8857   0.6195   1.2940   0.2241   0.3171   0.9841   0.00    0.0    0.00761   -0.00186    0.00077   0.00000  0.00000  0.00000  0.00000  0.00000  0.00000
2268 259323.000   4402957.0358    666835.9315   4550862.2517   5  14   1.8856   0.6195   1.2939   0.2241   0.3171   0.9840   0.00    0.0    0.00804   -0.00164    0.00114   0.00000  0.00000  0.00000  0.00000  0.00000  0.00000
2268 259324.000   4402957.0347    666835.9314   4550862.2513   5  14   1.8855   0.6196   1.2939   0.2240   0.3170   0.9839   0.00    0.0    0.00787   -0.00167    0.00114   0.00000  0.00000  0.00000  0.00000  0.00000  0.00000
2268 259325.000   4402957.0356    666835.9317   4550862.2516   5  14   1.8854   0.6196   1.2938   0.2240   0.3170   0.9838   0.00    0.0    0.00748   -0.00182    0.00108   0.00000  0.00000  0.00000  0.00000  0.00000  0.00000
2268 259326.000   4402957.0357    666835.9315   4550862.2517   5  14   1.8853   0.6196   1.2937   0.2240   0.3169   0.9838   0.00    0.0    0.00806   -0.00192    0.00104   0.00000  0.00000  0.00000  0.00000  0.00000  0.00000
2268 259327.000   4402957.0354    666835.9317   4550862.2512   5  14   1.8851   0.6196   1.2937   0.2240   0.3168   0.9837   0.00    0.0    0.00771   -0.00208    0.00057   0.00000  0.00000  0.00000  0.00000  0.00000  0.00000
2268 259328.000   4402957.0358    666835.9317   4550862.2515   5  14   1.8850   0.6197   1.2936   0.2240   0.3168   0.9836   0.00    0.0    0.00777   -0.00166    0.00062   0.00000  0.00000  0.00000  0.00000  0.00000  0.00000
2268 259329.000   4402957.0349    666835.9315   4550862.2510   5  14   1.8849   0.6197   1.2936   0.2240   0.3167   0.9835   0.00    0.0    0.00819   -0.00173    0.00121   0.00000  0.00000  0.00000  0.00000  0.00000  0.00000
2268 259330.000   4402957.0351    666835.9317   4550862.2511   5  14   1.8848   0.6197   1.2935   0.2239   0.3167   0.9835   0.00    0.0    0.00800   -0.00175    0.00150   0.00000  0.00000  0.00000  0.00000  0.00000  0.00000
2268 259331.000   4402957.0354    666835.9315   4550862.2508   5  14   1.8847   0.6197   1.2934   0.2239   0.3166   0.9834   0.00    0.0    0.00771   -0.00161    0.00077   0.00000  0.00000  0.00000  0.00000  0.00000  0.00000
2268 259332.000   4402957.0350    666835.9317   4550862.2510   5  14   1.8845   0.6198   1.2934   0.2239   0.3165   0.9833   0.00    0.0    0.00786   -0.00168    0.00110   0.00000  0.00000  0.00000  0.00000  0.00000  0.00000
2268 259333.000   4402957.0352    666835.9317   4550862.2513   5  14   1.8844   0.6198   1.2933   0.2239   0.3165   0.9832   0.00    0.0    0.00794   -0.00186    0.00086   0.00000  0.00000  0.00000  0.00000  0.00000  0.00000
2268 259334.000   4402957.0347    666835.9316   4550862.2510   5  14   1.8843   0.6198   1.2933   0.2239   0.3164   0.9832   0.00    0.0    0.00787   -0.00195    0.00073   0.00000  0.00000  0.00000  0.00000  0.00000  0.00000
2268 259335.000   4402957.0340    666835.9315   4550862.2506   5  14   1.8842   0.6198   1.2932   0.2239   0.3164   0.9831   0.00    0.0    0.00764   -0.00188    0.00115   0.00000  0.00000  0.00000  0.00000  0.00000  0.00000
2268 259336.000   4402957.0347    666835.9318   4550862.2506   5  14   1.8840   0.6199   1.2931   0.2238   0.3163   0.9830   0.00    0.0    0.00815   -0.00179    0.00117   0.00000  0.00000  0.00000  0.00000  0.00000  0.00000
2268 259337.000   4402957.0346    666835.9318   4550862.2508   5  14   1.8839   0.6199   1.2931   0.2238   0.3162   0.9829   0.00    0.0    0.00755   -0.00183    0.00100   0.00000  0.00000  0.00000  0.00000  0.00000  0.00000
2268 259338.000   4402957.0342    666835.9316   4550862.2500   5  14   1.8838   0.6199   1.2930   0.2238   0.3162   0.9829   0.00    0.0    0.00767   -0.00185    0.00072   0.00000  0.00000  0.00000  0.00000  0.00000  0.00000
2268 259339.000   4402957.0342    666835.9317   4550862.2505   5  14   1.8837   0.6199   1.2929   0.2238   0.3161   0.9828   0.00    0.0    0.00775   -0.00186    0.00117   0.00000  0.00000  0.00000  0.00000  0.00000  0.00000
2268 259340.000   4402957.0342    666835.9317   4550862.2503   5  14   1.8836   0.6200   1.2929   0.2238   0.3161   0.9827   0.00    0.0    0.00776   -0.00202    0.00112   0.00000  0.00000  0.00000  0.00000  0.00000  0.00000
2268 259341.000   4402957.0346    666835.9318   4550862.2505   5  14   1.8834   0.6200   1.2928   0.2238   0.3160   0.9827   0.00    0.0    0.00804   -0.00185    0.00114   0.00000  0.00000  0.00000  0.00000  0.00000  0.00000
2268 259342.000   4402957.0353    666835.9316   4550862.2507   5  14   1.8833   0.6200   1.2928   0.2238   0.3159   0.9826   0.00    0.0    0.00827   -0.00180    0.00140   0.00000  0.00000  0.00000  0.00000  0.00000  0.00000
2268 259343.000   4402957.0343    666835.9315   4550862.2503   5  14   1.8832   0.6200   1.2927   0.2237   0.3159   0.9825   0.00    0.0    0.00813   -0.00164    0.00086   0.00000  0.00000  0.00000  0.00000  0.00000  0.00000
2268 259344.000   4402957.0339    666835.9315   4550862.2502   5  14   1.8831   0.6201   1.2926   0.2237   0.3158   0.9824   0.00    0.0    0.00889   -0.00173    0.00152   0.00000  0.00000  0.00000  0.00000  0.00000  0.00000
2268 259345.000   4402957.0344    666835.9317   4550862.2499   5  13   1.8840   0.6202   1.2940   0.2251   0.3167   0.9843   0.00    0.0    0.00807   -0.00221    0.00126   0.00000  0.00000  0.00000  0.00000  0.00000  0.00000
2268 259346.000   4402957.0332    666835.9317   4550862.2493   5  13   1.8839   0.6202   1.2939   0.2251   0.3166   0.9842   0.00    0.0    0.00889   -0.00201    0.00164   0.00000  0.00000  0.00000  0.00000  0.00000  0.00000
2268 259347.000   4402957.0337    666835.9317   4550862.2493   5  13   1.8838   0.6202   1.2938   0.2251   0.3166   0.9842   0.00    0.0    0.00889   -0.00208    0.00133   0.00000  0.00000  0.00000  0.00000  0.00000  0.00000
2268 259348.000   4402957.0335    666835.9315   4550862.2491   5  13   1.8837   0.6202   1.2937   0.2250   0.3165   0.9841   0.00    0.0    0.00939   -0.00199    0.00148   0.00000  0.00000  0.00000  0.00000  0.00000  0.00000
2268 259349.000   4402957.0338    666835.9317   4550862.2495   5  13   1.8836   0.6203   1.2937   0.2250   0.3164   0.9840   0.00    0.0    0.00828   -0.00199    0.00139   0.00000  0.00000  0.00000  0.00000  0.00000  0.00000
2268 259350.000   4402957.0336    666835.9318   4550862.2495   5  13   1.8834   0.6203   1.2936   0.2250   0.3164   0.9839   0.00    0.0    0.00828   -0.00195    0.00128   0.00000  0.00000  0.00000  0.00000  0.00000  0.00000
2268 259351.000   4402957.0330    666835.9317   4550862.2488   5  13   1.8833   0.6203   1.2935   0.2250   0.3163   0.9838   0.00    0.0    0.00849   -0.00233    0.00151   0.00000  0.00000  0.00000  0.00000  0.00000  0.00000
2268 259352.000   4402957.0327    666835.9318   4550862.2487   5  13   1.8832   0.6203   1.2934   0.2250   0.3162   0.9837   0.00    0.0    0.00886   -0.00189    0.00132   0.00000  0.00000  0.00000  0.00000  0.00000  0.00000
2268 259353.000   4402957.0336    666835.9319   4550862.2489   5  13   1.8831   0.6203   1.2933   0.2249   0.3161   0.9836   0.00    0.0    0.00813   -0.00201    0.00144   0.00000  0.00000  0.00000  0.00000  0.00000  0.00000
2268 259354.000   4402957.0329    666835.9318   4550862.2488   5  13   1.8830   0.6204   1.2933   0.2249   0.3161   0.9835   0.00    0.0    0.00854   -0.00192    0.00132   0.00000  0.00000  0.00000  0.00000  0.00000  0.00000
2268 259355.000   4402957.0325    666835.9320   4550862.2481   5  13   1.8828   0.6204   1.2932   0.2249   0.3160   0.9835   0.00    0.0    0.00823   -0.00217    0.00123   0.00000  0.00000  0.00000  0.00000  0.00000  0.00000
2268 259356.000   4402957.0334    666835.9320   4550862.2489   5  13   1.8827   0.6204   1.2931   0.2249   0.3159   0.9834   0.00    0.0    0.00925   -0.00208    0.00161   0.00000  0.00000  0.00000  0.00000  0.00000  0.00000
2268 259357.000   4402957.0325    666835.9318   4550862.2485   5  13   1.8826   0.6204   1.2930   0.2249   0.3159   0.9833   0.00    0.0    0.00916   -0.00178    0.00189   0.00000  0.00000  0.00000  0.00000  0.00000  0.00000
2268 259358.000   4402957.0332    666835.9319   4550862.2491   5  13   1.8825   0.6205   1.2929   0.2249   0.3158   0.9832   0.00    0.0    0.00824   -0.00197    0.00133   0.00000  0.00000  0.00000  0.00000  0.00000  0.00000
2268 259359.000   4402957.0325    666835.9317   4550862.2486   5  13   1.8824   0.6205   1.2929   0.2248   0.3157   0.9831   0.00    0.0    0.00839   -0.00200    0.00093   0.00000  0.00000  0.00000  0.00000  0.00000  0.00000
2268 259360.000   4402957.0334    666835.9320   4550862.2488   5  13   1.8822   0.6205   1.2928   0.2248   0.3157   0.9830   0.00    0.0    0.00906   -0.00189    0.00140   0.00000  0.00000  0.00000  0.00000  0.00000  0.00000
2268 259361.000   4402957.0328    666835.9320   4550862.2480   5  13   1.8821   0.6205   1.2927   0.2248   0.3156   0.9829   0.00    0.0    0.00811   -0.00200    0.00091   0.00000  0.00000  0.00000  0.00000  0.00000  0.00000
2268 259362.000   4402957.0331    666835.9318   4550862.2482   5  13   1.8820   0.6206   1.2926   0.2248   0.3155   0.9829   0.00    0.0    0.00843   -0.00193    0.00129   0.00000  0.00000  0.00000  0.00000  0.00000  0.00000
2268 259363.000   4402957.0323    666835.9319   4550862.2476   5  13   1.8819   0.6206   1.2925   0.2248   0.3155   0.9828   0.00    0.0    0.00866   -0.00186    0.00115   0.00000  0.00000  0.00000  0.00000  0.00000  0.00000
2268 259364.000   4402957.0330    666835.9322   4550862.2482   5  13   1.8818   0.6206   1.2924   0.2247   0.3154   0.9827   0.00    0.0    0.00869   -0.00206    0.00132   0.00000  0.00000  0.00000  0.00000  0.00000  0.00000
2268 259365.000   4402957.0323    666835.9319   4550862.2479   5  13   1.8816   0.6206   1.2924   0.2247   0.3153   0.9826   0.00    0.0    0.00917   -0.00204    0.00151   0.00000  0.00000  0.00000  0.00000  0.00000  0.00000
2268 259366.000   4402957.0324    666835.9320   4550862.2483   5  13   1.8815   0.6207   1.2923   0.2247   0.3153   0.9825   0.00    0.0    0.00870   -0.00206    0.00174   0.00000  0.00000  0.00000  0.00000  0.00000  0.00000
2268 259367.000   4402957.0317    666835.9319   4550862.2475   5  13   1.8814   0.6207   1.2922   0.2247   0.3152   0.9824   0.00    0.0    0.00837   -0.00198    0.00154   0.00000  0.00000  0.00000  0.00000  0.00000  0.00000
2268 259368.000   4402957.0324    666835.9320   4550862.2478   5  13   1.8813   0.6207   1.2921   0.2247   0.3151   0.9823   0.00    0.0    0.00831   -0.00193    0.00171   0.00000  0.00000  0.00000  0.00000  0.00000  0.00000
2268 259369.000   4402957.0323    666835.9318   4550862.2481   5  13   1.8811   0.6207   1.2920   0.2247   0.3150   0.9823   0.00    0.0    0.00892   -0.00181    0.00127   0.00000  0.00000  0.00000  0.00000  0.00000  0.00000
2268 259370.000   4402957.0324    666835.9318   4550862.2476   5  13   1.8810   0.6208   1.2920   0.2246   0.3150   0.9822   0.00    0.0    0.00851   -0.00183    0.00149   0.00000  0.00000  0.00000  0.00000  0.00000  0.00000
2268 259371.000   4402957.0320    666835.9320   4550862.2473   5  13   1.8809   0.6208   1.2919   0.2246   0.3149   0.9821   0.00    0.0    0.00894   -0.00171    0.00169   0.00000  0.00000  0.00000  0.00000  0.00000  0.00000
2268 259372.000   4402957.0321    666835.9318   4550862.2476   5  13   1.8808   0.6208   1.2918   0.2246   0.3148   0.9820   0.00    0.0    0.00873   -0.00198    0.00156   0.00000  0.00000  0.00000  0.00000  0.00000  0.00000
2268 259373.000   4402957.0324    666835.9321   4550862.2480   5  13   1.8807   0.6208   1.2917   0.2246   0.3148   0.9819   0.00    0.0    0.00846   -0.00174    0.00145   0.00000  0.00000  0.00000  0.00000  0.00000  0.00000
2268 259374.000   4402957.0320    666835.9322   4550862.2474   5  13   1.8805   0.6209   1.2916   0.2246   0.3147   0.9818   0.00    0.0    0.00891   -0.00207    0.00159   0.00000  0.00000  0.00000  0.00000  0.00000  0.00000
2268 259375.000   4402957.0323    666835.9321   4550862.2470   5  13   1.8804   0.6209   1.2916   0.2245   0.3146   0.9817   0.00    0.0    0.00912   -0.00189    0.00152   0.00000  0.00000  0.00000  0.00000  0.00000  0.00000
2268 259376.000   4402957.0320    666835.9317   4550862.2477   5  13   1.8803   0.6209   1.2915   0.2245   0.3146   0.9817   0.00    0.0    0.00876   -0.00204    0.00135   0.00000  0.00000  0.00000  0.00000  0.00000  0.00000
2268 259377.000   4402957.0312    666835.9322   4550862.2470   5  13   1.8802   0.6209   1.2914   0.2245   0.3145   0.9816   0.00    0.0    0.00821   -0.00184    0.00151   0.00000  0.00000  0.00000  0.00000  0.00000  0.00000
2268 259378.000   4402957.0311    666835.9321   4550862.2467   5  13   1.8801   0.6210   1.2913   0.2245   0.3144   0.9815   0.00    0.0    0.00863   -0.00192    0.00160   0.00000  0.00000  0.00000  0.00000  0.00000  0.00000
2268 259379.000   4402957.0316    666835.9321   4550862.2469   5  13   1.8799   0.6210   1.2912   0.2245   0.3144   0.9814   0.00    0.0    0.00832   -0.00204    0.00145   0.00000  0.00000  0.00000  0.00000  0.00000  0.00000
2268 259380.000   4402957.0306    666835.9323   4550862.2464   5  13   1.8798   0.6210   1.2912   0.2245   0.3143   0.9813   0.00    0.0    0.00865   -0.00183    0.00115   0.00000  0.00000  0.00000  0.00000  0.00000  0.00000
2268 259381.000   4402957.0311    666835.9320   4550862.2465   5  13   1.8797   0.6210   1.2911   0.2244   0.3142   0.9812   0.00    0.0    0.00944   -0.00172    0.00175   0.00000  0.00000  0.00000  0.00000  0.00000  0.00000
2268 259382.000   4402957.0313    666835.9320   4550862.2469   5  13   1.8796   0.6211   1.2910   0.2244   0.3141   0.9811   0.00    0.0    0.00857   -0.00194    0.00158   0.00000  0.00000  0.00000  0.00000  0.00000  0.00000
2268 259383.000   4402957.0303    666835.9321   4550862.2463   5  13   1.8795   0.6211   1.2909   0.2244   0.3141   0.9811   0.00    0.0    0.00880   -0.00179    0.00152   0.00000  0.00000  0.00000  0.00000  0.00000  0.00000
2268 259384.000   4402957.0305    666835.9321   4550862.2459   5  13   1.8793   0.6211   1.2908   0.2244   0.3140   0.9810   0.00    0.0    0.00879   -0.00172    0.00131   0.00000  0.00000  0.00000  0.00000  0.00000  0.00000
2268 259385.000   4402957.0305    666835.9319   4550862.2461   5  13   1.8792   0.6211   1.2908   0.2244   0.3139   0.9809   0.00    0.0    0.00844   -0.00201    0.00163   0.00000  0.00000  0.00000  0.00000  0.00000  0.00000
2268 259386.000   4402957.0314    666835.9322   4550862.2465   5  13   1.8791   0.6211   1.2907   0.2244   0.3139   0.9808   0.00    0.0    0.00943   -0.00193    0.00187   0.00000  0.00000  0.00000  0.00000  0.00000  0.00000
2268 259387.000   4402957.0308    666835.9322   4550862.2466   5  13   1.8790   0.6212   1.2906   0.2243   0.3138   0.9807   0.00    0.0    0.00933   -0.00185    0.00222   0.00000  0.00000  0.00000  0.00000  0.00000  0.00000
2268 259388.000   4402957.0303    666835.9319   4550862.2463   5  13   1.8789   0.6212   1.2905   0.2243   0.3137   0.9806   0.00    0.0    0.00878   -0.00197    0.00159   0.00000  0.00000  0.00000  0.00000  0.00000  0.00000
2268 259389.000   4402957.0300    666835.9321   4550862.2456   5  13   1.8787   0.6212   1.2904   0.2243   0.3137   0.9805   0.00    0.0    0.00877   -0.00202    0.00166   0.00000  0.00000  0.00000  0.00000  0.00000  0.00000
2268 259390.000   4402957.0305    666835.9320   4550862.2461   5  13   1.8786   0.6212   1.2904   0.2243   0.3136   0.9804   0.00    0.0    0.00874   -0.00174    0.00182   0.00000  0.00000  0.00000  0.00000  0.00000  0.00000
2268 259391.000   4402957.0305    666835.9323   4550862.2463   5  13   1.8785   0.6213   1.2903   0.2243   0.3135   0.9804   0.00    0.0    0.00869   -0.00199    0.00187   0.00000  0.00000  0.00000  0.00000  0.00000  0.00000
2268 259392.000   4402957.0305    666835.9322   4550862.2461   5  13   1.8784   0.6213   1.2902   0.2242   0.3135   0.9803   0.00    0.0    0.00841   -0.00211    0.00145   0.00000  0.00000  0.00000  0.00000  0.00000  0.00000
2268 259393.000   4402957.0310    666835.9321   4550862.2461   5  13   1.8782   0.6213   1.2901   0.2242   0.3134   0.9802   0.00    0.0    0.00933   -0.00180    0.00217   0.00000  0.00000  0.00000  0.00000  0.00000  0.00000
2268 259394.000   4402957.0297    666835.9323   4550862.2457   5  13   1.8781   0.6213   1.2900   0.2242   0.3133   0.9801   0.00    0.0    0.00860   -0.00200    0.00187   0.00000  0.00000  0.00000  0.00000  0.00000  0.00000
2268 259395.000   4402957.0303    666835.9323   4550862.2461   5  13   1.8780   0.6214   1.2900   0.2242   0.3133   0.9800   0.00    0.0    0.00850   -0.00182    0.00171   0.00000  0.00000  0.00000  0.00000  0.00000  0.00000
2268 259396.000   4402957.0302    666835.9324   4550862.2453   5  13   1.8779   0.6214   1.2899   0.2242   0.3132   0.9799   0.00    0.0    0.00898   -0.00209    0.00169   0.00000  0.00000  0.00000  0.00000  0.00000  0.00000
2268 259397.000   4402957.0296    666835.9320   4550862.2452   5  13   1.8778   0.6214   1.2898   0.2242   0.3131   0.9798   0.00    0.0    0.00868   -0.00181    0.00144   0.00000  0.00000  0.00000  0.00000  0.00000  0.00000
2268 259398.000   4402957.0295    666835.9322   4550862.2450   5  13   1.8776   0.6214   1.2897   0.2241   0.3130   0.9798   0.00    0.0    0.00853   -0.00192    0.00196   0.00000  0.00000  0.00000  0.00000  0.00000  0.00000
2268 259399.000   4402957.0305    666835.9323   4550862.2452   5  13   1.8775   0.6215   1.2896   0.2241   0.3130   0.9797   0.00    0.0    0.00908   -0.00177    0.00186   0.00000  0.00000  0.00000  0.00000  0.00000  0.00000
2268 259400.000   4402957.0296    666835.9322   4550862.2447   5  13   1.8774   0.6215   1.2896   0.2241   0.3129   0.9796   0.00    0.0    0.00876   -0.00205    0.00179   0.00000  0.00000  0.00000  0.00000  0.00000  0.00000
2268 259401.000   4402957.0293    666835.9322   4550862.2447   5  13   1.8773   0.6215   1.2895   0.2241   0.3128   0.9795   0.00    0.0    0.00857   -0.00194    0.00166   0.00000  0.00000  0.00000  0.00000  0.00000  0.00000
2268 259402.000   4402957.0295    666835.9324   4550862.2449   5  13   1.8772   0.6215   1.2894   0.2241   0.3128   0.9794   0.00    0.0    0.00878   -0.00188    0.00199   0.00000  0.00000  0.00000  0.00000  0.00000  0.00000
2268 259403.000   4402957.0299    666835.9323   4550862.2451   5  13   1.8770   0.6216   1.2893   0.2241   0.3127   0.9793   0.00    0.0    0.00921   -0.00211    0.00195   0.00000  0.00000  0.00000  0.00000  0.00000  0.00000
2268 259404.000   4402957.0293    666835.9322   4550862.2449   5  13   1.8769   0.6216   1.2892   0.2240   0.3126   0.9792   0.00    0.0    0.00823   -0.00197    0.00142   0.00000  0.00000  0.00000  0.00000  0.00000  0.00000
2268 259405.000   4402957.0299    666835.9326   4550862.2447   5  13   1.8768   0.6216   1.2892   0.2240   0.3126   0.9792   0.00    0.0    0.00849   -0.00183    0.00138   0.00000  0.00000  0.00000  0.00000  0.00000  0.00000
2268 259406.000   4402957.0294    666835.9326   4550862.2445   5  13   1.8767   0.6216   1.2891   0.2240   0.3125   0.9791   0.00    0.0    0.00854   -0.00185    0.00180   0.00000  0.00000  0.00000  0.00000  0.00000  0.00000
2268 259407.000   4402957.0292    666835.9323   4550862.2443   5  13   1.8766   0.6217   1.2890   0.2240   0.3124   0.9790   0.00    0.0    0.00913   -0.00180    0.00219   0.00000  0.00000  0.00000  0.00000  0.00000  0.00000
2268 259408.000   4402957.0290    666835.9322   4550862.2443   5  13   1.8764   0.6217   1.2889   0.2240   0.3124   0.9789   0.00    0.0    0.00834   -0.00179    0.00177   0.00000  0.00000  0.00000  0.00000  0.00000  0.00000
2268 259409.000   4402957.0298    666835.9325   4550862.2447   5  13   1.8763   0.6217   1.2888   0.2240   0.3123   0.9788   0.00    0.0    0.00885   -0.00183    0.00226   0.00000  0.00000  0.00000  0.00000  0.00000  0.00000
2268 259410.000   4402957.0293    666835.9322   4550862.2444   5  13   1.8762   0.6217   1.2888   0.2239   0.3122   0.9787   0.00    0.0    0.00973   -0.00191    0.00192   0.00000  0.00000  0.00000  0.00000  0.00000  0.00000
2268 259411.000   4402957.0283    666835.9326   4550862.2438   5  13   1.8761   0.6218   1.2887   0.2239   0.3122   0.9786   0.00    0.0    0.00918   -0.00212    0.00180   0.00000  0.00000  0.00000  0.00000  0.00000  0.00000
2268 259412.000   4402957.0295    666835.9324   4550862.2443   5  13   1.8759   0.6218   1.2886   0.2239   0.3121   0.9786   0.00    0.0    0.00893   -0.00193    0.00185   0.00000  0.00000  0.00000  0.00000  0.00000  0.00000
2268 259413.000   4402957.0289    666835.9323   4550862.2442   5  13   1.8758   0.6218   1.2885   0.2239   0.3120   0.9785   0.00    0.0    0.00904   -0.00186    0.00143   0.00000  0.00000  0.00000  0.00000  0.00000  0.00000
2268 259414.000   4402957.0283    666835.9326   4550862.2437   5  13   1.8757   0.6218   1.2884   0.2239   0.3119   0.9784   0.00    0.0    0.00916   -0.00199    0.00204   0.00000  0.00000  0.00000  0.00000  0.00000  0.00000
2268 259415.000   4402957.0278    666835.9323   4550862.2434   5  13   1.8756   0.6219   1.2884   0.2239   0.3119   0.9783   0.00    0.0    0.00914   -0.00189    0.00211   0.00000  0.00000  0.00000  0.00000  0.00000  0.00000
2268 259416.000   4402957.0282    666835.9324   4550862.2436   5  13   1.8755   0.6219   1.2883   0.2238   0.3118   0.9782   0.00    0.0    0.00841   -0.00172    0.00201   0.00000  0.00000  0.00000  0.00000  0.00000  0.00000
2268 259417.000   4402957.0288    666835.9327   4550862.2439   5  13   1.8753   0.6219   1.2882   0.2238   0.3117   0.9781   0.00    0.0    0.00944   -0.00184    0.00253   0.00000  0.00000  0.00000  0.00000  0.00000  0.00000
2268 259418.000   4402957.0280    666835.9326   4550862.2430   5  13   1.8752   0.6219   1.2881   0.2238   0.3117   0.9780   0.00    0.0    0.00870   -0.00197    0.00183   0.00000  0.00000  0.00000  0.00000  0.00000  0.00000
2268 259419.000   4402957.0279    666835.9326   4550862.2434   5  13   1.8751   0.6220   1.2880   0.2238   0.3116   0.9780   0.00    0.0    0.00869   -0.00170    0.00153   0.00000  0.00000  0.00000  0.00000  0.00000  0.00000
2268 259420.000   4402957.0277    666835.9326   4550862.2432   5  13   1.8750   0.6220   1.2880   0.2238   0.3115   0.9779   0.00    0.0    0.00921   -0.00180    0.00180   0.00000  0.00000  0.00000  0.00000  0.00000  0.00000
2268 259421.000   4402957.0274    666835.9325   4550862.2431   5  13   1.8749   0.6220   1.2879   0.2238   0.3115   0.9778   0.00    0.0    0.00862   -0.00160    0.00196   0.00000  0.00000  0.00000  0.00000  0.00000  0.00000
2268 259422.000   4402957.0278    666835.9325   4550862.2426   5  13   1.8747   0.6220   1.2878   0.2237   0.3114   0.9777   0.00    0.0    0.00915   -0.00180    0.00243   0.00000  0.00000  0.00000  0.00000  0.00000  0.00000
2268 259423.000   4402957.0281    666835.9325   4550862.2432   5  13   1.8746   0.6221   1.2877   0.2237   0.3113   0.9776   0.00    0.0    0.00882   -0.00180    0.00190   0.00000  0.00000  0.00000  0.00000  0.00000  0.00000
2268 259424.000   4402957.0275    666835.9325   4550862.2427   5  13   1.8745   0.6221   1.2876   0.2237   0.3113   0.9775   0.00    0.0    0.00799   -0.00192    0.00171   0.00000  0.00000  0.00000  0.00000  0.00000  0.00000
2268 259425.000   4402957.0281    666835.9325   4550862.2424   5  13   1.8744   0.6221   1.2876   0.2237   0.3112   0.9774   0.00    0.0    0.00926   -0.00195    0.00229   0.00000  0.00000  0.00000  0.00000  0.00000  0.00000
2268 259426.000   4402957.0281    666835.9326   4550862.2429   5  13   1.8743   0.6221   1.2875   0.2237   0.3111   0.9774   0.00    0.0    0.00897   -0.00188    0.00201   0.00000  0.00000  0.00000  0.00000  0.00000  0.00000
2268 259427.000   4402957.0279    666835.9324   4550862.2432   5  13   1.8741   0.6222   1.2874   0.2237   0.3111   0.9773   0.00    0.0    0.00875   -0.00175    0.00205   0.00000  0.00000  0.00000  0.00000  0.00000  0.00000
2268 259428.000   4402957.0268    666835.9325   4550862.2422   5  13   1.8740   0.6222   1.2873   0.2236   0.3110   0.9772   0.00    0.0    0.00935   -0.00179    0.00206   0.00000  0.00000  0.00000  0.00000  0.00000  0.00000
2268 259429.000   4402957.0270    666835.9325   4550862.2425   5  13   1.8739   0.6222   1.2872   0.2236   0.3109   0.9771   0.00    0.0    0.00894   -0.00184    0.00194   0.00000  0.00000  0.00000  0.00000  0.00000  0.00000
2268 259430.000   4402957.0269    666835.9326   4550862.2423   5  13   1.8738   0.6222   1.2872   0.2236   0.3108   0.9770   0.00    0.0    0.00918   -0.00186    0.00220   0.00000  0.00000  0.00000  0.00000  0.00000  0.00000
2268 259431.000   4402957.0274    666835.9326   4550862.2424   5  13   1.8736   0.6223   1.2871   0.2236   0.3108   0.9769   0.00    0.0    0.00880   -0.00185    0.00210   0.00000  0.00000  0.00000  0.00000  0.00000  0.00000
2268 259432.000   4402957.0283    666835.9327   4550862.2426   5  13   1.8735   0.6223   1.2870   0.2236   0.3107   0.9768   0.00    0.0    0.00818   -0.00177    0.00169   0.00000  0.00000  0.00000  0.00000  0.00000  0.00000
2268 259433.000   4402957.0273    666835.9327   4550862.2423   5  13   1.8734   0.6223   1.2869   0.2236   0.3106   0.9768   0.00    0.0    0.00972   -0.00184    0.00219   0.00000  0.00000  0.00000  0.00000  0.00000  0.00000
2268 259434.000   4402957.0270    666835.9325   4550862.2423   5  13   1.8733   0.6223   1.2868   0.2236   0.3106   0.9767   0.00    0.0    0.00839   -0.00157    0.00192   0.00000  0.00000  0.00000  0.00000  0.00000  0.00000
2268 259435.000   4402957.0275    666835.9327   4550862.2420   5  13   1.8732   0.6224   1.2868   0.2235   0.3105   0.9766   0.00    0.0    0.00907   -0.00189    0.00248   0.00000  0.00000  0.00000  0.00000  0.00000  0.00000
2268 259436.000   4402957.0273    666835.9328   4550862.2418   5  13   1.8730   0.6224   1.2867   0.2235   0.3104   0.9765   0.00    0.0    0.00925   -0.00189    0.00189   0.00000  0.00000  0.00000  0.00000  0.00000  0.00000
2268 259437.000   4402957.0265    666835.9325   4550862.2415   5  13   1.8729   0.6224   1.2866   0.2235   0.3104   0.9764   0.00    0.0    0.00912   -0.00172    0.00194   0.00000  0.00000  0.00000  0.00000  0.00000  0.00000
2268 259438.000   4402957.0263    666835.9328   4550862.2415   5  13   1.8728   0.6224   1.2865   0.2235   0.3103   0.9763   0.00    0.0    0.00951   -0.00171    0.00205   0.00000  0.00000  0.00000  0.00000  0.00000  0.00000
2268 259439.000   4402957.0272    666835.9328   4550862.2419   5  13   1.8727   0.6225   1.2865   0.2235   0.3102   0.9762   0.00    0.0    0.00924   -0.00166    0.00202   0.00000  0.00000  0.00000  0.00000  0.00000  0.00000
2268 259440.000   4402957.0269    666835.9328   4550862.2414   5  13   1.8726   0.6225   1.2864   0.2235   0.3102   0.9762   0.00    0.0    0.00911   -0.00195    0.00229   0.00000  0.00000  0.00000  0.00000  0.00000  0.00000
2268 259441.000   4402957.0271    666835.9327   4550862.2416   5  13   1.8724   0.6225   1.2863   0.2234   0.3101   0.9761   0.00    0.0    0.00905   -0.00186    0.00182   0.00000  0.00000  0.00000  0.00000  0.00000  0.00000
2268 259442.000   4402957.0270    666835.9327   4550862.2414   5  13   1.8723   0.6225   1.2862   0.2234   0.3100   0.9760   0.00    0.0    0.00916   -0.00180    0.00209   0.00000  0.00000  0.00000  0.00000  0.00000  0.00000
2268 259443.000   4402957.0265    666835.9328   4550862.2414   5  13   1.8722   0.6226   1.2861   0.2234   0.3100   0.9759   0.00    0.0    0.00873   -0.00176    0.00186   0.00000  0.00000  0.00000  0.00000  0.00000  0.00000
2268 259444.000   4402957.0263    666835.9329   4550862.2412   5  13   1.8721   0.6226   1.2861   0.2234   0.3099   0.9758   0.00    0.0    0.00872   -0.00160    0.00203   0.00000  0.00000  0.00000  0.00000  0.00000  0.00000
2268 259445.000   4402957.0261    666835.9328   4550862.2408   5  13   1.8719   0.6226   1.2860   0.2234   0.3098   0.9757   0.00    0.0    0.00967   -0.00188    0.00232   0.00000  0.00000  0.00000  0.00000  0.00000  0.00000
2268 259446.000   4402957.0270    666835.9326   4550862.2414   5  13   1.8718   0.6226   1.2859   0.2234   0.3097   0.9757   0.00    0.0    0.00910   -0.00172    0.00185   0.00000  0.00000  0.00000  0.00000  0.00000  0.00000
2268 259447.000   4402957.0260    666835.9331   4550862.2407   5  13   1.8717   0.6227   1.2858   0.2233   0.3097   0.9756   0.00    0.0    0.00967   -0.00169    0.00243   0.00000  0.00000  0.00000  0.00000  0.00000  0.00000
2268 259448.000   4402957.0263    666835.9326   4550862.2406   5  13   1.8716   0.6227   1.2857   0.2233   0.3096   0.9755   0.00    0.0    0.00870   -0.00165    0.00186   0.00000  0.00000  0.00000  0.00000  0.00000  0.00000
2268 259449.000   4402957.0254    666835.9326   4550862.2399   5  13   1.8715   0.6227   1.2857   0.2233   0.3095   0.9754   0.00    0.0    0.00872   -0.00186    0.00199   0.00000  0.00000  0.00000  0.00000  0.00000  0.00000
2268 259450.000   4402957.0255    666835.9332   4550862.2403   5  13   1.8713   0.6227   1.2856   0.2233   0.3095   0.9753   0.00    0.0    0.00849   -0.00162    0.00244   0.00000  0.00000  0.00000  0.00000  0.00000  0.00000
2268 259451.000   4402957.0260    666835.9327   4550862.2405   5  13   1.8712   0.6228   1.2855   0.2233   0.3094   0.9752   0.00    0.0    0.00867   -0.00186    0.00180   0.00000  0.00000  0.00000  0.00000  0.00000  0.00000
2268 259452.000   4402957.0255    666835.9329   4550862.2399   5  13   1.8711   0.6228   1.2854   0.2233   0.3093   0.9751   0.00    0.0    0.00931   -0.00176    0.00214   0.00000  0.00000  0.00000  0.00000  0.00000  0.00000
2268 259453.000   4402957.0259    666835.9328   4550862.2403   5  13   1.8710   0.6228   1.2854   0.2233   0.3093   0.9751   0.00    0.0    0.01008   -0.00175    0.00306   0.00000  0.00000  0.00000  0.00000  0.00000  0.00000
2268 259454.000   4402957.0256    666835.9332   4550862.2395   5  13   1.8709   0.6228   1.2853   0.2232   0.3092   0.9750   0.00    0.0    0.00889   -0.00183    0.00212   0.00000  0.00000  0.00000  0.00000  0.00000  0.00000
2268 259455.000   4402957.0255    666835.9330   4550862.2403   5  13   1.8707   0.6229   1.2852   0.2232   0.3091   0.9749   0.00    0.0    0.01002   -0.00182    0.00248   0.00000  0.00000  0.00000  0.00000  0.00000  0.00000
2268 259456.000   4402957.0243    666835.9329   4550862.2395   5  13   1.8706   0.6229   1.2851   0.2232   0.3091   0.9748   0.00    0.0    0.00899   -0.00177    0.00247   0.00000  0.00000  0.00000  0.00000  0.00000  0.00000
2268 259457.000   4402957.0258    666835.9331   4550862.2397   5  13   1.8705   0.6229   1.2850   0.2232   0.3090   0.9747   0.00    0.0    0.00974   -0.00187    0.00227   0.00000  0.00000  0.00000  0.00000  0.00000  0.00000
2268 259458.000   4402957.0257    666835.9331   4550862.2404   5  13   1.8704   0.6229   1.2850   0.2232   0.3089   0.9746   0.00    0.0    0.00884   -0.00206    0.00228   0.00000  0.00000  0.00000  0.00000  0.00000  0.00000
2268 259459.000   4402957.0254    666835.9329   4550862.2398   5  13   1.8702   0.6230   1.2849   0.2232   0.3089   0.9745   0.00    0.0    0.00918   -0.00186    0.00242   0.00000  0.00000  0.00000  0.00000  0.00000  0.00000
2268 259460.000   4402957.0256    666835.9330   4550862.2399   5  13   1.8701   0.6230   1.2848   0.2231   0.3088   0.9745   0.00    0.0    0.00931   -0.00156    0.00266   0.00000  0.00000  0.00000  0.00000  0.00000  0.00000
2268 259461.000   4402957.0259    666835.9332   4550862.2393   5  13   1.8700   0.6230   1.2847   0.2231   0.3087   0.9744   0.00    0.0    0.00992   -0.00152    0.00233   0.00000  0.00000  0.00000  0.00000  0.00000  0.00000
2268 259462.000   4402957.0252    666835.9329   4550862.2393   5  13   1.8699   0.6231   1.2846   0.2231   0.3086   0.9743   0.00    0.0    0.00946   -0.00157    0.00255   0.00000  0.00000  0.00000  0.00000  0.00000  0.00000
2268 259463.000   4402957.0253    666835.9331   4550862.2392   5  13   1.8698   0.6231   1.2846   0.2231   0.3086   0.9742   0.00    0.0    0.00935   -0.00167    0.00259   0.00000  0.00000  0.00000  0.00000  0.00000  0.00000
2268 259464.000   4402957.0245    666835.9329   4550862.2390   5  13   1.8696   0.6231   1.2845   0.2231   0.3085   0.9741   0.00    0.0    0.00915   -0.00161    0.00252   0.00000  0.00000  0.00000  0.00000  0.00000  0.00000
