% program   : GINav v0.1.0
% obs start : 2023/06/28 00:00:00.0
% obs end   : 2023/06/28 02:00:00.0
% mode      : PPP Kinematic
% system    : GPS GALILEO 
% nfreqs    : 2
% elev mask : 10.0 deg
% ephemeris : broadcast
% ionos opt : estimation
% trops opt : ZTD estimation
%
%  GPST              x-ecef(m)      y-ecef(m)      z-ecef(m)   Q  ns   sdx(m)   sdy(m)   sdz(m)  sdxy(m)  sdyz(m)  sdzx(m) age(s)  ratio    vx(m/s)    vy(m/s)    vz(m/s)      sdvx     sdvy     sdvz    sdvxy    sdvyz    sdvzx
2268 259201.000   4402960.2511    666833.5156   4550858.3345   6  12   1.1587   0.6836   1.6116   0.3503   0.6580   0.7166   0.00    0.0    0.00148   -0.00319   -0.00112   0.00000  0.00000  0.00000  0.00000  0.00000  0.00000
2268 259202.000   4402959.8492    666834.5313   4550858.2378   6  12   0.8632   0.4913   1.1774   0.2833   0.4870   0.5747   0.00    0.0    0.00062   -0.00312   -0.00123   0.00000  0.00000  0.00000  0.00000  0.00000  0.00000
2268 259203.000   4402959.8124    666834.6431   4550857.2628   6  12   0.7397   0.4073   0.9913   0.2572   0.4145   0.5198   0.00    0.0    0.00106   -0.00324   -0.00207   0.00000  0.00000  0.00000  0.00000  0.00000  0.00000
2268 259204.000   4402959.5978    666834.5176   4550856.6470   6  12   0.6661   0.3573   0.8806   0.2408   0.3713   0.4856   0.00    0.0    0.00105   -0.00320   -0.00116   0.00000  0.00000  0.00000  0.00000  0.00000  0.00000
2268 259205.000   4402959.9759    666834.5145   4550857.3658   6  12   0.6147   0.3230   0.8045   0.2285   0.3414   0.4600   0.00    0.0    0.00107   -0.00323   -0.00111   0.00000  0.00000  0.00000  0.00000  0.00000  0.00000
2268 259206.000   4402960.0972    666834.2703   4550857.3224   6  12   0.5758   0.2975   0.7476   0.2185   0.3190   0.4396   0.00    0.0    0.00112   -0.00296   -0.00092   0.00000  0.00000  0.00000  0.00000  0.00000  0.00000
2268 259207.000   4402960.0301    666834.3773   4550857.6061   6  12   0.5449   0.2776   0.7028   0.2102   0.3013   0.4226   0.00    0.0    0.00115   -0.00321   -0.00154   0.00000  0.00000  0.00000  0.00000  0.00000  0.00000
2268 259208.000   4402959.9231    666834.5336   4550857.7329   6  12   0.5195   0.2614   0.6664   0.2031   0.2869   0.4081   0.00    0.0    0.00081   -0.00335   -0.00141   0.00000  0.00000  0.00000  0.00000  0.00000  0.00000
2268 259209.000   4402959.7441    666834.4795   4550857.8885   6  12   0.4980   0.2480   0.6360   0.1969   0.2748   0.3957   0.00    0.0    0.00111   -0.00336   -0.00116   0.00000  0.00000  0.00000  0.00000  0.00000  0.00000
2268 259210.000   4402960.0424    666834.4762   4550857.8350   6  12   0.4796   0.2366   0.6101   0.1916   0.2644   0.3847   0.00    0.0    0.00097   -0.00300   -0.00127   0.00000  0.00000  0.00000  0.00000  0.00000  0.00000
2268 259211.000   4402960.1382    666834.5146   4550857.6902   6  12   0.4636   0.2267   0.5877   0.1868   0.2554   0.3750   0.00    0.0    0.00124   -0.00349   -0.00127   0.00000  0.00000  0.00000  0.00000  0.00000  0.00000
2268 259212.000   4402960.2836    666834.6174   4550857.8295   6  12   0.4495   0.2181   0.5680   0.1825   0.2475   0.3663   0.00    0.0    0.00087   -0.00295   -0.00114   0.00000  0.00000  0.00000  0.00000  0.00000  0.00000
2268 259213.000   4402960.3351    666834.6107   4550858.0797   6  12   0.4369   0.2104   0.5505   0.1786   0.2405   0.3585   0.00    0.0    0.00116   -0.00307   -0.00022   0.00000  0.00000  0.00000  0.00000  0.00000  0.00000
2268 259214.000   4402959.9579    666834.5222   4550857.9020   6  11   0.4299   0.2045   0.5368   0.1724   0.2360   0.3491   0.00    0.0    0.00110   -0.00348   -0.00154   0.00000  0.00000  0.00000  0.00000  0.00000  0.00000
2268 259215.000   4402960.0728    666834.4681   4550857.8510   6  12   0.4182   0.1983   0.5225   0.1697   0.2301   0.3427   0.00    0.0    0.00118   -0.00292   -0.00095   0.00000  0.00000  0.00000  0.00000  0.00000  0.00000
2268 259216.000   4402959.9739    666834.3716   4550857.7555   6  12   0.4081   0.1926   0.5094   0.1671   0.2248   0.3369   0.00    0.0    0.00113   -0.00316   -0.00103   0.00000  0.00000  0.00000  0.00000  0.00000  0.00000
2268 259217.000   4402959.9246    666834.4569   4550857.8746   6  11   0.4027   0.1882   0.4990   0.1624   0.2213   0.3298   0.00    0.0    0.00098   -0.00306   -0.00157   0.00000  0.00000  0.00000  0.00000  0.00000  0.00000
2268 259218.000   4402959.9152    666834.5336   4550857.7845   6  12   0.3933   0.1833   0.4879   0.1604   0.2166   0.3248   0.00    0.0    0.00083   -0.00319   -0.00112   0.00000  0.00000  0.00000  0.00000  0.00000  0.00000
2268 259219.000   4402960.0770    666834.6069   4550857.9756   6  12   0.3851   0.1789   0.4777   0.1583   0.2123   0.3201   0.00    0.0    0.00108   -0.00296   -0.00063   0.00000  0.00000  0.00000  0.00000  0.00000  0.00000
2268 259220.000   4402960.2331    666834.5965   4550857.8651   6  12   0.3777   0.1748   0.4682   0.1564   0.2084   0.3158   0.00    0.0    0.00096   -0.00322   -0.00096   0.00000  0.00000  0.00000  0.00000  0.00000  0.00000
2268 259221.000   4402960.2039    666834.5486   4550857.8556   6  12   0.3710   0.1710   0.4594   0.1545   0.2047   0.3116   0.00    0.0    0.00135   -0.00299   -0.00050   0.00000  0.00000  0.00000  0.00000  0.00000  0.00000
2268 259222.000   4402960.0090    666834.5233   4550857.7625   6  11   0.3672   0.1680   0.4522   0.1512   0.2021   0.3066   0.00    0.0    0.00123   -0.00326   -0.00044   0.00000  0.00000  0.00000  0.00000  0.00000  0.00000
2268 259223.000   4402959.9742    666834.4863   4550857.6513   6  12   0.3607   0.1646   0.4444   0.1496   0.1988   0.3030   0.00    0.0    0.00129   -0.00292   -0.00086   0.00000  0.00000  0.00000  0.00000  0.00000  0.00000
2268 259224.000   4402960.0286    666834.4171   4550857.7437   6  12   0.3548   0.1615   0.4370   0.1481   0.1957   0.2995   0.00    0.0    0.00124   -0.00315   -0.00120   0.00000  0.00000  0.00000  0.00000  0.00000  0.00000
2268 259225.000   4402960.0057    666834.4397   4550857.5522   6  12   0.3494   0.1586   0.4301   0.1466   0.1928   0.2962   0.00    0.0    0.00132   -0.00305   -0.00124   0.00000  0.00000  0.00000  0.00000  0.00000  0.00000
2268 259226.000   4402960.1655    666834.5286   4550857.7182   6  11   0.3481   0.1559   0.4265   0.1463   0.1909   0.2973   0.00    0.0    0.00066   -0.00331   -0.00158   0.00000  0.00000  0.00000  0.00000  0.00000  0.00000
2268 259227.000   4402960.0432    666834.4735   4550857.6518   6  12   0.3424   0.1533   0.4198   0.1446   0.1881   0.2933   0.00    0.0    0.00121   -0.00329   -0.00081   0.00000  0.00000  0.00000  0.00000  0.00000  0.00000
2268 259228.000   4402960.1182    666834.4520   4550857.7565   6  12   0.3373   0.1508   0.4136   0.1431   0.1855   0.2898   0.00    0.0    0.00140   -0.00320   -0.00087   0.00000  0.00000  0.00000  0.00000  0.00000  0.00000
2268 259229.000   4402960.2793    666834.4067   4550857.7872   6  12   0.3326   0.1484   0.4077   0.1417   0.1831   0.2866   0.00    0.0    0.00124   -0.00302   -0.00103   0.00000  0.00000  0.00000  0.00000  0.00000  0.00000
2268 259230.000   4402960.2996    666834.4221   4550857.9311   6  12   0.3283   0.1462   0.4022   0.1403   0.1808   0.2835   0.00    0.0    0.00164   -0.00302   -0.00021   0.00000  0.00000  0.00000  0.00000  0.00000  0.00000
2268 259231.000   4402960.3202    666834.4156   4550857.9440   6  12   0.3241   0.1440   0.3969   0.1390   0.1785   0.2807   0.00    0.0    0.00064   -0.00305   -0.00179   0.00000  0.00000  0.00000  0.00000  0.00000  0.00000
2268 259232.000   4402960.3506    666834.4657   4550857.9081   6  12   0.3202   0.1420   0.3920   0.1377   0.1764   0.2780   0.00    0.0    0.00121   -0.00313   -0.00097   0.00000  0.00000  0.00000  0.00000  0.00000  0.00000
2268 259233.000   4402960.2690    666834.4487   4550857.8012   6  12   0.3165   0.1400   0.3872   0.1364   0.1744   0.2753   0.00    0.0    0.00115   -0.00328   -0.00087   0.00000  0.00000  0.00000  0.00000  0.00000  0.00000
2268 259234.000   4402960.1355    666834.4275   4550857.7612   6  12   0.3130   0.1382   0.3826   0.1352   0.1725   0.2728   0.00    0.0    0.00105   -0.00316   -0.00095   0.00000  0.00000  0.00000  0.00000  0.00000  0.00000
2268 259235.000   4402960.0698    666834.4417   4550857.7684   6  12   0.3096   0.1364   0.3783   0.1341   0.1706   0.2704   0.00    0.0    0.00100   -0.00309   -0.00140   0.00000  0.00000  0.00000  0.00000  0.00000  0.00000
2268 259236.000   4402959.9660    666834.4068   4550857.6362   6  12   0.3064   0.1346   0.3741   0.1330   0.1688   0.2681   0.00    0.0    0.00130   -0.00334   -0.00116   0.00000  0.00000  0.00000  0.00000  0.00000  0.00000
2268 259237.000   4402959.9509    666834.3923   4550857.5637   6  12   0.3032   0.1330   0.3701   0.1319   0.1671   0.2659   0.00    0.0    0.00096   -0.00329   -0.00163   0.00000  0.00000  0.00000  0.00000  0.00000  0.00000
2268 259238.000   4402959.8742    666834.3700   4550857.4270   6  12   0.3002   0.1314   0.3662   0.1308   0.1654   0.2637   0.00    0.0    0.00094   -0.00334   -0.00148   0.00000  0.00000  0.00000  0.00000  0.00000  0.00000
2268 259239.000   4402960.0125    666834.3836   4550857.5023   6  12   0.2973   0.1299   0.3624   0.1298   0.1638   0.2616   0.00    0.0    0.00108   -0.00320   -0.00131   0.00000  0.00000  0.00000  0.00000  0.00000  0.00000
2268 259240.000   4402959.9872    666834.3382   4550857.5636   6  12   0.2945   0.1284   0.3588   0.1288   0.1623   0.2595   0.00    0.0    0.00076   -0.00319   -0.00148   0.00000  0.00000  0.00000  0.00000  0.00000  0.00000
2268 259241.000   4402959.9348    666834.3244   4550857.6105   6  12   0.2918   0.1270   0.3553   0.1278   0.1608   0.2575   0.00    0.0    0.00170   -0.00286   -0.00066   0.00000  0.00000  0.00000  0.00000  0.00000  0.00000
2268 259242.000   4402959.9449    666834.3342   4550857.6246   6  12   0.2892   0.1256   0.3520   0.1269   0.1593   0.2556   0.00    0.0    0.00074   -0.00293   -0.00168   0.00000  0.00000  0.00000  0.00000  0.00000  0.00000
2268 259243.000   4402960.0553    666834.3561   4550857.7097   6  12   0.2866   0.1243   0.3487   0.1259   0.1579   0.2537   0.00    0.0    0.00081   -0.00294   -0.00136   0.00000  0.00000  0.00000  0.00000  0.00000  0.00000
2268 259244.000   4402960.0138    666834.3321   4550857.6672   6  12   0.2841   0.1230   0.3455   0.1250   0.1565   0.2519   0.00    0.0    0.00075   -0.00302   -0.00096   0.00000  0.00000  0.00000  0.00000  0.00000  0.00000
2268 259245.000   4402959.9477    666834.3477   4550857.6366   6  12   0.2817   0.1218   0.3424   0.1241   0.1552   0.2501   0.00    0.0    0.00127   -0.00331   -0.00094   0.00000  0.00000  0.00000  0.00000  0.00000  0.00000
2268 259246.000   4402959.9832    666834.3289   4550857.6538   6  12   0.2794   0.1206   0.3394   0.1233   0.1539   0.2483   0.00    0.0    0.00147   -0.00315   -0.00012   0.00000  0.00000  0.00000  0.00000  0.00000  0.00000
2268 259247.000   4402959.9275    666834.3119   4550857.6369   6  12   0.2771   0.1194   0.3365   0.1224   0.1526   0.2466   0.00    0.0    0.00112   -0.00293   -0.00060   0.00000  0.00000  0.00000  0.00000  0.00000  0.00000
2268 259248.000   4402959.8365    666834.3058   4550857.6133   6  11   0.2756   0.1184   0.3340   0.1212   0.1516   0.2446   0.00    0.0    0.00174   -0.00294   -0.00033   0.00000  0.00000  0.00000  0.00000  0.00000  0.00000
2268 259249.000   4402959.8533    666834.2781   4550857.6225   6  12   0.2734   0.1173   0.3312   0.1204   0.1504   0.2430   0.00    0.0    0.00132   -0.00338   -0.00145   0.00000  0.00000  0.00000  0.00000  0.00000  0.00000
2268 259250.000   4402959.9489    666834.2539   4550857.7277   6  12   0.2712   0.1162   0.3285   0.1196   0.1493   0.2414   0.00    0.0    0.00125   -0.00304   -0.00116   0.00000  0.00000  0.00000  0.00000  0.00000  0.00000
2268 259251.000   4402959.9572    666834.2750   4550857.7582   6  12   0.2691   0.1152   0.3259   0.1189   0.1481   0.2398   0.00    0.0    0.00121   -0.00308   -0.00086   0.00000  0.00000  0.00000  0.00000  0.00000  0.00000
2268 259252.000   4402959.9536    666834.2808   4550857.6734   6  12   0.2670   0.1142   0.3233   0.1181   0.1470   0.2382   0.00    0.0    0.00175   -0.00308   -0.00060   0.00000  0.00000  0.00000  0.00000  0.00000  0.00000
2268 259253.000   4402959.9232    666834.2986   4550857.6807   6  11   0.2657   0.1133   0.3211   0.1170   0.1461   0.2365   0.00    0.0    0.00101   -0.00313   -0.00129   0.00000  0.00000  0.00000  0.00000  0.00000  0.00000
2268 259254.000   4402959.9890    666834.2999   4550857.6991   6  12   0.2636   0.1123   0.3186   0.1163   0.1450   0.2350   0.00    0.0    0.00193   -0.00325   -0.00071   0.00000  0.00000  0.00000  0.00000  0.00000  0.00000
2268 259255.000   4402959.9217    666834.3100   4550857.7200   6  11   0.2623   0.1115   0.3164   0.1153   0.1442   0.2333   0.00    0.0    0.00121   -0.00322   -0.00084   0.00000  0.00000  0.00000  0.00000  0.00000  0.00000
2268 259256.000   4402959.9012    666834.3460   4550857.7862   6  11   0.2611   0.1107   0.3143   0.1143   0.1433   0.2317   0.00    0.0    0.00162   -0.00284   -0.00059   0.00000  0.00000  0.00000  0.00000  0.00000  0.00000
2268 259257.000   4402959.9358    666834.3246   4550857.7569   6  12   0.2590   0.1098   0.3120   0.1137   0.1423   0.2303   0.00    0.0    0.00090   -0.00319   -0.00121   0.00000  0.00000  0.00000  0.00000  0.00000  0.00000
2268 259258.000   4402959.8783    666834.3307   4550857.7746   6  11   0.2578   0.1090   0.3100   0.1127   0.1415   0.2287   0.00    0.0    0.00143   -0.00330   -0.00123   0.00000  0.00000  0.00000  0.00000  0.00000  0.00000
2268 259259.000   4402959.8052    666834.3430   4550857.7217   6  11   0.2565   0.1082   0.3080   0.1118   0.1407   0.2272   0.00    0.0    0.00134   -0.00329   -0.00076   0.00000  0.00000  0.00000  0.00000  0.00000  0.00000
2268 259260.000   4402959.7568    666834.3379   4550857.6406   6  12   0.2545   0.1074   0.3058   0.1112   0.1397   0.2258   0.00    0.0    0.00138   -0.00327   -0.00106   0.00000  0.00000  0.00000  0.00000  0.00000  0.00000
2268 259261.000   4402959.7337    666834.3047   4550857.6757   6  12   0.2526   0.1066   0.3037   0.1106   0.1388   0.2245   0.00    0.0    0.00197   -0.00306    0.00029   0.00000  0.00000  0.00000  0.00000  0.00000  0.00000
2268 259262.000   4402959.7919    666834.3144   4550857.7292   6  12   0.2508   0.1058   0.3016   0.1100   0.1378   0.2232   0.00    0.0    0.00064   -0.00332   -0.00069   0.00000  0.00000  0.00000  0.00000  0.00000  0.00000
2268 259263.000   4402959.8446    666834.2895   4550857.7375   6  12   0.2490   0.1050   0.2996   0.1094   0.1369   0.2219   0.00    0.0    0.00121   -0.00324   -0.00157   0.00000  0.00000  0.00000  0.00000  0.00000  0.00000
2268 259264.000   4402959.8763    666834.2943   4550857.6619   6  12   0.2472   0.1042   0.2976   0.1089   0.1360   0.2206   0.00    0.0    0.00089   -0.00312   -0.00118   0.00000  0.00000  0.00000  0.00000  0.00000  0.00000
2268 259265.000   4402959.8919    666834.2934   4550857.6708   6  12   0.2456   0.1034   0.2957   0.1083   0.1352   0.2194   0.00    0.0    0.00099   -0.00325   -0.00057   0.00000  0.00000  0.00000  0.00000  0.00000  0.00000
2268 259266.000   4402959.7971    666834.2841   4550857.5471   6  12   0.2439   0.1027   0.2938   0.1077   0.1343   0.2182   0.00    0.0    0.00093   -0.00349   -0.00083   0.00000  0.00000  0.00000  0.00000  0.00000  0.00000
2268 259267.000   4402959.7256    666834.2625   4550857.5277   6  11   0.2429   0.1021   0.2921   0.1069   0.1336   0.2169   0.00    0.0    0.00189   -0.00301   -0.00053   0.00000  0.00000  0.00000  0.00000  0.00000  0.00000
2268 259268.000   4402959.7368    666834.2577   4550857.4580   6  12   0.2413   0.1013   0.2902   0.1063   0.1328   0.2157   0.00    0.0    0.00201   -0.00275   -0.00047   0.00000  0.00000  0.00000  0.00000  0.00000  0.00000
2268 259269.000   4402959.7564    666834.2525   4550857.4602   6  12   0.2397   0.1007   0.2884   0.1058   0.1320   0.2145   0.00    0.0    0.00202   -0.00284   -0.00082   0.00000  0.00000  0.00000  0.00000  0.00000  0.00000
2268 259270.000   4402959.8232    666834.2677   4550857.5054   6  12   0.2382   0.1000   0.2866   0.1053   0.1312   0.2134   0.00    0.0    0.00179   -0.00297   -0.00083   0.00000  0.00000  0.00000  0.00000  0.00000  0.00000
2268 259271.000   4402959.8092    666834.2508   4550857.4564   6  12   0.2367   0.0993   0.2849   0.1047   0.1304   0.2122   0.00    0.0    0.00202   -0.00290   -0.00058   0.00000  0.00000  0.00000  0.00000  0.00000  0.00000
2268 259272.000   4402959.8482    666834.2717   4550857.5230   6  11   0.2353   0.0988   0.2832   0.1042   0.1295   0.2111   0.00    0.0    0.00164   -0.00315   -0.00077   0.00000  0.00000  0.00000  0.00000  0.00000  0.00000
2268 259273.000   4402959.8632    666834.2656   4550857.4835   6  12   0.2338   0.0981   0.2815   0.1037   0.1288   0.2100   0.00    0.0    0.00123   -0.00321   -0.00134   0.00000  0.00000  0.00000  0.00000  0.00000  0.00000
2268 259274.000   4402959.9320    666834.2610   4550857.5186   6  12   0.2324   0.0975   0.2799   0.1031   0.1280   0.2090   0.00    0.0    0.00110   -0.00336   -0.00143   0.00000  0.00000  0.00000  0.00000  0.00000  0.00000
2268 259275.000   4402959.9037    666834.2542   4550857.4398   6  12   0.2311   0.0969   0.2782   0.1026   0.1273   0.2079   0.00    0.0    0.00147   -0.00327   -0.00120   0.00000  0.00000  0.00000  0.00000  0.00000  0.00000
2268 259276.000   4402959.8372    666834.2657   4550857.3983   6  12   0.2297   0.0963   0.2766   0.1021   0.1266   0.2068   0.00    0.0    0.00106   -0.00328   -0.00123   0.00000  0.00000  0.00000  0.00000  0.00000  0.00000
2268 259277.000   4402959.8732    666834.2571   4550857.4136   6  12   0.2284   0.0957   0.2751   0.1016   0.1259   0.2058   0.00    0.0    0.00164   -0.00320   -0.00066   0.00000  0.00000  0.00000  0.00000  0.00000  0.00000
2268 259278.000   4402959.8446    666834.2506   4550857.3536   6  10   0.2273   0.0952   0.2736   0.1012   0.1251   0.2047   0.00    0.0    0.00117   -0.00300   -0.00124   0.00000  0.00000  0.00000  0.00000  0.00000  0.00000
2268 259279.000   4402959.8784    666834.2514   4550857.3449   6  12   0.2260   0.0946   0.2720   0.1007   0.1244   0.2037   0.00    0.0    0.00139   -0.00324   -0.00103   0.00000  0.00000  0.00000  0.00000  0.00000  0.00000
2268 259280.000   4402959.8143    666834.2656   4550857.2991   6  11   0.2251   0.0941   0.2706   0.1000   0.1238   0.2026   0.00    0.0    0.00173   -0.00324   -0.00117   0.00000  0.00000  0.00000  0.00000  0.00000  0.00000
2268 259281.000   4402959.8128    666834.2526   4550857.2746   6  12   0.2239   0.0935   0.2692   0.0995   0.1231   0.2016   0.00    0.0    0.00163   -0.00336   -0.00082   0.00000  0.00000  0.00000  0.00000  0.00000  0.00000
2268 259282.000   4402959.8278    666834.2701   4550857.3418   6  12   0.2226   0.0930   0.2677   0.0990   0.1225   0.2006   0.00    0.0    0.00159   -0.00295   -0.00095   0.00000  0.00000  0.00000  0.00000  0.00000  0.00000
2268 259283.000   4402959.8377    666834.2933   4550857.3518   6  12   0.2214   0.0924   0.2663   0.0986   0.1218   0.1996   0.00    0.0    0.00130   -0.00343   -0.00141   0.00000  0.00000  0.00000  0.00000  0.00000  0.00000
2268 259284.000   4402959.8709    666834.2968   4550857.3886   6  12   0.2202   0.0919   0.2648   0.0981   0.1212   0.1987   0.00    0.0    0.00137   -0.00294   -0.00056   0.00000  0.00000  0.00000  0.00000  0.00000  0.00000
2268 259285.000   4402959.8656    666834.3066   4550857.3573   6  11   0.2190   0.0915   0.2635   0.0976   0.1205   0.1977   0.00    0.0    0.00140   -0.00342   -0.00064   0.00000  0.00000  0.00000  0.00000  0.00000  0.00000
2268 259286.000   4402959.8083    666834.2963   4550857.4243   6  12   0.2178   0.0909   0.2621   0.0972   0.1199   0.1968   0.00    0.0    0.00165   -0.00320   -0.00042   0.00000  0.00000  0.00000  0.00000  0.00000  0.00000
2268 259287.000   4402959.8773    666834.3149   4550857.4695   6  12   0.2167   0.0904   0.2607   0.0967   0.1193   0.1959   0.00    0.0    0.00119   -0.00313   -0.00157   0.00000  0.00000  0.00000  0.00000  0.00000  0.00000
2268 259288.000   4402959.8530    666834.3130   4550857.4034   6  12   0.2156   0.0899   0.2594   0.0963   0.1187   0.1950   0.00    0.0    0.00181   -0.00330   -0.00084   0.00000  0.00000  0.00000  0.00000  0.00000  0.00000
2268 259289.000   4402959.7779    666834.3183   4550857.3706   6  12   0.2145   0.0894   0.2580   0.0958   0.1181   0.1941   0.00    0.0    0.00154   -0.00299   -0.00084   0.00000  0.00000  0.00000  0.00000  0.00000  0.00000
2268 259290.000   4402959.8085    666834.3327   4550857.4107   6  12   0.2134   0.0889   0.2567   0.0954   0.1175   0.1932   0.00    0.0    0.00120   -0.00307   -0.00046   0.00000  0.00000  0.00000  0.00000  0.00000  0.00000
2268 259291.000   4402959.7978    666834.3382   4550857.3513   6  11   0.2124   0.0885   0.2555   0.0950   0.1168   0.1922   0.00    0.0    0.00142   -0.00323   -0.00113   0.00000  0.00000  0.00000  0.00000  0.00000  0.00000
2268 259292.000   4402959.8128    666834.3422   4550857.3451   6  12   0.2113   0.0880   0.2542   0.0945   0.1163   0.1913   0.00    0.0    0.00109   -0.00290   -0.00106   0.00000  0.00000  0.00000  0.00000  0.00000  0.00000
2268 259293.000   4402959.8507    666834.3572   4550857.3888   6  11   0.2106   0.0876   0.2530   0.0940   0.1158   0.1904   0.00    0.0    0.00130   -0.00324   -0.00117   0.00000  0.00000  0.00000  0.00000  0.00000  0.00000
2268 259294.000   4402959.8755    666834.3618   4550857.4276   6  12   0.2095   0.0871   0.2518   0.0935   0.1152   0.1895   0.00    0.0    0.00100   -0.00305   -0.00161   0.00000  0.00000  0.00000  0.00000  0.00000  0.00000
2268 259295.000   4402959.8695    666834.3753   4550857.4319   6  11   0.2088   0.0867   0.2507   0.0930   0.1147   0.1886   0.00    0.0    0.00166   -0.00318   -0.00135   0.00000  0.00000  0.00000  0.00000  0.00000  0.00000
2268 259296.000   4402959.9438    666834.3793   4550857.4573   6  12   0.2077   0.0862   0.2494   0.0926   0.1142   0.1878   0.00    0.0    0.00156   -0.00288   -0.00009   0.00000  0.00000  0.00000  0.00000  0.00000  0.00000
2268 259297.000   4402959.9343    666834.3721   4550857.4662   6  12   0.2067   0.0858   0.2482   0.0922   0.1136   0.1869   0.00    0.0    0.00147   -0.00292   -0.00019   0.00000  0.00000  0.00000  0.00000  0.00000  0.00000
2268 259298.000   4402959.9366    666834.3547   4550857.4378   6  12   0.2056   0.0853   0.2470   0.0918   0.1131   0.1861   0.00    0.0    0.00174   -0.00318   -0.00120   0.00000  0.00000  0.00000  0.00000  0.00000  0.00000
2268 259299.000   4402960.0002    666834.3482   4550857.4801   6  12   0.2046   0.0849   0.2459   0.0913   0.1125   0.1853   0.00    0.0    0.00136   -0.00279   -0.00063   0.00000  0.00000  0.00000  0.00000  0.00000  0.00000
2268 259300.000   4402960.0399    666834.3620   4550857.5068   6  12   0.2036   0.0845   0.2447   0.0909   0.1120   0.1845   0.00    0.0    0.00163   -0.00317   -0.00084   0.00000  0.00000  0.00000  0.00000  0.00000  0.00000
2268 259301.000   4402960.0651    666834.3689   4550857.5373   6  12   0.2027   0.0841   0.2436   0.0905   0.1115   0.1837   0.00    0.0    0.00139   -0.00321   -0.00056   0.00000  0.00000  0.00000  0.00000  0.00000  0.00000
2268 259302.000   4402960.1075    666834.3576   4550857.5615   6  12   0.2017   0.0837   0.2424   0.0901   0.1110   0.1829   0.00    0.0    0.00153   -0.00297   -0.00097   0.00000  0.00000  0.00000  0.00000  0.00000  0.00000
2268 259303.000   4402960.0900    666834.3465   4550857.5552   6  12   0.2007   0.0832   0.2413   0.0897   0.1105   0.1821   0.00    0.0    0.00154   -0.00310   -0.00051   0.00000  0.00000  0.00000  0.00000  0.00000  0.00000
2268 259304.000   4402960.0941    666834.3384   4550857.5903   6  12   0.1998   0.0828   0.2402   0.0894   0.1099   0.1813   0.00    0.0    0.00146   -0.00289   -0.00028   0.00000  0.00000  0.00000  0.00000  0.00000  0.00000
2268 259305.000   4402960.1166    666834.3388   4550857.6450   6  12   0.1989   0.0824   0.2391   0.0890   0.1094   0.1805   0.00    0.0    0.00177   -0.00292   -0.00034   0.00000  0.00000  0.00000  0.00000  0.00000  0.00000
2268 259306.000   4402960.1243    666834.3397   4550857.6576   6  12   0.1980   0.0821   0.2381   0.0886   0.1089   0.1797   0.00    0.0    0.00121   -0.00314   -0.00036   0.00000  0.00000  0.00000  0.00000  0.00000  0.00000
2268 259307.000   4402960.0935    666834.3367   4550857.6253   6  12   0.1970   0.0817   0.2370   0.0882   0.1084   0.1790   0.00    0.0    0.00172   -0.00325   -0.00109   0.00000  0.00000  0.00000  0.00000  0.00000  0.00000
2268 259308.000   4402960.0910    666834.3394   4550857.6278   6  12   0.1962   0.0813   0.2359   0.0878   0.1080   0.1782   0.00    0.0    0.00161   -0.00306   -0.00041   0.00000  0.00000  0.00000  0.00000  0.00000  0.00000
2268 259309.000   4402960.0709    666834.3312   4550857.6297   6  12   0.1953   0.0809   0.2349   0.0874   0.1075   0.1775   0.00    0.0    0.00119   -0.00316   -0.00146   0.00000  0.00000  0.00000  0.00000  0.00000  0.00000
2268 259310.000   4402960.0473    666834.3178   4550857.6220   6  12   0.1944   0.0805   0.2339   0.0871   0.1070   0.1767   0.00    0.0    0.00126   -0.00309   -0.00077   0.00000  0.00000  0.00000  0.00000  0.00000  0.00000
2268 259311.000   4402960.0590    666834.3326   4550857.6461   6  12   0.1935   0.0802   0.2328   0.0867   0.1065   0.1760   0.00    0.0    0.00132   -0.00306   -0.00048   0.00000  0.00000  0.00000  0.00000  0.00000  0.00000
2268 259312.000   4402960.0461    666834.3257   4550857.6431   6  12   0.1927   0.0798   0.2318   0.0863   0.1061   0.1752   0.00    0.0    0.00154   -0.00322   -0.00082   0.00000  0.00000  0.00000  0.00000  0.00000  0.00000
2268 259313.000   4402960.0436    666834.3251   4550857.6324   6  10   0.1921   0.0795   0.2309   0.0858   0.1056   0.1746   0.00    0.0    0.00147   -0.00296   -0.00092   0.00000  0.00000  0.00000  0.00000  0.00000  0.00000
2268 259314.000   4402960.0379    666834.3233   4550857.6566   6  12   0.1913   0.0792   0.2299   0.0854   0.1051   0.1738   0.00    0.0    0.00150   -0.00309    0.00004   0.00000  0.00000  0.00000  0.00000  0.00000  0.00000
2268 259315.000   4402960.0177    666834.3292   4550857.6371   6  12   0.1904   0.0788   0.2290   0.0851   0.1047   0.1731   0.00    0.0    0.00188   -0.00314   -0.00035   0.00000  0.00000  0.00000  0.00000  0.00000  0.00000
2268 259316.000   4402960.0081    666834.3126   4550857.6232   6  12   0.1896   0.0785   0.2280   0.0847   0.1042   0.1724   0.00    0.0    0.00191   -0.00313   -0.00042   0.00000  0.00000  0.00000  0.00000  0.00000  0.00000
2268 259317.000   4402960.0223    666834.3166   4550857.6362   6  12   0.1888   0.0781   0.2270   0.0844   0.1038   0.1717   0.00    0.0    0.00163   -0.00288   -0.00022   0.00000  0.00000  0.00000  0.00000  0.00000  0.00000
2268 259318.000   4402960.0559    666834.3276   4550857.6815   6  12   0.1879   0.0778   0.2261   0.0840   0.1033   0.1710   0.00    0.0    0.00143   -0.00294   -0.00056   0.00000  0.00000  0.00000  0.00000  0.00000  0.00000
2268 259319.000   4402960.0942    666834.3281   4550857.7191   6  12   0.1871   0.0774   0.2251   0.0837   0.1029   0.1703   0.00    0.0    0.00166   -0.00291   -0.00056   0.00000  0.00000  0.00000  0.00000  0.00000  0.00000
2268 259320.000   4402960.1113    666834.3371   4550857.7423   6  12   0.1863   0.0771   0.2242   0.0833   0.1025   0.1696   0.00    0.0    0.00147   -0.00315   -0.00119   0.00000  0.00000  0.00000  0.00000  0.00000  0.00000
2268 259321.000   4402960.1337    666834.3423   4550857.7620   6  12   0.1855   0.0768   0.2232   0.0830   0.1020   0.1689   0.00    0.0    0.00189   -0.00307   -0.00070   0.00000  0.00000  0.00000  0.00000  0.00000  0.00000
2268 259322.000   4402960.1163    666834.3285   4550857.7459   6  12   0.1848   0.0764   0.2223   0.0827   0.1016   0.1682   0.00    0.0    0.00095   -0.00312   -0.00099   0.00000  0.00000  0.00000  0.00000  0.00000  0.00000
2268 259323.000   4402960.1487    666834.3370   4550857.7870   6  11   0.1842   0.0762   0.2215   0.0822   0.1012   0.1675   0.00    0.0    0.00137   -0.00272    0.00007   0.00000  0.00000  0.00000  0.00000  0.00000  0.00000
2268 259324.000   4402960.1645    666834.3421   4550857.8122   6  12   0.1834   0.0758   0.2206   0.0819   0.1008   0.1668   0.00    0.0    0.00152   -0.00314   -0.00121   0.00000  0.00000  0.00000  0.00000  0.00000  0.00000
2268 259325.000   4402960.1285    666834.3292   4550857.8043   6  11   0.1828   0.0756   0.2197   0.0815   0.1005   0.1661   0.00    0.0    0.00177   -0.00306   -0.00091   0.00000  0.00000  0.00000  0.00000  0.00000  0.00000
2268 259326.000   4402960.1218    666834.3409   4550857.7880   6  12   0.1821   0.0752   0.2188   0.0812   0.1000   0.1655   0.00    0.0    0.00159   -0.00297   -0.00036   0.00000  0.00000  0.00000  0.00000  0.00000  0.00000
2268 259327.000   4402960.1232    666834.3556   4550857.7969   6  12   0.1813   0.0749   0.2180   0.0808   0.0996   0.1648   0.00    0.0    0.00156   -0.00321   -0.00066   0.00000  0.00000  0.00000  0.00000  0.00000  0.00000
2268 259328.000   4402960.1154    666834.3460   4550857.8044   6  12   0.1805   0.0746   0.2171   0.0805   0.0992   0.1642   0.00    0.0    0.00200   -0.00267   -0.00016   0.00000  0.00000  0.00000  0.00000  0.00000  0.00000
2268 259329.000   4402960.1200    666834.3501   4550857.7851   6  12   0.1798   0.0743   0.2162   0.0802   0.0988   0.1635   0.00    0.0    0.00143   -0.00318   -0.00099   0.00000  0.00000  0.00000  0.00000  0.00000  0.00000
2268 259330.000   4402960.1279    666834.3488   4550857.7983   6  12   0.1790   0.0740   0.2154   0.0799   0.0984   0.1629   0.00    0.0    0.00178   -0.00291   -0.00057   0.00000  0.00000  0.00000  0.00000  0.00000  0.00000
2268 259331.000   4402960.1136    666834.3571   4550857.7927   6  12   0.1783   0.0737   0.2145   0.0796   0.0980   0.1622   0.00    0.0    0.00157   -0.00312   -0.00086   0.00000  0.00000  0.00000  0.00000  0.00000  0.00000
2268 259332.000   4402960.1045    666834.3539   4550857.8108   6  12   0.1776   0.0734   0.2137   0.0793   0.0976   0.1616   0.00    0.0    0.00192   -0.00320   -0.00064   0.00000  0.00000  0.00000  0.00000  0.00000  0.00000
2268 259333.000   4402960.1537    666834.3508   4550857.8521   6  12   0.1769   0.0731   0.2129   0.0789   0.0972   0.1610   0.00    0.0    0.00169   -0.00299   -0.00084   0.00000  0.00000  0.00000  0.00000  0.00000  0.00000
2268 259334.000   4402960.1470    666834.3484   4550857.8682   6  12   0.1761   0.0729   0.2120   0.0786   0.0968   0.1603   0.00    0.0    0.00152   -0.00305   -0.00098   0.00000  0.00000  0.00000  0.00000  0.00000  0.00000
2268 259335.000   4402960.1251    666834.3368   4550857.8678   6  12   0.1754   0.0726   0.2112   0.0783   0.0965   0.1597   0.00    0.0    0.00156   -0.00288    0.00006   0.00000  0.00000  0.00000  0.00000  0.00000  0.00000
2268 259336.000   4402960.1510    666834.3333   4550857.8750   6  12   0.1747   0.0723   0.2104   0.0780   0.0961   0.1591   0.00    0.0    0.00140   -0.00302   -0.00079   0.00000  0.00000  0.00000  0.00000  0.00000  0.00000
2268 259337.000   4402960.1154    666834.3240   4550857.8595   6  12   0.1740   0.0720   0.2096   0.0777   0.0957   0.1585   0.00    0.0    0.00189   -0.00314   -0.00047   0.00000  0.00000  0.00000  0.00000  0.00000  0.00000
2268 259338.000   4402960.1483    666834.3236   4550857.8797   6  12   0.1733   0.0717   0.2088   0.0774   0.0953   0.1579   0.00    0.0    0.00149   -0.00299   -0.00041   0.00000  0.00000  0.00000  0.00000  0.00000  0.00000
2268 259339.000   4402960.1497    666834.3279   4550857.9122   6  11   0.1728   0.0715   0.2081   0.0770   0.0950   0.1573   0.00    0.0    0.00157   -0.00311   -0.00031   0.00000  0.00000  0.00000  0.00000  0.00000  0.00000
2268 259340.000   4402960.1923    666834.3382   4550857.9784   6  12   0.1722   0.0712   0.2073   0.0767   0.0946   0.1567   0.00    0.0    0.00162   -0.00309   -0.00037   0.00000  0.00000  0.00000  0.00000  0.00000  0.00000
2268 259341.000   4402960.2021    666834.3358   4550857.9676   6  12   0.1715   0.0709   0.2065   0.0764   0.0943   0.1561   0.00    0.0    0.00158   -0.00278   -0.00062   0.00000  0.00000  0.00000  0.00000  0.00000  0.00000
2268 259342.000   4402960.2160    666834.3483   4550857.9969   6  12   0.1708   0.0707   0.2057   0.0761   0.0939   0.1555   0.00    0.0    0.00172   -0.00318   -0.00029   0.00000  0.00000  0.00000  0.00000  0.00000  0.00000
2268 259343.000   4402960.2105    666834.3473   4550858.0152   6  12   0.1701   0.0704   0.2050   0.0758   0.0935   0.1549   0.00    0.0    0.00176   -0.00284   -0.00017   0.00000  0.00000  0.00000  0.00000  0.00000  0.00000
2268 259344.000   4402960.1989    666834.3429   4550857.9983   6  12   0.1695   0.0701   0.2042   0.0756   0.0932   0.1543   0.00    0.0    0.00156   -0.00351   -0.00053   0.00000  0.00000  0.00000  0.00000  0.00000  0.00000
2268 259345.000   4402960.1906    666834.3288   4550857.9778   6  12   0.1688   0.0699   0.2034   0.0753   0.0928   0.1537   0.00    0.0    0.00186   -0.00330   -0.00030   0.00000  0.00000  0.00000  0.00000  0.00000  0.00000
2268 259346.000   4402960.1993    666834.3294   4550857.9929   6  12   0.1682   0.0696   0.2027   0.0750   0.0925   0.1532   0.00    0.0    0.00175   -0.00321   -0.00054   0.00000  0.00000  0.00000  0.00000  0.00000  0.00000
2268 259347.000   4402960.1996    666834.3272   4550857.9921   6  12   0.1675   0.0694   0.2020   0.0747   0.0921   0.1526   0.00    0.0    0.00154   -0.00296   -0.00037   0.00000  0.00000  0.00000  0.00000  0.00000  0.00000
2268 259348.000   4402960.1932    666834.3334   4550857.9860   6  12   0.1669   0.0691   0.2012   0.0744   0.0918   0.1520   0.00    0.0    0.00172   -0.00322   -0.00008   0.00000  0.00000  0.00000  0.00000  0.00000  0.00000
2268 259349.000   4402960.1928    666834.3274   4550857.9448   6  12   0.1663   0.0689   0.2005   0.0741   0.0914   0.1514   0.00    0.0    0.00164   -0.00283   -0.00078   0.00000  0.00000  0.00000  0.00000  0.00000  0.00000
2268 259350.000   4402960.2290    666834.3210   4550857.9709   6  12   0.1656   0.0686   0.1998   0.0738   0.0911   0.1509   0.00    0.0    0.00189   -0.00323   -0.00036   0.00000  0.00000  0.00000  0.00000  0.00000  0.00000
2268 259351.000   4402960.2109    666834.3258   4550857.9561   6  12   0.1650   0.0684   0.1990   0.0736   0.0907   0.1503   0.00    0.0    0.00172   -0.00305   -0.00032   0.00000  0.00000  0.00000  0.00000  0.00000  0.00000
2268 259352.000   4402960.2020    666834.3247   4550857.9609   6  10   0.1646   0.0682   0.1984   0.0732   0.0904   0.1497   0.00    0.0    0.00180   -0.00281   -0.00038   0.00000  0.00000  0.00000  0.00000  0.00000  0.00000
2268 259353.000   4402960.1942    666834.3284   4550857.9392   6  12   0.1640   0.0679   0.1977   0.0730   0.0901   0.1492   0.00    0.0    0.00181   -0.00297   -0.00076   0.00000  0.00000  0.00000  0.00000  0.00000  0.00000
2268 259354.000   4402960.2076    666834.3209   4550857.9403   6  12   0.1633   0.0677   0.1970   0.0727   0.0897   0.1486   0.00    0.0    0.00168   -0.00302    0.00020   0.00000  0.00000  0.00000  0.00000  0.00000  0.00000
2268 259355.000   4402960.2167    666834.3210   4550857.9497   6  12   0.1627   0.0675   0.1963   0.0724   0.0894   0.1481   0.00    0.0    0.00162   -0.00305   -0.00057   0.00000  0.00000  0.00000  0.00000  0.00000  0.00000
2268 259356.000   4402960.2094    666834.3254   4550857.9530   6  11   0.1623   0.0672   0.1956   0.0721   0.0891   0.1475   0.00    0.0    0.00200   -0.00323   -0.00001   0.00000  0.00000  0.00000  0.00000  0.00000  0.00000
2268 259357.000   4402960.2218    666834.3197   4550857.9592   6  12   0.1617   0.0670   0.1950   0.0718   0.0888   0.1470   0.00    0.0    0.00179   -0.00284   -0.00024   0.00000  0.00000  0.00000  0.00000  0.00000  0.00000
2268 259358.000   4402960.2053    666834.3241   4550857.9512   6  11   0.1612   0.0668   0.1943   0.0715   0.0885   0.1464   0.00    0.0    0.00120   -0.00281   -0.00135   0.00000  0.00000  0.00000  0.00000  0.00000  0.00000
2268 259359.000   4402960.1914    666834.3245   4550857.9606   6  11   0.1608   0.0666   0.1937   0.0712   0.0882   0.1459   0.00    0.0    0.00203   -0.00293    0.00016   0.00000  0.00000  0.00000  0.00000  0.00000  0.00000
2268 259360.000   4402960.1716    666834.3131   4550857.9155   6  11   0.1602   0.0664   0.1930   0.0709   0.0879   0.1454   0.00    0.0    0.00182   -0.00325   -0.00082   0.00000  0.00000  0.00000  0.00000  0.00000  0.00000
2268 259361.000   4402960.1894    666834.3127   4550857.9334   6  12   0.1596   0.0661   0.1924   0.0706   0.0875   0.1449   0.00    0.0    0.00183   -0.00295   -0.00047   0.00000  0.00000  0.00000  0.00000  0.00000  0.00000
2268 259362.000   4402960.1906    666834.3069   4550857.9378   6  12   0.1590   0.0659   0.1917   0.0703   0.0872   0.1443   0.00    0.0    0.00210   -0.00300   -0.00009   0.00000  0.00000  0.00000  0.00000  0.00000  0.00000
2268 259363.000   4402960.1848    666834.2994   4550857.9278   6  12   0.1584   0.0657   0.1910   0.0701   0.0869   0.1438   0.00    0.0    0.00150   -0.00302   -0.00062   0.00000  0.00000  0.00000  0.00000  0.00000  0.00000
2268 259364.000   4402960.1997    666834.3014   4550857.9451   6  12   0.1578   0.0655   0.1904   0.0698   0.0866   0.1433   0.00    0.0    0.00181   -0.00298   -0.00036   0.00000  0.00000  0.00000  0.00000  0.00000  0.00000
2268 259365.000   4402960.1943    666834.3094   4550857.9742   6  11   0.1574   0.0653   0.1897   0.0695   0.0863   0.1428   0.00    0.0    0.00169   -0.00309   -0.00057   0.00000  0.00000  0.00000  0.00000  0.00000  0.00000
2268 259366.000   4402960.1799    666834.3011   4550857.9551   6  12   0.1568   0.0651   0.1891   0.0693   0.0860   0.1422   0.00    0.0    0.00141   -0.00308   -0.00111   0.00000  0.00000  0.00000  0.00000  0.00000  0.00000
2268 259367.000   4402960.1841    666834.2891   4550857.9506   6  12   0.1562   0.0648   0.1885   0.0690   0.0857   0.1417   0.00    0.0    0.00140   -0.00307   -0.00076   0.00000  0.00000  0.00000  0.00000  0.00000  0.00000
2268 259368.000   4402960.1632    666834.2892   4550857.9561   6  11   0.1558   0.0647   0.1879   0.0687   0.0854   0.1412   0.00    0.0    0.00198   -0.00299   -0.00076   0.00000  0.00000  0.00000  0.00000  0.00000  0.00000
2268 259369.000   4402960.1542    666834.2987   4550857.9494   6  11   0.1553   0.0645   0.1873   0.0685   0.0851   0.1407   0.00    0.0    0.00170   -0.00294   -0.00047   0.00000  0.00000  0.00000  0.00000  0.00000  0.00000
2268 259370.000   4402960.1564    666834.2918   4550857.9250   6  12   0.1547   0.0643   0.1866   0.0682   0.0848   0.1402   0.00    0.0    0.00147   -0.00330   -0.00072   0.00000  0.00000  0.00000  0.00000  0.00000  0.00000
2268 259371.000   4402960.1814    666834.2899   4550857.9640   6  12   0.1541   0.0640   0.1860   0.0680   0.0845   0.1397   0.00    0.0    0.00169   -0.00280   -0.00019   0.00000  0.00000  0.00000  0.00000  0.00000  0.00000
2268 259372.000   4402960.1596    666834.2873   4550857.9608   6  11   0.1537   0.0639   0.1854   0.0677   0.0843   0.1392   0.00    0.0    0.00166   -0.00280   -0.00020   0.00000  0.00000  0.00000  0.00000  0.00000  0.00000
2268 259373.000   4402960.1773    666834.2866   4550857.9892   6  12   0.1532   0.0636   0.1848   0.0674   0.0840   0.1387   0.00    0.0    0.00181   -0.00288   -0.00027   0.00000  0.00000  0.00000  0.00000  0.00000  0.00000
2268 259374.000   4402960.1613    666834.2876   4550857.9845   6  11   0.1527   0.0635   0.1842   0.0671   0.0837   0.1382   0.00    0.0    0.00215   -0.00301   -0.00063   0.00000  0.00000  0.00000  0.00000  0.00000  0.00000
2268 259375.000   4402960.1713    666834.2842   4550857.9900   6  12   0.1522   0.0633   0.1836   0.0669   0.0834   0.1377   0.00    0.0    0.00153   -0.00298   -0.00026   0.00000  0.00000  0.00000  0.00000  0.00000  0.00000
2268 259376.000   4402960.1517    666834.2816   4550857.9974   6  10   0.1522   0.0632   0.1834   0.0669   0.0834   0.1377   0.00    0.0   -0.00036   -0.00235   -0.00104   0.00000  0.00000  0.00000  0.00000  0.00000  0.00000
2268 259377.000   4402960.1470    666834.2878   4550858.0013   6  10   0.1522   0.0631   0.1832   0.0669   0.0834   0.1377   0.00    0.0   -0.00036   -0.00229   -0.00152   0.00000  0.00000  0.00000  0.00000  0.00000  0.00000
2268 259378.000   4402960.1299    666834.2836   4550857.9980   6  10   0.1521   0.0631   0.1831   0.0670   0.0834   0.1377   0.00    0.0   -0.00032   -0.00254   -0.00109   0.00000  0.00000  0.00000  0.00000  0.00000  0.00000
2268 259379.000   4402960.1174    666834.2828   4550857.9856   6  10   0.1520   0.0630   0.1829   0.0671   0.0834   0.1378   0.00    0.0   -0.00019   -0.00239   -0.00183   0.00000  0.00000  0.00000  0.00000  0.00000  0.00000
2268 259380.000   4402960.1303    666834.2795   4550857.9902   6  11   0.1518   0.0629   0.1827   0.0672   0.0835   0.1378   0.00    0.0   -0.00048   -0.00242   -0.00108   0.00000  0.00000  0.00000  0.00000  0.00000  0.00000
2268 259381.000   4402960.1383    666834.2838   4550857.9807   6  11   0.1517   0.0628   0.1825   0.0673   0.0835   0.1378   0.00    0.0   -0.00004   -0.00231   -0.00150   0.00000  0.00000  0.00000  0.00000  0.00000  0.00000
2268 259382.000   4402960.1302    666834.2883   4550857.9910   6  10   0.1518   0.0628   0.1824   0.0674   0.0835   0.1379   0.00    0.0   -0.00040   -0.00235   -0.00092   0.00000  0.00000  0.00000  0.00000  0.00000  0.00000
2268 259383.000   4402960.1315    666834.2909   4550857.9991   6  10   0.1517   0.0627   0.1822   0.0675   0.0835   0.1379   0.00    0.0    0.00005   -0.00219   -0.00035   0.00000  0.00000  0.00000  0.00000  0.00000  0.00000
2268 259384.000   4402960.1338    666834.2903   4550858.0132   6  11   0.1516   0.0627   0.1821   0.0676   0.0835   0.1380   0.00    0.0   -0.00053   -0.00244   -0.00123   0.00000  0.00000  0.00000  0.00000  0.00000  0.00000
2268 259385.000   4402960.1161    666834.2839   4550858.0113   6  10   0.1516   0.0626   0.1819   0.0676   0.0835   0.1380   0.00    0.0   -0.00003   -0.00237   -0.00068   0.00000  0.00000  0.00000  0.00000  0.00000  0.00000
2268 259386.000   4402960.0995    666834.2818   4550857.9937   6  11   0.1515   0.0625   0.1818   0.0677   0.0835   0.1380   0.00    0.0   -0.00059   -0.00231   -0.00141   0.00000  0.00000  0.00000  0.00000  0.00000  0.00000
2268 259387.000   4402960.0787    666834.2686   4550857.9642   6  11   0.1514   0.0625   0.1816   0.0678   0.0836   0.1381   0.00    0.0   -0.00006   -0.00237   -0.00094   0.00000  0.00000  0.00000  0.00000  0.00000  0.00000
2268 259388.000   4402960.0943    666834.2666   4550857.9843   6  11   0.1513   0.0624   0.1815   0.0679   0.0836   0.1381   0.00    0.0   -0.00036   -0.00233   -0.00118   0.00000  0.00000  0.00000  0.00000  0.00000  0.00000
2268 259389.000   4402960.0913    666834.2743   4550857.9689   6  11   0.1512   0.0623   0.1813   0.0680   0.0836   0.1382   0.00    0.0   -0.00053   -0.00239   -0.00141   0.00000  0.00000  0.00000  0.00000  0.00000  0.00000
2268 259390.000   4402960.0716    666834.2736   4550857.9680   6  10   0.1513   0.0623   0.1812   0.0681   0.0836   0.1382   0.00    0.0   -0.00024   -0.00222   -0.00201   0.00000  0.00000  0.00000  0.00000  0.00000  0.00000
2268 259391.000   4402960.0713    666834.2704   4550857.9986   6  10   0.1513   0.0622   0.1811   0.0681   0.0836   0.1382   0.00    0.0   -0.00060   -0.00221   -0.00154   0.00000  0.00000  0.00000  0.00000  0.00000  0.00000
2268 259392.000   4402960.0711    666834.2693   4550858.0078   6  11   0.1512   0.0622   0.1809   0.0682   0.0837   0.1383   0.00    0.0   -0.00037   -0.00249   -0.00127   0.00000  0.00000  0.00000  0.00000  0.00000  0.00000
2268 259393.000   4402960.0726    666834.2677   4550858.0024   6  10   0.1514   0.0621   0.1810   0.0684   0.0837   0.1386   0.00    0.0   -0.00047   -0.00250   -0.00189   0.00000  0.00000  0.00000  0.00000  0.00000  0.00000
2268 259394.000   4402960.0653    666834.2679   4550858.0010   6  10   0.1514   0.0621   0.1808   0.0684   0.0837   0.1386   0.00    0.0   -0.00026   -0.00218   -0.00103   0.00000  0.00000  0.00000  0.00000  0.00000  0.00000
2268 259395.000   4402960.0759    666834.2655   4550858.0162   6  11   0.1513   0.0620   0.1807   0.0685   0.0838   0.1386   0.00    0.0    0.00028   -0.00225   -0.00071   0.00000  0.00000  0.00000  0.00000  0.00000  0.00000
2268 259396.000   4402960.0344    666834.2588   4550857.9967   6  10   0.1513   0.0619   0.1806   0.0685   0.0838   0.1387   0.00    0.0   -0.00046   -0.00255   -0.00128   0.00000  0.00000  0.00000  0.00000  0.00000  0.00000
2268 259397.000   4402960.0470    666834.2575   4550857.9950   6  10   0.1515   0.0619   0.1806   0.0687   0.0838   0.1389   0.00    0.0   -0.00010   -0.00233   -0.00127   0.00000  0.00000  0.00000  0.00000  0.00000  0.00000
2268 259398.000   4402960.0493    666834.2533   4550857.9852   6  11   0.1513   0.0618   0.1805   0.0688   0.0838   0.1389   0.00    0.0   -0.00012   -0.00217   -0.00114   0.00000  0.00000  0.00000  0.00000  0.00000  0.00000
2268 259399.000   4402960.0267    666834.2421   4550857.9451   6  11   0.1512   0.0617   0.1803   0.0688   0.0838   0.1390   0.00    0.0   -0.00016   -0.00225   -0.00135   0.00000  0.00000  0.00000  0.00000  0.00000  0.00000
2268 259400.000   4402960.0296    666834.2415   4550857.9547   6  11   0.1511   0.0617   0.1802   0.0689   0.0838   0.1390   0.00    0.0   -0.00025   -0.00252   -0.00137   0.00000  0.00000  0.00000  0.00000  0.00000  0.00000
2268 259401.000   4402960.0363    666834.2457   4550857.9568   6  11   0.1510   0.0616   0.1800   0.0690   0.0838   0.1390   0.00    0.0   -0.00036   -0.00234   -0.00117   0.00000  0.00000  0.00000  0.00000  0.00000  0.00000
2268 259402.000   4402960.0200    666834.2434   4550857.9578   6  10   0.1511   0.0615   0.1799   0.0690   0.0839   0.1390   0.00    0.0   -0.00050   -0.00240   -0.00145   0.00000  0.00000  0.00000  0.00000  0.00000  0.00000
2268 259403.000   4402960.0244    666834.2471   4550857.9761   6  10   0.1511   0.0615   0.1798   0.0690   0.0839   0.1390   0.00    0.0   -0.00001   -0.00251   -0.00136   0.00000  0.00000  0.00000  0.00000  0.00000  0.00000
2268 259404.000   4402960.0018    666834.2374   4550857.9766   6  11   0.1510   0.0614   0.1796   0.0691   0.0839   0.1391   0.00    0.0    0.00021   -0.00252   -0.00098   0.00000  0.00000  0.00000  0.00000  0.00000  0.00000
2268 259405.000   4402960.0062    666834.2407   4550857.9921   6  11   0.1509   0.0613   0.1795   0.0692   0.0839   0.1391   0.00    0.0    0.00027   -0.00249   -0.00094   0.00000  0.00000  0.00000  0.00000  0.00000  0.00000
2268 259406.000   4402959.9952    666834.2297   4550857.9791   6  11   0.1508   0.0613   0.1793   0.0692   0.0839   0.1391   0.00    0.0    0.00038   -0.00231   -0.00059   0.00000  0.00000  0.00000  0.00000  0.00000  0.00000
2268 259407.000   4402959.9731    666834.2247   4550857.9837   6  11   0.1506   0.0612   0.1792   0.0693   0.0838   0.1391   0.00    0.0   -0.00003   -0.00249   -0.00126   0.00000  0.00000  0.00000  0.00000  0.00000  0.00000
2268 259408.000   4402959.9751    666834.2283   4550857.9793   6   9   0.1509   0.0612   0.1792   0.0694   0.0839   0.1393   0.00    0.0   -0.00030   -0.00236   -0.00138   0.00000  0.00000  0.00000  0.00000  0.00000  0.00000
2268 259409.000   4402959.9665    666834.2285   4550857.9759   6  11   0.1508   0.0611   0.1791   0.0694   0.0839   0.1393   0.00    0.0   -0.00028   -0.00258   -0.00172   0.00000  0.00000  0.00000  0.00000  0.00000  0.00000
2268 259410.000   4402959.9579    666834.2251   4550857.9727   6  11   0.1506   0.0610   0.1789   0.0695   0.0839   0.1393   0.00    0.0   -0.00006   -0.00248   -0.00138   0.00000  0.00000  0.00000  0.00000  0.00000  0.00000
2268 259411.000   4402959.9983    666834.2243   4550858.0032   6  11   0.1505   0.0610   0.1788   0.0695   0.0839   0.1393   0.00    0.0    0.00001   -0.00202   -0.00053   0.00000  0.00000  0.00000  0.00000  0.00000  0.00000
2268 259412.000   4402959.9958    666834.2300   4550858.0322   6  10   0.1505   0.0609   0.1786   0.0695   0.0839   0.1393   0.00    0.0   -0.00048   -0.00230   -0.00096   0.00000  0.00000  0.00000  0.00000  0.00000  0.00000
2268 259413.000   4402959.9964    666834.2299   4550858.0318   6  11   0.1504   0.0608   0.1785   0.0696   0.0838   0.1393   0.00    0.0   -0.00041   -0.00249   -0.00201   0.00000  0.00000  0.00000  0.00000  0.00000  0.00000
2268 259414.000   4402959.9753    666834.2258   4550858.0082   6  11   0.1503   0.0608   0.1783   0.0696   0.0838   0.1393   0.00    0.0   -0.00016   -0.00244   -0.00132   0.00000  0.00000  0.00000  0.00000  0.00000  0.00000
2268 259415.000   4402959.9934    666834.2273   4550858.0197   6  11   0.1501   0.0607   0.1782   0.0696   0.0838   0.1393   0.00    0.0    0.00018   -0.00226   -0.00032   0.00000  0.00000  0.00000  0.00000  0.00000  0.00000
2268 259416.000   4402960.0093    666834.2281   4550858.0253   6  11   0.1500   0.0606   0.1780   0.0697   0.0838   0.1393   0.00    0.0   -0.00041   -0.00205   -0.00147   0.00000  0.00000  0.00000  0.00000  0.00000  0.00000
2268 259417.000   4402959.9818    666834.2229   4550857.9818   6  11   0.1499   0.0605   0.1778   0.0697   0.0837   0.1392   0.00    0.0   -0.00037   -0.00252   -0.00172   0.00000  0.00000  0.00000  0.00000  0.00000  0.00000
2268 259418.000   4402959.9663    666834.2128   4550857.9784   6  11   0.1498   0.0605   0.1777   0.0697   0.0837   0.1392   0.00    0.0   -0.00018   -0.00218   -0.00106   0.00000  0.00000  0.00000  0.00000  0.00000  0.00000
2268 259419.000   4402959.9455    666834.2090   4550857.9690   6  11   0.1497   0.0604   0.1775   0.0698   0.0837   0.1392   0.00    0.0   -0.00086   -0.00239   -0.00217   0.00000  0.00000  0.00000  0.00000  0.00000  0.00000
2268 259420.000   4402959.9084    666834.2015   4550857.9419   6  11   0.1495   0.0603   0.1774   0.0698   0.0836   0.1392   0.00    0.0   -0.00041   -0.00259   -0.00156   0.00000  0.00000  0.00000  0.00000  0.00000  0.00000
2268 259421.000   4402959.8882    666834.1975   4550857.9208   6  10   0.1494   0.0603   0.1772   0.0698   0.0836   0.1392   0.00    0.0    0.00009   -0.00220   -0.00120   0.00000  0.00000  0.00000  0.00000  0.00000  0.00000
2268 259422.000   4402959.9057    666834.1938   4550857.9444   6  11   0.1493   0.0602   0.1770   0.0698   0.0836   0.1391   0.00    0.0    0.00009   -0.00223   -0.00139   0.00000  0.00000  0.00000  0.00000  0.00000  0.00000
2268 259423.000   4402959.8964    666834.1929   4550857.9221   6  11   0.1492   0.0601   0.1769   0.0699   0.0835   0.1391   0.00    0.0   -0.00051   -0.00232   -0.00105   0.00000  0.00000  0.00000  0.00000  0.00000  0.00000
2268 259424.000   4402959.8801    666834.1938   4550857.9011   6  11   0.1491   0.0601   0.1767   0.0699   0.0835   0.1391   0.00    0.0   -0.00008   -0.00248   -0.00130   0.00000  0.00000  0.00000  0.00000  0.00000  0.00000
2268 259425.000   4402959.8799    666834.1896   4550857.9018   6  11   0.1489   0.0600   0.1765   0.0699   0.0835   0.1390   0.00    0.0   -0.00007   -0.00221   -0.00094   0.00000  0.00000  0.00000  0.00000  0.00000  0.00000
2268 259426.000   4402959.8551    666834.1807   4550857.8791   6  11   0.1488   0.0599   0.1764   0.0699   0.0834   0.1390   0.00    0.0    0.00019   -0.00259   -0.00110   0.00000  0.00000  0.00000  0.00000  0.00000  0.00000
2268 259427.000   4402959.8586    666834.1820   4550857.8770   6  11   0.1487   0.0598   0.1762   0.0699   0.0834   0.1390   0.00    0.0   -0.00011   -0.00241   -0.00092   0.00000  0.00000  0.00000  0.00000  0.00000  0.00000
2268 259428.000   4402959.8460    666834.1795   4550857.8784   6  11   0.1486   0.0598   0.1760   0.0699   0.0834   0.1389   0.00    0.0   -0.00038   -0.00242   -0.00147   0.00000  0.00000  0.00000  0.00000  0.00000  0.00000
2268 259429.000   4402959.8466    666834.1743   4550857.8523   6  11   0.1484   0.0597   0.1759   0.0699   0.0833   0.1389   0.00    0.0    0.00000   -0.00236   -0.00113   0.00000  0.00000  0.00000  0.00000  0.00000  0.00000
2268 259430.000   4402959.8346    666834.1767   4550857.8660   6  11   0.1483   0.0596   0.1757   0.0699   0.0833   0.1388   0.00    0.0   -0.00030   -0.00235   -0.00073   0.00000  0.00000  0.00000  0.00000  0.00000  0.00000
2268 259431.000   4402959.8088    666834.1759   4550857.8359   6  11   0.1482   0.0595   0.1755   0.0699   0.0832   0.1388   0.00    0.0   -0.00038   -0.00241   -0.00188   0.00000  0.00000  0.00000  0.00000  0.00000  0.00000
2268 259432.000   4402959.7984    666834.1705   4550857.8194   6  11   0.1481   0.0595   0.1754   0.0699   0.0832   0.1387   0.00    0.0   -0.00022   -0.00239   -0.00201   0.00000  0.00000  0.00000  0.00000  0.00000  0.00000
2268 259433.000   4402959.7775    666834.1643   4550857.8241   6  10   0.1480   0.0594   0.1752   0.0699   0.0831   0.1387   0.00    0.0    0.00005   -0.00216   -0.00064   0.00000  0.00000  0.00000  0.00000  0.00000  0.00000
2268 259434.000   4402959.7848    666834.1729   4550857.8441   6  11   0.1478   0.0593   0.1750   0.0699   0.0831   0.1386   0.00    0.0   -0.00003   -0.00225   -0.00079   0.00000  0.00000  0.00000  0.00000  0.00000  0.00000
2268 259435.000   4402959.7784    666834.1732   4550857.8445   6  11   0.1477   0.0593   0.1749   0.0699   0.0830   0.1386   0.00    0.0    0.00013   -0.00224   -0.00115   0.00000  0.00000  0.00000  0.00000  0.00000  0.00000
2268 259436.000   4402959.7787    666834.1748   4550857.8464   6  11   0.1476   0.0592   0.1747   0.0699   0.0830   0.1385   0.00    0.0   -0.00017   -0.00261   -0.00112   0.00000  0.00000  0.00000  0.00000  0.00000  0.00000
2268 259437.000   4402959.7843    666834.1673   4550857.8415   6  11   0.1475   0.0591   0.1745   0.0699   0.0829   0.1385   0.00    0.0   -0.00025   -0.00205   -0.00100   0.00000  0.00000  0.00000  0.00000  0.00000  0.00000
2268 259438.000   4402959.7986    666834.1681   4550857.8480   6  11   0.1473   0.0590   0.1743   0.0699   0.0829   0.1384   0.00    0.0   -0.00094   -0.00231   -0.00149   0.00000  0.00000  0.00000  0.00000  0.00000  0.00000
2268 259439.000   4402959.7975    666834.1676   4550857.8350   6  11   0.1472   0.0590   0.1742   0.0699   0.0828   0.1384   0.00    0.0   -0.00059   -0.00229   -0.00195   0.00000  0.00000  0.00000  0.00000  0.00000  0.00000
2268 259440.000   4402959.8087    666834.1710   4550857.8481   6  11   0.1471   0.0589   0.1740   0.0699   0.0828   0.1383   0.00    0.0   -0.00011   -0.00224   -0.00088   0.00000  0.00000  0.00000  0.00000  0.00000  0.00000
2268 259441.000   4402959.8031    666834.1702   4550857.8466   6  11   0.1469   0.0588   0.1738   0.0699   0.0827   0.1383   0.00    0.0   -0.00054   -0.00260   -0.00171   0.00000  0.00000  0.00000  0.00000  0.00000  0.00000
2268 259442.000   4402959.7910    666834.1647   4550857.8398   6  11   0.1468   0.0587   0.1736   0.0699   0.0827   0.1382   0.00    0.0    0.00020   -0.00230   -0.00085   0.00000  0.00000  0.00000  0.00000  0.00000  0.00000
2268 259443.000   4402959.7712    666834.1600   4550857.8272   6  11   0.1467   0.0587   0.1735   0.0699   0.0826   0.1381   0.00    0.0   -0.00001   -0.00247   -0.00115   0.00000  0.00000  0.00000  0.00000  0.00000  0.00000
2268 259444.000   4402959.7795    666834.1572   4550857.8425   6  11   0.1465   0.0586   0.1733   0.0698   0.0826   0.1381   0.00    0.0    0.00012   -0.00213   -0.00074   0.00000  0.00000  0.00000  0.00000  0.00000  0.00000
2268 259445.000   4402959.7708    666834.1517   4550857.8406   6  10   0.1465   0.0585   0.1731   0.0698   0.0825   0.1380   0.00    0.0   -0.00006   -0.00250   -0.00089   0.00000  0.00000  0.00000  0.00000  0.00000  0.00000
2268 259446.000   4402959.7688    666834.1561   4550857.8409   6  10   0.1464   0.0585   0.1730   0.0698   0.0825   0.1379   0.00    0.0    0.00026   -0.00233   -0.00160   0.00000  0.00000  0.00000  0.00000  0.00000  0.00000
2268 259447.000   4402959.7623    666834.1480   4550857.8274   6  11   0.1462   0.0584   0.1728   0.0698   0.0824   0.1379   0.00    0.0   -0.00014   -0.00239   -0.00139   0.00000  0.00000  0.00000  0.00000  0.00000  0.00000
2268 259448.000   4402959.7863    666834.1547   4550857.8573   6  10   0.1461   0.0584   0.1726   0.0698   0.0824   0.1378   0.00    0.0    0.00044   -0.00208    0.00005   0.00000  0.00000  0.00000  0.00000  0.00000  0.00000
2268 259449.000   4402959.7861    666834.1569   4550857.8592   6  10   0.1460   0.0583   0.1724   0.0698   0.0823   0.1377   0.00    0.0   -0.00023   -0.00229   -0.00105   0.00000  0.00000  0.00000  0.00000  0.00000  0.00000
2268 259450.000   4402959.8077    666834.1599   4550857.8786   6  11   0.1459   0.0583   0.1723   0.0698   0.0822   0.1377   0.00    0.0    0.00015   -0.00232   -0.00079   0.00000  0.00000  0.00000  0.00000  0.00000  0.00000
2268 259451.000   4402959.8092    666834.1640   4550857.8897   6  10   0.1458   0.0582   0.1721   0.0697   0.0822   0.1376   0.00    0.0    0.00004   -0.00266   -0.00143   0.00000  0.00000  0.00000  0.00000  0.00000  0.00000
2268 259452.000   4402959.8031    666834.1573   4550857.8916   6  11   0.1457   0.0581   0.1719   0.0697   0.0821   0.1375   0.00    0.0    0.00066   -0.00240   -0.00055   0.00000  0.00000  0.00000  0.00000  0.00000  0.00000
2268 259453.000   4402959.7860    666834.1542   4550857.8927   6  11   0.1455   0.0580   0.1718   0.0697   0.0821   0.1374   0.00    0.0   -0.00009   -0.00226   -0.00101   0.00000  0.00000  0.00000  0.00000  0.00000  0.00000
2268 259454.000   4402959.7847    666834.1556   4550857.8969   6  11   0.1454   0.0580   0.1716   0.0697   0.0820   0.1374   0.00    0.0   -0.00033   -0.00220   -0.00038   0.00000  0.00000  0.00000  0.00000  0.00000  0.00000
2268 259455.000   4402959.7646    666834.1514   4550857.8737   6  10   0.1453   0.0579   0.1714   0.0696   0.0820   0.1373   0.00    0.0   -0.00033   -0.00251   -0.00191   0.00000  0.00000  0.00000  0.00000  0.00000  0.00000
2268 259456.000   4402959.7813    666834.1574   4550857.8955   6  11   0.1452   0.0578   0.1712   0.0696   0.0819   0.1372   0.00    0.0   -0.00028   -0.00197   -0.00064   0.00000  0.00000  0.00000  0.00000  0.00000  0.00000
2268 259457.000   4402959.7855    666834.1534   4550857.8979   6  11   0.1450   0.0577   0.1711   0.0696   0.0818   0.1371   0.00    0.0   -0.00013   -0.00224   -0.00089   0.00000  0.00000  0.00000  0.00000  0.00000  0.00000
2268 259458.000   4402959.7778    666834.1543   4550857.8843   6  11   0.1449   0.0577   0.1709   0.0695   0.0818   0.1370   0.00    0.0   -0.00037   -0.00240   -0.00099   0.00000  0.00000  0.00000  0.00000  0.00000  0.00000
2268 259459.000   4402959.7811    666834.1633   4550857.9043   6   9   0.1449   0.0576   0.1707   0.0695   0.0817   0.1370   0.00    0.0   -0.00000   -0.00230   -0.00083   0.00000  0.00000  0.00000  0.00000  0.00000  0.00000
2268 259460.000   4402959.7887    666834.1715   4550857.9053   6  11   0.1447   0.0576   0.1706   0.0695   0.0817   0.1369   0.00    0.0    0.00011   -0.00229   -0.00142   0.00000  0.00000  0.00000  0.00000  0.00000  0.00000
2268 259461.000   4402959.7913    666834.1723   4550857.9038   6  11   0.1446   0.0575   0.1704   0.0695   0.0816   0.1368   0.00    0.0   -0.00012   -0.00232   -0.00074   0.00000  0.00000  0.00000  0.00000  0.00000  0.00000
2268 259462.000   4402959.7641    666834.1669   4550857.8877   6   9   0.1445   0.0574   0.1702   0.0694   0.0816   0.1367   0.00    0.0    0.00003   -0.00226   -0.00097   0.00000  0.00000  0.00000  0.00000  0.00000  0.00000
2268 259463.000   4402959.7674    666834.1595   4550857.8929   6  11   0.1444   0.0574   0.1701   0.0694   0.0815   0.1366   0.00    0.0    0.00016   -0.00219   -0.00088   0.00000  0.00000  0.00000  0.00000  0.00000  0.00000
2268 259464.000   4402959.7466    666834.1577   4550857.8749   6  11   0.1442   0.0573   0.1699   0.0694   0.0814   0.1366   0.00    0.0    0.00026   -0.00257   -0.00134   0.00000  0.00000  0.00000  0.00000  0.00000  0.00000
