% program   : GINav v0.1.0
% obs start : 2023/06/28 00:00:00.0
% obs end   : 2023/06/28 02:00:00.0
% mode      : PPP Kinematic
% system    : GPS GALILEO 
% nfreqs    : 2
% elev mask : 10.0 deg
% ephemeris : broadcast
% ionos opt : estimation
% trops opt : ZTD estimation
%
%  GPST              x-ecef(m)      y-ecef(m)      z-ecef(m)   Q  ns   sdx(m)   sdy(m)   sdz(m)  sdxy(m)  sdyz(m)  sdzx(m) age(s)  ratio    vx(m/s)    vy(m/s)    vz(m/s)      sdvx     sdvy     sdvz    sdvxy    sdvyz    sdvzx
2268 259201.000   4402957.3468    666836.5117   4550863.7413   6   9   1.9288   1.2317   2.3214  -0.5242   1.0946   1.2315   0.00    0.0   -0.00029   -0.00111    0.00186   0.00000  0.00000  0.00000  0.00000  0.00000  0.00000
2268 259202.000   4402957.6306    666836.0748   4550862.5202   6   9   1.4169   0.8911   1.6937  -0.3298   0.8079   0.9333   0.00    0.0   -0.00097   -0.00127    0.00121   0.00000  0.00000  0.00000  0.00000  0.00000  0.00000
2268 259203.000   4402957.5301    666836.2030   4550861.8502   6   9   1.2120   0.7460   1.4355  -0.2026   0.6947   0.8305   0.00    0.0   -0.00049   -0.00102    0.00196   0.00000  0.00000  0.00000  0.00000  0.00000  0.00000
2268 259204.000   4402957.0250    666836.4656   4550861.2569   6   9   1.1042   0.6625   1.2943   0.0498   0.6365   0.7891   0.00    0.0   -0.00104   -0.00066    0.00287   0.00000  0.00000  0.00000  0.00000  0.00000  0.00000
2268 259205.000   4402957.2082    666836.4398   4550861.9678   6   9   1.0412   0.6078   1.2074   0.1887   0.6035   0.7745   0.00    0.0   -0.00063   -0.00121    0.00166   0.00000  0.00000  0.00000  0.00000  0.00000  0.00000
2268 259206.000   4402957.5967    666836.4577   4550862.3643   6   9   1.0024   0.5691   1.1503   0.2505   0.5839   0.7727   0.00    0.0   -0.00116   -0.00084    0.00188   0.00000  0.00000  0.00000  0.00000  0.00000  0.00000
2268 259207.000   4402957.8831    666836.3489   4550861.9098   6   9   0.9778   0.5403   1.1112   0.2927   0.5722   0.7773   0.00    0.0   -0.00123   -0.00071    0.00194   0.00000  0.00000  0.00000  0.00000  0.00000  0.00000
2268 259208.000   4402957.6333    666836.2251   4550861.8603   6   9   0.9619   0.5182   1.0835   0.3246   0.5651   0.7847   0.00    0.0   -0.00086   -0.00094    0.00233   0.00000  0.00000  0.00000  0.00000  0.00000  0.00000
2268 259209.000   4402957.8535    666836.1422   4550862.0093   6   9   0.9512   0.5007   1.0631   0.3497   0.5608   0.7931   0.00    0.0   -0.00078   -0.00115    0.00146   0.00000  0.00000  0.00000  0.00000  0.00000  0.00000
2268 259210.000   4402958.0559    666836.1918   4550861.9536   6   9   0.9438   0.4863   1.0476   0.3700   0.5581   0.8014   0.00    0.0   -0.00122   -0.00060    0.00240   0.00000  0.00000  0.00000  0.00000  0.00000  0.00000
2268 259211.000   4402957.9549    666836.2489   4550861.8643   6   9   0.9383   0.4744   1.0353   0.3866   0.5563   0.8090   0.00    0.0   -0.00057   -0.00102    0.00269   0.00000  0.00000  0.00000  0.00000  0.00000  0.00000
2268 259212.000   4402957.9399    666836.3570   4550862.4079   6   9   0.9339   0.4642   1.0251   0.4002   0.5550   0.8157   0.00    0.0   -0.00054   -0.00115    0.00170   0.00000  0.00000  0.00000  0.00000  0.00000  0.00000
2268 259213.000   4402958.1248    666836.3185   4550862.6495   6   9   0.9301   0.4553   1.0163   0.4114   0.5538   0.8213   0.00    0.0   -0.00040   -0.00112    0.00190   0.00000  0.00000  0.00000  0.00000  0.00000  0.00000
2268 259214.000   4402957.8576    666836.3116   4550862.4224   6   9   0.9266   0.4474   1.0084   0.4206   0.5526   0.8258   0.00    0.0   -0.00134   -0.00044    0.00280   0.00000  0.00000  0.00000  0.00000  0.00000  0.00000
2268 259215.000   4402958.0909    666836.2919   4550862.6077   6   9   0.9230   0.4403   1.0011   0.4281   0.5512   0.8291   0.00    0.0   -0.00036   -0.00088    0.00191   0.00000  0.00000  0.00000  0.00000  0.00000  0.00000
2268 259216.000   4402958.1397    666836.3591   4550862.8164   6   9   0.9193   0.4338   0.9940   0.4342   0.5497   0.8315   0.00    0.0   -0.00068   -0.00097    0.00293   0.00000  0.00000  0.00000  0.00000  0.00000  0.00000
2268 259217.000   4402958.2632    666836.2314   4550862.6368   6   9   0.9153   0.4277   0.9872   0.4390   0.5480   0.8329   0.00    0.0   -0.00042   -0.00098    0.00210   0.00000  0.00000  0.00000  0.00000  0.00000  0.00000
2268 259218.000   4402958.2851    666836.3589   4550862.7160   6   9   0.9112   0.4221   0.9804   0.4428   0.5461   0.8334   0.00    0.0   -0.00084   -0.00099    0.00274   0.00000  0.00000  0.00000  0.00000  0.00000  0.00000
2268 259219.000   4402958.6031    666836.3009   4550862.8841   6   9   0.9068   0.4168   0.9737   0.4458   0.5439   0.8332   0.00    0.0   -0.00054   -0.00132    0.00181   0.00000  0.00000  0.00000  0.00000  0.00000  0.00000
2268 259220.000   4402958.5568    666836.3114   4550862.9111   6   9   0.9022   0.4117   0.9670   0.4479   0.5416   0.8323   0.00    0.0   -0.00108   -0.00047    0.00246   0.00000  0.00000  0.00000  0.00000  0.00000  0.00000
2268 259221.000   4402958.5131    666836.3291   4550862.6557   6   9   0.8974   0.4069   0.9603   0.4494   0.5391   0.8308   0.00    0.0   -0.00169   -0.00022    0.00324   0.00000  0.00000  0.00000  0.00000  0.00000  0.00000
2268 259222.000   4402958.2720    666836.2831   4550862.5339   6   9   0.8924   0.4023   0.9536   0.4503   0.5364   0.8288   0.00    0.0   -0.00057   -0.00068    0.00400   0.00000  0.00000  0.00000  0.00000  0.00000  0.00000
2268 259223.000   4402958.3033    666836.4014   4550862.7888   6   9   0.8872   0.3979   0.9468   0.4508   0.5336   0.8264   0.00    0.0   -0.00101   -0.00045    0.00303   0.00000  0.00000  0.00000  0.00000  0.00000  0.00000
2268 259224.000   4402958.3431    666836.3655   4550862.8322   6   9   0.8819   0.3936   0.9401   0.4508   0.5307   0.8236   0.00    0.0   -0.00091   -0.00056    0.00289   0.00000  0.00000  0.00000  0.00000  0.00000  0.00000
2268 259225.000   4402958.1998    666836.2712   4550862.5497   6   9   0.8766   0.3895   0.9334   0.4505   0.5278   0.8205   0.00    0.0   -0.00123   -0.00049    0.00311   0.00000  0.00000  0.00000  0.00000  0.00000  0.00000
2268 259226.000   4402958.0361    666836.2273   4550862.3375   6   9   0.8711   0.3855   0.9267   0.4499   0.5247   0.8171   0.00    0.0   -0.00142   -0.00020    0.00362   0.00000  0.00000  0.00000  0.00000  0.00000  0.00000
2268 259227.000   4402958.0806    666836.1623   4550862.3692   6   9   0.8655   0.3816   0.9200   0.4490   0.5216   0.8134   0.00    0.0   -0.00071   -0.00055    0.00366   0.00000  0.00000  0.00000  0.00000  0.00000  0.00000
2268 259228.000   4402957.9673    666836.0705   4550862.2863   6   9   0.8600   0.3778   0.9134   0.4479   0.5184   0.8096   0.00    0.0   -0.00111   -0.00037    0.00330   0.00000  0.00000  0.00000  0.00000  0.00000  0.00000
2268 259229.000   4402958.3157    666836.1157   4550862.5683   6   9   0.8544   0.3742   0.9068   0.4467   0.5153   0.8057   0.00    0.0   -0.00104   -0.00066    0.00258   0.00000  0.00000  0.00000  0.00000  0.00000  0.00000
2268 259230.000   4402958.3165    666836.1400   4550862.7117   6   9   0.8488   0.3706   0.9003   0.4452   0.5121   0.8016   0.00    0.0   -0.00086   -0.00027    0.00380   0.00000  0.00000  0.00000  0.00000  0.00000  0.00000
2268 259231.000   4402958.4338    666836.3362   4550863.1090   6   9   0.8432   0.3672   0.8938   0.4437   0.5089   0.7975   0.00    0.0   -0.00139   -0.00017    0.00373   0.00000  0.00000  0.00000  0.00000  0.00000  0.00000
2268 259232.000   4402958.5333    666836.3958   4550863.1432   6   9   0.8376   0.3638   0.8875   0.4420   0.5057   0.7932   0.00    0.0   -0.00094   -0.00009    0.00431   0.00000  0.00000  0.00000  0.00000  0.00000  0.00000
2268 259233.000   4402958.4699    666836.4507   4550863.1323   6   9   0.8321   0.3606   0.8812   0.4403   0.5025   0.7890   0.00    0.0   -0.00063   -0.00022    0.00483   0.00000  0.00000  0.00000  0.00000  0.00000  0.00000
2268 259234.000   4402958.2764    666836.4113   4550862.9237   6   9   0.8266   0.3574   0.8750   0.4385   0.4993   0.7846   0.00    0.0   -0.00154    0.00004    0.00460   0.00000  0.00000  0.00000  0.00000  0.00000  0.00000
2268 259235.000   4402958.1506    666836.2587   4550862.7190   6   9   0.8212   0.3543   0.8689   0.4366   0.4961   0.7803   0.00    0.0   -0.00093   -0.00060    0.00346   0.00000  0.00000  0.00000  0.00000  0.00000  0.00000
2268 259236.000   4402958.0568    666836.2504   4550862.5782   6   9   0.8158   0.3513   0.8629   0.4347   0.4930   0.7760   0.00    0.0   -0.00133    0.00018    0.00524   0.00000  0.00000  0.00000  0.00000  0.00000  0.00000
2268 259237.000   4402957.9466    666836.2808   4550862.5521   6   9   0.8105   0.3483   0.8569   0.4327   0.4899   0.7717   0.00    0.0   -0.00118   -0.00005    0.00492   0.00000  0.00000  0.00000  0.00000  0.00000  0.00000
2268 259238.000   4402957.7328    666836.2437   4550862.4333   6   9   0.8053   0.3454   0.8511   0.4307   0.4869   0.7673   0.00    0.0   -0.00072    0.00001    0.00536   0.00000  0.00000  0.00000  0.00000  0.00000  0.00000
2268 259239.000   4402957.7909    666836.2245   4550862.5127   6   9   0.8001   0.3426   0.8454   0.4287   0.4838   0.7631   0.00    0.0   -0.00104   -0.00045    0.00418   0.00000  0.00000  0.00000  0.00000  0.00000  0.00000
2268 259240.000   4402957.7402    666836.0647   4550862.3045   6   9   0.7950   0.3399   0.8398   0.4267   0.4809   0.7588   0.00    0.0   -0.00107   -0.00022    0.00419   0.00000  0.00000  0.00000  0.00000  0.00000  0.00000
2268 259241.000   4402957.8359    666836.0544   4550862.3932   6   9   0.7900   0.3373   0.8343   0.4247   0.4779   0.7546   0.00    0.0   -0.00071   -0.00009    0.00412   0.00000  0.00000  0.00000  0.00000  0.00000  0.00000
2268 259242.000   4402957.8552    666836.0605   4550862.3986   6   9   0.7850   0.3347   0.8288   0.4227   0.4750   0.7504   0.00    0.0   -0.00145   -0.00002    0.00400   0.00000  0.00000  0.00000  0.00000  0.00000  0.00000
2268 259243.000   4402957.9641    666836.0466   4550862.4132   6   9   0.7802   0.3321   0.8235   0.4207   0.4722   0.7463   0.00    0.0   -0.00132    0.00041    0.00467   0.00000  0.00000  0.00000  0.00000  0.00000  0.00000
2268 259244.000   4402957.9311    666836.0601   4550862.3963   6   9   0.7754   0.3297   0.8183   0.4187   0.4694   0.7422   0.00    0.0   -0.00162    0.00045    0.00595   0.00000  0.00000  0.00000  0.00000  0.00000  0.00000
2268 259245.000   4402957.7830    666836.0059   4550862.2290   6   9   0.7707   0.3273   0.8132   0.4167   0.4666   0.7382   0.00    0.0   -0.00163    0.00037    0.00539   0.00000  0.00000  0.00000  0.00000  0.00000  0.00000
2268 259246.000   4402957.8563    666836.0455   4550862.3831   6   9   0.7661   0.3249   0.8082   0.4147   0.4639   0.7342   0.00    0.0   -0.00061   -0.00014    0.00569   0.00000  0.00000  0.00000  0.00000  0.00000  0.00000
2268 259247.000   4402957.9068    666836.0648   4550862.3877   6   9   0.7616   0.3226   0.8033   0.4127   0.4612   0.7303   0.00    0.0   -0.00137    0.00004    0.00540   0.00000  0.00000  0.00000  0.00000  0.00000  0.00000
2268 259248.000   4402958.0098    666836.1037   4550862.4220   6   9   0.7571   0.3204   0.7985   0.4108   0.4586   0.7264   0.00    0.0   -0.00128    0.00062    0.00633   0.00000  0.00000  0.00000  0.00000  0.00000  0.00000
2268 259249.000   4402958.0158    666836.0716   4550862.4258   6   9   0.7527   0.3182   0.7937   0.4089   0.4560   0.7226   0.00    0.0   -0.00056    0.00019    0.00584   0.00000  0.00000  0.00000  0.00000  0.00000  0.00000
2268 259250.000   4402958.2692    666836.1013   4550862.6272   6   9   0.7484   0.3160   0.7891   0.4070   0.4535   0.7189   0.00    0.0   -0.00147    0.00012    0.00523   0.00000  0.00000  0.00000  0.00000  0.00000  0.00000
2268 259251.000   4402958.3567    666836.1374   4550862.7356   6   9   0.7442   0.3139   0.7845   0.4051   0.4510   0.7152   0.00    0.0   -0.00090    0.00040    0.00648   0.00000  0.00000  0.00000  0.00000  0.00000  0.00000
2268 259252.000   4402958.2309    666836.1212   4550862.5876   6   9   0.7401   0.3119   0.7801   0.4032   0.4486   0.7116   0.00    0.0   -0.00135    0.00072    0.00733   0.00000  0.00000  0.00000  0.00000  0.00000  0.00000
2268 259253.000   4402958.1136    666836.0871   4550862.4453   6   9   0.7360   0.3099   0.7757   0.4014   0.4462   0.7080   0.00    0.0   -0.00207    0.00056    0.00673   0.00000  0.00000  0.00000  0.00000  0.00000  0.00000
2268 259254.000   4402958.1435    666836.0874   4550862.5079   6   9   0.7321   0.3079   0.7714   0.3996   0.4438   0.7045   0.00    0.0   -0.00101    0.00055    0.00669   0.00000  0.00000  0.00000  0.00000  0.00000  0.00000
2268 259255.000   4402958.1413    666836.0703   4550862.4588   6   9   0.7281   0.3060   0.7672   0.3978   0.4415   0.7010   0.00    0.0   -0.00169    0.00073    0.00699   0.00000  0.00000  0.00000  0.00000  0.00000  0.00000
2268 259256.000   4402958.0970    666836.0500   4550862.4465   6   9   0.7243   0.3041   0.7631   0.3960   0.4392   0.6976   0.00    0.0   -0.00107    0.00064    0.00704   0.00000  0.00000  0.00000  0.00000  0.00000  0.00000
2268 259257.000   4402958.0894    666836.0306   4550862.4380   6   9   0.7205   0.3023   0.7591   0.3943   0.4370   0.6943   0.00    0.0   -0.00188    0.00062    0.00702   0.00000  0.00000  0.00000  0.00000  0.00000  0.00000
2268 259258.000   4402958.2070    666836.0796   4550862.5236   6   9   0.7168   0.3005   0.7551   0.3926   0.4348   0.6910   0.00    0.0   -0.00147    0.00068    0.00778   0.00000  0.00000  0.00000  0.00000  0.00000  0.00000
2268 259259.000   4402958.2160    666836.1394   4550862.5445   6   9   0.7132   0.2988   0.7513   0.3909   0.4327   0.6878   0.00    0.0   -0.00194    0.00136    0.00882   0.00000  0.00000  0.00000  0.00000  0.00000  0.00000
2268 259260.000   4402958.0544    666836.0786   4550862.3865   6   9   0.7097   0.2970   0.7475   0.3893   0.4306   0.6846   0.00    0.0   -0.00165    0.00078    0.00761   0.00000  0.00000  0.00000  0.00000  0.00000  0.00000
2268 259261.000   4402958.1600    666836.1454   4550862.5223   6   9   0.7062   0.2954   0.7437   0.3876   0.4285   0.6815   0.00    0.0    0.00063   -0.00277   -0.00223   0.00000  0.00000  0.00000  0.00000  0.00000  0.00000
2268 259262.000   4402958.2191    666836.1577   4550862.5550   6   9   0.7027   0.2937   0.7401   0.3860   0.4265   0.6785   0.00    0.0    0.00029   -0.00268   -0.00220   0.00000  0.00000  0.00000  0.00000  0.00000  0.00000
2268 259263.000   4402958.1992    666836.1525   4550862.5724   6   9   0.6994   0.2921   0.7365   0.3844   0.4245   0.6755   0.00    0.0    0.00069   -0.00287   -0.00298   0.00000  0.00000  0.00000  0.00000  0.00000  0.00000
2268 259264.000   4402958.3304    666836.1837   4550862.6402   6   9   0.6961   0.2905   0.7330   0.3829   0.4225   0.6725   0.00    0.0    0.00061   -0.00232   -0.00262   0.00000  0.00000  0.00000  0.00000  0.00000  0.00000
2268 259265.000   4402958.3282    666836.1708   4550862.6755   6   9   0.6928   0.2890   0.7295   0.3813   0.4206   0.6696   0.00    0.0    0.00105   -0.00271   -0.00186   0.00000  0.00000  0.00000  0.00000  0.00000  0.00000
2268 259266.000   4402958.2204    666836.1779   4550862.6145   6   9   0.6896   0.2875   0.7261   0.3798   0.4187   0.6668   0.00    0.0    0.00082   -0.00304   -0.00259   0.00000  0.00000  0.00000  0.00000  0.00000  0.00000
2268 259267.000   4402958.0751    666836.1003   4550862.4600   6   9   0.6865   0.2860   0.7228   0.3784   0.4169   0.6640   0.00    0.0    0.00031   -0.00276   -0.00267   0.00000  0.00000  0.00000  0.00000  0.00000  0.00000
2268 259268.000   4402957.9926    666836.0664   4550862.3544   6   9   0.6834   0.2845   0.7195   0.3769   0.4151   0.6612   0.00    0.0    0.00093   -0.00289   -0.00229   0.00000  0.00000  0.00000  0.00000  0.00000  0.00000
2268 259269.000   4402958.0503    666836.1122   4550862.4596   6   9   0.6804   0.2831   0.7163   0.3755   0.4133   0.6585   0.00    0.0    0.00081   -0.00306   -0.00263   0.00000  0.00000  0.00000  0.00000  0.00000  0.00000
2268 259270.000   4402958.2210    666836.1163   4550862.5549   6   9   0.6775   0.2817   0.7132   0.3740   0.4115   0.6558   0.00    0.0   -0.00005   -0.00261   -0.00261   0.00000  0.00000  0.00000  0.00000  0.00000  0.00000
2268 259271.000   4402958.1756    666836.0892   4550862.4729   6   9   0.6746   0.2803   0.7101   0.3727   0.4098   0.6532   0.00    0.0    0.00080   -0.00260   -0.00243   0.00000  0.00000  0.00000  0.00000  0.00000  0.00000
2268 259272.000   4402958.2590    666836.0954   4550862.5368   6   9   0.6717   0.2790   0.7071   0.3713   0.4081   0.6507   0.00    0.0    0.00036   -0.00258   -0.00286   0.00000  0.00000  0.00000  0.00000  0.00000  0.00000
2268 259273.000   4402958.2532    666836.0948   4550862.5105   6   9   0.6689   0.2776   0.7041   0.3699   0.4065   0.6481   0.00    0.0    0.00090   -0.00287   -0.00311   0.00000  0.00000  0.00000  0.00000  0.00000  0.00000
2268 259274.000   4402958.2439    666836.0335   4550862.4617   6   9   0.6661   0.2763   0.7012   0.3686   0.4048   0.6457   0.00    0.0    0.00067   -0.00264   -0.00227   0.00000  0.00000  0.00000  0.00000  0.00000  0.00000
2268 259275.000   4402958.1985    666836.0355   4550862.4307   6   9   0.6634   0.2751   0.6983   0.3673   0.4032   0.6432   0.00    0.0    0.00034   -0.00266   -0.00273   0.00000  0.00000  0.00000  0.00000  0.00000  0.00000
2268 259276.000   4402958.2206    666836.0499   4550862.4499   6   9   0.6608   0.2738   0.6955   0.3660   0.4017   0.6408   0.00    0.0    0.00007   -0.00285   -0.00284   0.00000  0.00000  0.00000  0.00000  0.00000  0.00000
2268 259277.000   4402958.2293    666836.0343   4550862.4635   6   9   0.6582   0.2726   0.6927   0.3648   0.4001   0.6385   0.00    0.0    0.00136   -0.00300   -0.00230   0.00000  0.00000  0.00000  0.00000  0.00000  0.00000
2268 259278.000   4402958.0162    666835.9279   4550862.1925   6   9   0.6556   0.2714   0.6900   0.3635   0.3986   0.6361   0.00    0.0    0.00067   -0.00274   -0.00265   0.00000  0.00000  0.00000  0.00000  0.00000  0.00000
2268 259279.000   4402957.9007    666835.8681   4550862.0447   6   9   0.6531   0.2702   0.6873   0.3623   0.3971   0.6339   0.00    0.0   -0.00015   -0.00248   -0.00261   0.00000  0.00000  0.00000  0.00000  0.00000  0.00000
2268 259280.000   4402957.8140    666835.8680   4550861.9812   6   9   0.6506   0.2690   0.6847   0.3611   0.3956   0.6316   0.00    0.0    0.00078   -0.00322   -0.00376   0.00000  0.00000  0.00000  0.00000  0.00000  0.00000
2268 259281.000   4402957.7984    666835.8309   4550861.9059   6   9   0.6481   0.2679   0.6821   0.3599   0.3942   0.6294   0.00    0.0    0.00074   -0.00268   -0.00215   0.00000  0.00000  0.00000  0.00000  0.00000  0.00000
2268 259282.000   4402957.8280    666835.8490   4550861.9416   6   9   0.6457   0.2667   0.6796   0.3588   0.3928   0.6273   0.00    0.0    0.00013   -0.00233   -0.00244   0.00000  0.00000  0.00000  0.00000  0.00000  0.00000
2268 259283.000   4402957.7117    666835.8085   4550861.7954   6   9   0.6434   0.2656   0.6771   0.3576   0.3914   0.6251   0.00    0.0    0.00029   -0.00232   -0.00226   0.00000  0.00000  0.00000  0.00000  0.00000  0.00000
2268 259284.000   4402957.8423    666835.8470   4550861.9338   6   9   0.6411   0.2646   0.6746   0.3565   0.3900   0.6230   0.00    0.0    0.00110   -0.00241   -0.00147   0.00000  0.00000  0.00000  0.00000  0.00000  0.00000
2268 259285.000   4402957.8020    666835.8260   4550861.8811   6   9   0.6388   0.2635   0.6722   0.3554   0.3886   0.6210   0.00    0.0    0.00058   -0.00255   -0.00192   0.00000  0.00000  0.00000  0.00000  0.00000  0.00000
2268 259286.000   4402957.8020    666835.8419   4550861.9315   6   9   0.6365   0.2624   0.6699   0.3543   0.3873   0.6189   0.00    0.0    0.00069   -0.00282   -0.00215   0.00000  0.00000  0.00000  0.00000  0.00000  0.00000
2268 259287.000   4402957.8769    666835.8261   4550861.9446   6   9   0.6343   0.2614   0.6675   0.3532   0.3860   0.6169   0.00    0.0    0.00004   -0.00228   -0.00272   0.00000  0.00000  0.00000  0.00000  0.00000  0.00000
2268 259288.000   4402957.7664    666835.8155   4550861.8555   6   9   0.6321   0.2604   0.6652   0.3522   0.3847   0.6150   0.00    0.0    0.00067   -0.00251   -0.00196   0.00000  0.00000  0.00000  0.00000  0.00000  0.00000
2268 259289.000   4402957.6326    666835.7777   4550861.7346   6   9   0.6300   0.2594   0.6630   0.3511   0.3835   0.6131   0.00    0.0    0.00023   -0.00268   -0.00275   0.00000  0.00000  0.00000  0.00000  0.00000  0.00000
2268 259290.000   4402957.6441    666835.7785   4550861.7684   6   9   0.6279   0.2584   0.6608   0.3501   0.3822   0.6112   0.00    0.0    0.00073   -0.00284   -0.00259   0.00000  0.00000  0.00000  0.00000  0.00000  0.00000
2268 259291.000   4402957.6462    666835.7974   4550861.7209   6   9   0.6258   0.2574   0.6586   0.3491   0.3810   0.6093   0.00    0.0    0.00009   -0.00267   -0.00301   0.00000  0.00000  0.00000  0.00000  0.00000  0.00000
2268 259292.000   4402957.6628    666835.8206   4550861.7792   6   9   0.6238   0.2565   0.6565   0.3481   0.3798   0.6074   0.00    0.0    0.00058   -0.00241   -0.00249   0.00000  0.00000  0.00000  0.00000  0.00000  0.00000
2268 259293.000   4402957.8116    666835.8606   4550861.9043   6   9   0.6218   0.2556   0.6543   0.3471   0.3786   0.6056   0.00    0.0   -0.00003   -0.00241   -0.00237   0.00000  0.00000  0.00000  0.00000  0.00000  0.00000
2268 259294.000   4402957.8528    666835.8546   4550861.9281   6   9   0.6198   0.2546   0.6523   0.3462   0.3774   0.6038   0.00    0.0    0.00018   -0.00222   -0.00229   0.00000  0.00000  0.00000  0.00000  0.00000  0.00000
2268 259295.000   4402957.7555    666835.8228   4550861.8739   6   9   0.6179   0.2537   0.6502   0.3452   0.3763   0.6021   0.00    0.0    0.00103   -0.00248   -0.00222   0.00000  0.00000  0.00000  0.00000  0.00000  0.00000
2268 259296.000   4402957.7399    666835.7927   4550861.8514   6   9   0.6160   0.2528   0.6482   0.3443   0.3751   0.6004   0.00    0.0   -0.00003   -0.00258   -0.00264   0.00000  0.00000  0.00000  0.00000  0.00000  0.00000
2268 259297.000   4402957.8252    666835.8321   4550861.9486   6   9   0.6141   0.2520   0.6462   0.3434   0.3740   0.5987   0.00    0.0    0.00113   -0.00301   -0.00245   0.00000  0.00000  0.00000  0.00000  0.00000  0.00000
2268 259298.000   4402957.8111    666835.8224   4550861.9242   6   9   0.6122   0.2511   0.6443   0.3425   0.3729   0.5970   0.00    0.0    0.00080   -0.00262   -0.00275   0.00000  0.00000  0.00000  0.00000  0.00000  0.00000
2268 259299.000   4402957.9183    666835.8614   4550862.0109   6   9   0.6104   0.2503   0.6424   0.3416   0.3719   0.5953   0.00    0.0    0.00026   -0.00223   -0.00230   0.00000  0.00000  0.00000  0.00000  0.00000  0.00000
2268 259300.000   4402957.9506    666835.8533   4550862.0413   6   9   0.6086   0.2494   0.6405   0.3407   0.3708   0.5937   0.00    0.0    0.00101   -0.00284   -0.00222   0.00000  0.00000  0.00000  0.00000  0.00000  0.00000
2268 259301.000   4402957.8840    666835.8057   4550861.9378   6   9   0.6068   0.2486   0.6386   0.3398   0.3697   0.5921   0.00    0.0    0.00027   -0.00257   -0.00267   0.00000  0.00000  0.00000  0.00000  0.00000  0.00000
2268 259302.000   4402957.9288    666835.8136   4550862.0035   6   9   0.6051   0.2478   0.6368   0.3390   0.3687   0.5905   0.00    0.0    0.00050   -0.00237   -0.00202   0.00000  0.00000  0.00000  0.00000  0.00000  0.00000
2268 259303.000   4402957.9387    666835.8353   4550862.0467   6   9   0.6034   0.2470   0.6350   0.3381   0.3677   0.5890   0.00    0.0    0.00022   -0.00264   -0.00250   0.00000  0.00000  0.00000  0.00000  0.00000  0.00000
2268 259304.000   4402957.9573    666835.8531   4550862.1179   6   9   0.6017   0.2462   0.6332   0.3373   0.3667   0.5874   0.00    0.0    0.00048   -0.00242   -0.00172   0.00000  0.00000  0.00000  0.00000  0.00000  0.00000
2268 259305.000   4402958.0300    666835.8327   4550862.1594   6   9   0.6000   0.2454   0.6314   0.3365   0.3657   0.5859   0.00    0.0    0.00068   -0.00250   -0.00224   0.00000  0.00000  0.00000  0.00000  0.00000  0.00000
2268 259306.000   4402958.2195    666835.9181   4550862.3765   6   9   0.5983   0.2447   0.6297   0.3357   0.3647   0.5844   0.00    0.0    0.00057   -0.00274   -0.00241   0.00000  0.00000  0.00000  0.00000  0.00000  0.00000
2268 259307.000   4402958.1877    666835.9206   4550862.3425   6   9   0.5967   0.2439   0.6280   0.3349   0.3638   0.5830   0.00    0.0    0.00081   -0.00264   -0.00224   0.00000  0.00000  0.00000  0.00000  0.00000  0.00000
2268 259308.000   4402958.1225    666835.8970   4550862.2608   6   9   0.5951   0.2432   0.6263   0.3341   0.3628   0.5815   0.00    0.0    0.00050   -0.00240   -0.00180   0.00000  0.00000  0.00000  0.00000  0.00000  0.00000
2268 259309.000   4402958.0776    666835.8933   4550862.2321   6   9   0.5936   0.2424   0.6247   0.3333   0.3619   0.5801   0.00    0.0    0.00037   -0.00244   -0.00237   0.00000  0.00000  0.00000  0.00000  0.00000  0.00000
2268 259310.000   4402958.0322    666835.8921   4550862.2009   6   9   0.5920   0.2417   0.6231   0.3326   0.3610   0.5787   0.00    0.0    0.00031   -0.00264   -0.00232   0.00000  0.00000  0.00000  0.00000  0.00000  0.00000
2268 259311.000   4402958.0315    666835.9040   4550862.1949   6   9   0.5905   0.2410   0.6215   0.3318   0.3601   0.5773   0.00    0.0   -0.00008   -0.00249   -0.00239   0.00000  0.00000  0.00000  0.00000  0.00000  0.00000
2268 259312.000   4402958.0261    666835.9210   4550862.2022   6   9   0.5890   0.2403   0.6199   0.3311   0.3592   0.5760   0.00    0.0    0.00067   -0.00250   -0.00247   0.00000  0.00000  0.00000  0.00000  0.00000  0.00000
2268 259313.000   4402957.9478    666835.9033   4550862.1118   6   9   0.5875   0.2396   0.6183   0.3304   0.3583   0.5746   0.00    0.0    0.00071   -0.00267   -0.00303   0.00000  0.00000  0.00000  0.00000  0.00000  0.00000
2268 259314.000   4402957.9915    666835.9331   4550862.1906   6   9   0.5860   0.2389   0.6168   0.3296   0.3575   0.5733   0.00    0.0    0.00046   -0.00303   -0.00185   0.00000  0.00000  0.00000  0.00000  0.00000  0.00000
2268 259315.000   4402957.9451    666835.9281   4550862.1148   6   9   0.5846   0.2383   0.6153   0.3289   0.3566   0.5720   0.00    0.0    0.00077   -0.00279   -0.00254   0.00000  0.00000  0.00000  0.00000  0.00000  0.00000
2268 259316.000   4402957.9557    666835.9392   4550862.1407   6   9   0.5831   0.2376   0.6138   0.3282   0.3558   0.5707   0.00    0.0    0.00098   -0.00300   -0.00274   0.00000  0.00000  0.00000  0.00000  0.00000  0.00000
2268 259317.000   4402957.9367    666835.9539   4550862.1734   6   9   0.5817   0.2369   0.6123   0.3275   0.3549   0.5694   0.00    0.0    0.00077   -0.00275   -0.00207   0.00000  0.00000  0.00000  0.00000  0.00000  0.00000
2268 259318.000   4402957.9752    666835.9647   4550862.2193   6   9   0.5803   0.2363   0.6109   0.3269   0.3541   0.5682   0.00    0.0    0.00061   -0.00278   -0.00238   0.00000  0.00000  0.00000  0.00000  0.00000  0.00000
2268 259319.000   4402958.0271    666835.9660   4550862.2470   6   9   0.5790   0.2357   0.6094   0.3262   0.3533   0.5669   0.00    0.0    0.00068   -0.00229   -0.00214   0.00000  0.00000  0.00000  0.00000  0.00000  0.00000
2268 259320.000   4402958.0157    666835.9696   4550862.2476   6   9   0.5776   0.2350   0.6080   0.3255   0.3525   0.5657   0.00    0.0    0.00053   -0.00281   -0.00253   0.00000  0.00000  0.00000  0.00000  0.00000  0.00000
2268 259321.000   4402957.9808    666835.9784   4550862.2450   6   9   0.5763   0.2344   0.6066   0.3249   0.3517   0.5645   0.00    0.0    0.00060   -0.00222   -0.00166   0.00000  0.00000  0.00000  0.00000  0.00000  0.00000
2268 259322.000   4402957.9884    666835.9739   4550862.2498   6   9   0.5750   0.2338   0.6053   0.3242   0.3510   0.5633   0.00    0.0    0.00001   -0.00241   -0.00209   0.00000  0.00000  0.00000  0.00000  0.00000  0.00000
2268 259323.000   4402958.1249    666836.0065   4550862.3750   6   9   0.5737   0.2332   0.6039   0.3236   0.3502   0.5622   0.00    0.0    0.00010   -0.00234   -0.00201   0.00000  0.00000  0.00000  0.00000  0.00000  0.00000
2268 259324.000   4402958.1214    666835.9997   4550862.3880   6   9   0.5724   0.2326   0.6026   0.3230   0.3494   0.5610   0.00    0.0    0.00089   -0.00289   -0.00279   0.00000  0.00000  0.00000  0.00000  0.00000  0.00000
2268 259325.000   4402958.0950    666836.0057   4550862.3705   6   9   0.5711   0.2320   0.6013   0.3224   0.3487   0.5599   0.00    0.0    0.00091   -0.00286   -0.00317   0.00000  0.00000  0.00000  0.00000  0.00000  0.00000
2268 259326.000   4402958.0870    666836.0352   4550862.3947   6   9   0.5699   0.2314   0.6000   0.3218   0.3480   0.5588   0.00    0.0    0.00060   -0.00264   -0.00206   0.00000  0.00000  0.00000  0.00000  0.00000  0.00000
2268 259327.000   4402958.1140    666836.0553   4550862.4383   6   9   0.5687   0.2309   0.5987   0.3212   0.3473   0.5577   0.00    0.0    0.00087   -0.00270   -0.00224   0.00000  0.00000  0.00000  0.00000  0.00000  0.00000
2268 259328.000   4402958.1371    666836.0336   4550862.4518   6   9   0.5674   0.2303   0.5974   0.3206   0.3465   0.5566   0.00    0.0    0.00081   -0.00247   -0.00214   0.00000  0.00000  0.00000  0.00000  0.00000  0.00000
2268 259329.000   4402958.0538    666836.0007   4550862.3604   6   9   0.5662   0.2297   0.5962   0.3200   0.3458   0.5555   0.00    0.0    0.00069   -0.00299   -0.00293   0.00000  0.00000  0.00000  0.00000  0.00000  0.00000
2268 259330.000   4402957.9974    666835.9723   4550862.3218   6   9   0.5651   0.2292   0.5949   0.3194   0.3451   0.5544   0.00    0.0    0.00060   -0.00262   -0.00202   0.00000  0.00000  0.00000  0.00000  0.00000  0.00000
2268 259331.000   4402958.0004    666835.9779   4550862.3409   6   9   0.5639   0.2287   0.5937   0.3188   0.3445   0.5534   0.00    0.0    0.00052   -0.00261   -0.00238   0.00000  0.00000  0.00000  0.00000  0.00000  0.00000
2268 259332.000   4402958.0020    666835.9668   4550862.3711   6   9   0.5627   0.2281   0.5925   0.3183   0.3438   0.5523   0.00    0.0    0.00072   -0.00278   -0.00294   0.00000  0.00000  0.00000  0.00000  0.00000  0.00000
2268 259333.000   4402958.0447    666835.9780   4550862.4328   6   9   0.5616   0.2276   0.5913   0.3177   0.3431   0.5513   0.00    0.0    0.00055   -0.00244   -0.00232   0.00000  0.00000  0.00000  0.00000  0.00000  0.00000
2268 259334.000   4402958.0377    666835.9634   4550862.4232   6   9   0.5605   0.2271   0.5902   0.3172   0.3425   0.5503   0.00    0.0    0.00016   -0.00240   -0.00256   0.00000  0.00000  0.00000  0.00000  0.00000  0.00000
2268 259335.000   4402957.9051    666835.9222   4550862.3042   6  10   0.5546   0.2255   0.5860   0.3142   0.3399   0.5454   0.00    0.0    0.00188   -0.00386   -0.00451   0.00000  0.00000  0.00000  0.00000  0.00000  0.00000
2268 259336.000   4402957.8520    666835.8900   4550862.2294   6  10   0.5492   0.2241   0.5821   0.3114   0.3376   0.5408   0.00    0.0    0.00137   -0.00374   -0.00476   0.00000  0.00000  0.00000  0.00000  0.00000  0.00000
2268 259337.000   4402957.8017    666835.8902   4550862.2234   6  10   0.5440   0.2227   0.5784   0.3087   0.3353   0.5364   0.00    0.0    0.00126   -0.00347   -0.00441   0.00000  0.00000  0.00000  0.00000  0.00000  0.00000
2268 259338.000   4402957.8429    666835.8834   4550862.2568   6  10   0.5391   0.2214   0.5748   0.3062   0.3332   0.5322   0.00    0.0    0.00125   -0.00341   -0.00470   0.00000  0.00000  0.00000  0.00000  0.00000  0.00000
2268 259339.000   4402957.9171    666835.9124   4550862.3304   6  10   0.5344   0.2201   0.5714   0.3038   0.3311   0.5282   0.00    0.0    0.00087   -0.00337   -0.00453   0.00000  0.00000  0.00000  0.00000  0.00000  0.00000
2268 259340.000   4402958.0566    666835.9444   4550862.4692   6  10   0.5299   0.2189   0.5682   0.3015   0.3292   0.5245   0.00    0.0    0.00105   -0.00329   -0.00404   0.00000  0.00000  0.00000  0.00000  0.00000  0.00000
2268 259341.000   4402958.0299    666835.9459   4550862.4450   6  10   0.5257   0.2177   0.5650   0.2993   0.3273   0.5208   0.00    0.0    0.00084   -0.00327   -0.00480   0.00000  0.00000  0.00000  0.00000  0.00000  0.00000
2268 259342.000   4402958.0449    666835.9515   4550862.4570   6  10   0.5216   0.2166   0.5620   0.2972   0.3255   0.5174   0.00    0.0    0.00112   -0.00347   -0.00424   0.00000  0.00000  0.00000  0.00000  0.00000  0.00000
2268 259343.000   4402958.0251    666835.9458   4550862.4449   6  10   0.5176   0.2155   0.5591   0.2952   0.3237   0.5140   0.00    0.0    0.00055   -0.00287   -0.00429   0.00000  0.00000  0.00000  0.00000  0.00000  0.00000
2268 259344.000   4402957.9624    666835.9309   4550862.3718   6  10   0.5139   0.2144   0.5563   0.2932   0.3220   0.5108   0.00    0.0    0.00101   -0.00339   -0.00420   0.00000  0.00000  0.00000  0.00000  0.00000  0.00000
2268 259345.000   4402957.9841    666835.9591   4550862.4276   6  10   0.5102   0.2134   0.5536   0.2914   0.3204   0.5077   0.00    0.0    0.00152   -0.00372   -0.00396   0.00000  0.00000  0.00000  0.00000  0.00000  0.00000
2268 259346.000   4402958.0005    666835.9734   4550862.4560   6  10   0.5067   0.2124   0.5510   0.2896   0.3188   0.5047   0.00    0.0    0.00102   -0.00338   -0.00434   0.00000  0.00000  0.00000  0.00000  0.00000  0.00000
2268 259347.000   4402958.0573    666835.9557   4550862.4541   6  10   0.5033   0.2114   0.5484   0.2878   0.3173   0.5018   0.00    0.0    0.00075   -0.00312   -0.00397   0.00000  0.00000  0.00000  0.00000  0.00000  0.00000
2268 259348.000   4402958.1089    666835.9683   4550862.4684   6  10   0.5000   0.2105   0.5459   0.2861   0.3158   0.4990   0.00    0.0    0.00083   -0.00362   -0.00440   0.00000  0.00000  0.00000  0.00000  0.00000  0.00000
2268 259349.000   4402958.0739    666835.9720   4550862.4223   6  10   0.4969   0.2095   0.5435   0.2845   0.3144   0.4963   0.00    0.0    0.00077   -0.00313   -0.00478   0.00000  0.00000  0.00000  0.00000  0.00000  0.00000
2268 259350.000   4402958.1388    666835.9663   4550862.4326   6  10   0.4938   0.2086   0.5412   0.2829   0.3129   0.4937   0.00    0.0    0.00133   -0.00314   -0.00397   0.00000  0.00000  0.00000  0.00000  0.00000  0.00000
2268 259351.000   4402958.0680    666835.9656   4550862.4040   6  10   0.4908   0.2077   0.5389   0.2814   0.3116   0.4911   0.00    0.0    0.00124   -0.00347   -0.00446   0.00000  0.00000  0.00000  0.00000  0.00000  0.00000
2268 259352.000   4402958.1043    666835.9782   4550862.4157   6  10   0.4879   0.2069   0.5366   0.2799   0.3102   0.4886   0.00    0.0    0.00098   -0.00339   -0.00488   0.00000  0.00000  0.00000  0.00000  0.00000  0.00000
2268 259353.000   4402958.0527    666835.9738   4550862.3520   6  10   0.4850   0.2060   0.5344   0.2784   0.3089   0.4862   0.00    0.0    0.00187   -0.00347   -0.00430   0.00000  0.00000  0.00000  0.00000  0.00000  0.00000
2268 259354.000   4402958.0806    666835.9781   4550862.3536   6  10   0.4822   0.2052   0.5323   0.2770   0.3076   0.4838   0.00    0.0    0.00147   -0.00355   -0.00401   0.00000  0.00000  0.00000  0.00000  0.00000  0.00000
2268 259355.000   4402958.0721    666835.9488   4550862.2910   6  10   0.4795   0.2044   0.5301   0.2756   0.3064   0.4814   0.00    0.0    0.00088   -0.00306   -0.00434   0.00000  0.00000  0.00000  0.00000  0.00000  0.00000
2268 259356.000   4402958.0902    666835.9541   4550862.3234   6  10   0.4769   0.2036   0.5281   0.2742   0.3051   0.4792   0.00    0.0    0.00147   -0.00353   -0.00413   0.00000  0.00000  0.00000  0.00000  0.00000  0.00000
2268 259357.000   4402958.0493    666835.9387   4550862.2875   6  10   0.4743   0.2028   0.5260   0.2729   0.3039   0.4769   0.00    0.0    0.00151   -0.00366   -0.00438   0.00000  0.00000  0.00000  0.00000  0.00000  0.00000
2268 259358.000   4402958.0333    666835.9219   4550862.2305   6  10   0.4718   0.2020   0.5240   0.2716   0.3027   0.4748   0.00    0.0    0.00074   -0.00281   -0.00438   0.00000  0.00000  0.00000  0.00000  0.00000  0.00000
2268 259359.000   4402958.0381    666835.9479   4550862.2805   6  10   0.4693   0.2013   0.5221   0.2703   0.3016   0.4726   0.00    0.0    0.00147   -0.00353   -0.00446   0.00000  0.00000  0.00000  0.00000  0.00000  0.00000
2268 259360.000   4402957.9495    666835.9239   4550862.2111   6  10   0.4669   0.2005   0.5202   0.2691   0.3004   0.4705   0.00    0.0    0.00171   -0.00384   -0.00432   0.00000  0.00000  0.00000  0.00000  0.00000  0.00000
2268 259361.000   4402957.9521    666835.9270   4550862.2166   6  10   0.4646   0.1998   0.5183   0.2678   0.2993   0.4685   0.00    0.0    0.00068   -0.00322   -0.00427   0.00000  0.00000  0.00000  0.00000  0.00000  0.00000
2268 259362.000   4402957.9127    666835.9146   4550862.1996   6  10   0.4622   0.1990   0.5164   0.2667   0.2982   0.4665   0.00    0.0    0.00111   -0.00350   -0.00431   0.00000  0.00000  0.00000  0.00000  0.00000  0.00000
2268 259363.000   4402957.8735    666835.9023   4550862.1694   6  10   0.4600   0.1983   0.5146   0.2655   0.2971   0.4645   0.00    0.0    0.00067   -0.00338   -0.00459   0.00000  0.00000  0.00000  0.00000  0.00000  0.00000
2268 259364.000   4402957.9055    666835.9205   4550862.2254   6  10   0.4577   0.1976   0.5128   0.2643   0.2960   0.4626   0.00    0.0    0.00142   -0.00348   -0.00399   0.00000  0.00000  0.00000  0.00000  0.00000  0.00000
2268 259365.000   4402957.9289    666835.9355   4550862.2702   6  10   0.4556   0.1969   0.5110   0.2632   0.2950   0.4607   0.00    0.0    0.00065   -0.00307   -0.00466   0.00000  0.00000  0.00000  0.00000  0.00000  0.00000
2268 259366.000   4402957.8831    666835.9324   4550862.2332   6  10   0.4534   0.1963   0.5093   0.2621   0.2940   0.4588   0.00    0.0    0.00043   -0.00336   -0.00488   0.00000  0.00000  0.00000  0.00000  0.00000  0.00000
2268 259367.000   4402957.9218    666835.9483   4550862.2743   6  10   0.4513   0.1956   0.5076   0.2610   0.2929   0.4569   0.00    0.0    0.00102   -0.00343   -0.00458   0.00000  0.00000  0.00000  0.00000  0.00000  0.00000
2268 259368.000   4402957.9264    666835.9580   4550862.2894   6  10   0.4492   0.1949   0.5059   0.2599   0.2919   0.4551   0.00    0.0    0.00123   -0.00337   -0.00400   0.00000  0.00000  0.00000  0.00000  0.00000  0.00000
2268 259369.000   4402957.9139    666835.9643   4550862.2970   6  10   0.4472   0.1943   0.5042   0.2589   0.2910   0.4534   0.00    0.0    0.00107   -0.00328   -0.00462   0.00000  0.00000  0.00000  0.00000  0.00000  0.00000
2268 259370.000   4402957.9275    666835.9799   4550862.3171   6  10   0.4452   0.1936   0.5026   0.2578   0.2900   0.4516   0.00    0.0    0.00074   -0.00348   -0.00446   0.00000  0.00000  0.00000  0.00000  0.00000  0.00000
2268 259371.000   4402957.9684    666835.9813   4550862.3454   6  10   0.4433   0.1930   0.5010   0.2568   0.2890   0.4499   0.00    0.0    0.00051   -0.00333   -0.00426   0.00000  0.00000  0.00000  0.00000  0.00000  0.00000
2268 259372.000   4402957.9414    666835.9880   4550862.3457   6  10   0.4413   0.1924   0.4994   0.2558   0.2881   0.4482   0.00    0.0    0.00083   -0.00341   -0.00443   0.00000  0.00000  0.00000  0.00000  0.00000  0.00000
2268 259373.000   4402958.0026    666836.0085   4550862.3978   6  10   0.4395   0.1918   0.4978   0.2548   0.2872   0.4466   0.00    0.0    0.00087   -0.00347   -0.00479   0.00000  0.00000  0.00000  0.00000  0.00000  0.00000
2268 259374.000   4402958.0264    666836.0244   4550862.4268   6  10   0.4376   0.1911   0.4963   0.2539   0.2862   0.4449   0.00    0.0    0.00138   -0.00338   -0.00426   0.00000  0.00000  0.00000  0.00000  0.00000  0.00000
2268 259375.000   4402958.0285    666836.0160   4550862.4255   6  10   0.4358   0.1906   0.4948   0.2529   0.2854   0.4433   0.00    0.0    0.00112   -0.00347   -0.00434   0.00000  0.00000  0.00000  0.00000  0.00000  0.00000
2268 259376.000   4402958.0314    666836.0113   4550862.4147   6  10   0.4340   0.1900   0.4933   0.2520   0.2845   0.4418   0.00    0.0    0.00091   -0.00350   -0.00424   0.00000  0.00000  0.00000  0.00000  0.00000  0.00000
2268 259377.000   4402958.0320    666836.0127   4550862.4034   6  10   0.4322   0.1894   0.4918   0.2511   0.2836   0.4402   0.00    0.0    0.00127   -0.00329   -0.00433   0.00000  0.00000  0.00000  0.00000  0.00000  0.00000
2268 259378.000   4402957.9805    666835.9951   4550862.3603   6  10   0.4305   0.1888   0.4904   0.2502   0.2827   0.4387   0.00    0.0    0.00147   -0.00360   -0.00398   0.00000  0.00000  0.00000  0.00000  0.00000  0.00000
2268 259379.000   4402957.9729    666836.0048   4550862.3421   6  10   0.4288   0.1882   0.4889   0.2493   0.2819   0.4372   0.00    0.0    0.00095   -0.00338   -0.00488   0.00000  0.00000  0.00000  0.00000  0.00000  0.00000
2268 259380.000   4402958.0068    666835.9956   4550862.3424   6  10   0.4271   0.1877   0.4875   0.2484   0.2810   0.4357   0.00    0.0    0.00103   -0.00349   -0.00415   0.00000  0.00000  0.00000  0.00000  0.00000  0.00000
2268 259381.000   4402958.0280    666836.0069   4550862.3688   6  10   0.4255   0.1871   0.4861   0.2476   0.2802   0.4343   0.00    0.0    0.00114   -0.00335   -0.00421   0.00000  0.00000  0.00000  0.00000  0.00000  0.00000
2268 259382.000   4402958.0076    666835.9899   4550862.3402   6  10   0.4239   0.1866   0.4847   0.2467   0.2794   0.4328   0.00    0.0    0.00088   -0.00341   -0.00396   0.00000  0.00000  0.00000  0.00000  0.00000  0.00000
2268 259383.000   4402958.0530    666836.0037   4550862.3857   6  10   0.4223   0.1860   0.4834   0.2459   0.2786   0.4314   0.00    0.0    0.00126   -0.00354   -0.00421   0.00000  0.00000  0.00000  0.00000  0.00000  0.00000
2268 259384.000   4402958.0287    666835.9961   4550862.3634   6  10   0.4207   0.1855   0.4821   0.2451   0.2778   0.4300   0.00    0.0    0.00113   -0.00331   -0.00471   0.00000  0.00000  0.00000  0.00000  0.00000  0.00000
2268 259385.000   4402958.0273    666836.0053   4550862.3664   6  10   0.4192   0.1850   0.4807   0.2443   0.2770   0.4287   0.00    0.0    0.00096   -0.00341   -0.00422   0.00000  0.00000  0.00000  0.00000  0.00000  0.00000
2268 259386.000   4402957.9960    666836.0089   4550862.3447   6  10   0.4176   0.1845   0.4794   0.2435   0.2763   0.4273   0.00    0.0    0.00059   -0.00312   -0.00437   0.00000  0.00000  0.00000  0.00000  0.00000  0.00000
2268 259387.000   4402958.0530    666836.0349   4550862.4166   6  10   0.4161   0.1840   0.4782   0.2427   0.2755   0.4260   0.00    0.0    0.00158   -0.00337   -0.00385   0.00000  0.00000  0.00000  0.00000  0.00000  0.00000
2268 259388.000   4402958.0543    666836.0321   4550862.4368   6  10   0.4147   0.1834   0.4769   0.2419   0.2748   0.4247   0.00    0.0    0.00092   -0.00338   -0.00427   0.00000  0.00000  0.00000  0.00000  0.00000  0.00000
2268 259389.000   4402958.0519    666836.0317   4550862.4264   6  10   0.4132   0.1829   0.4756   0.2412   0.2740   0.4234   0.00    0.0    0.00112   -0.00355   -0.00431   0.00000  0.00000  0.00000  0.00000  0.00000  0.00000
2268 259390.000   4402958.0376    666836.0229   4550862.4232   6  10   0.4118   0.1825   0.4744   0.2405   0.2733   0.4221   0.00    0.0    0.00082   -0.00314   -0.00427   0.00000  0.00000  0.00000  0.00000  0.00000  0.00000
2268 259391.000   4402958.1359    666836.0587   4550862.5366   6  10   0.4104   0.1820   0.4732   0.2397   0.2726   0.4209   0.00    0.0    0.00104   -0.00331   -0.00406   0.00000  0.00000  0.00000  0.00000  0.00000  0.00000
2268 259392.000   4402958.1585    666836.0747   4550862.5650   6  10   0.4090   0.1815   0.4720   0.2390   0.2719   0.4197   0.00    0.0    0.00057   -0.00342   -0.00443   0.00000  0.00000  0.00000  0.00000  0.00000  0.00000
2268 259393.000   4402958.1765    666836.0636   4550862.5591   6  10   0.4076   0.1810   0.4708   0.2383   0.2712   0.4185   0.00    0.0    0.00114   -0.00339   -0.00450   0.00000  0.00000  0.00000  0.00000  0.00000  0.00000
2268 259394.000   4402958.1846    666836.0645   4550862.5630   6  10   0.4063   0.1805   0.4697   0.2376   0.2705   0.4173   0.00    0.0    0.00078   -0.00315   -0.00434   0.00000  0.00000  0.00000  0.00000  0.00000  0.00000
2268 259395.000   4402958.2291    666836.0809   4550862.6071   6  10   0.4050   0.1801   0.4685   0.2369   0.2698   0.4161   0.00    0.0    0.00137   -0.00335   -0.00405   0.00000  0.00000  0.00000  0.00000  0.00000  0.00000
2268 259396.000   4402958.2047    666836.0815   4550862.5864   6  10   0.4037   0.1796   0.4674   0.2362   0.2692   0.4149   0.00    0.0    0.00116   -0.00351   -0.00414   0.00000  0.00000  0.00000  0.00000  0.00000  0.00000
2268 259397.000   4402958.1507    666836.0667   4550862.5223   6  10   0.4024   0.1792   0.4662   0.2356   0.2685   0.4138   0.00    0.0    0.00110   -0.00330   -0.00432   0.00000  0.00000  0.00000  0.00000  0.00000  0.00000
2268 259398.000   4402958.1685    666836.0663   4550862.5281   6  10   0.4011   0.1787   0.4651   0.2349   0.2678   0.4127   0.00    0.0    0.00174   -0.00329   -0.00405   0.00000  0.00000  0.00000  0.00000  0.00000  0.00000
2268 259399.000   4402958.1443    666836.0621   4550862.5005   6  10   0.3999   0.1783   0.4640   0.2342   0.2672   0.4115   0.00    0.0    0.00092   -0.00341   -0.00449   0.00000  0.00000  0.00000  0.00000  0.00000  0.00000
2268 259400.000   4402958.1539    666836.0620   4550862.5077   6  10   0.3986   0.1778   0.4629   0.2336   0.2666   0.4104   0.00    0.0    0.00059   -0.00335   -0.00456   0.00000  0.00000  0.00000  0.00000  0.00000  0.00000
2268 259401.000   4402958.1497    666836.0597   4550862.5114   6  10   0.3974   0.1774   0.4619   0.2330   0.2659   0.4094   0.00    0.0    0.00149   -0.00372   -0.00444   0.00000  0.00000  0.00000  0.00000  0.00000  0.00000
2268 259402.000   4402958.1556    666836.0695   4550862.5255   6  10   0.3962   0.1770   0.4608   0.2323   0.2653   0.4083   0.00    0.0    0.00097   -0.00325   -0.00363   0.00000  0.00000  0.00000  0.00000  0.00000  0.00000
2268 259403.000   4402958.1869    666836.0871   4550862.5664   6  10   0.3951   0.1766   0.4598   0.2317   0.2647   0.4072   0.00    0.0    0.00056   -0.00325   -0.00398   0.00000  0.00000  0.00000  0.00000  0.00000  0.00000
2268 259404.000   4402958.2018    666836.0911   4550862.5829   6  10   0.3939   0.1761   0.4587   0.2311   0.2641   0.4062   0.00    0.0    0.00141   -0.00352   -0.00396   0.00000  0.00000  0.00000  0.00000  0.00000  0.00000
2268 259405.000   4402958.2195    666836.0981   4550862.6115   6  10   0.3928   0.1757   0.4577   0.2305   0.2635   0.4052   0.00    0.0    0.00134   -0.00350   -0.00418   0.00000  0.00000  0.00000  0.00000  0.00000  0.00000
2268 259406.000   4402958.2413    666836.1051   4550862.6361   6  10   0.3916   0.1753   0.4567   0.2299   0.2629   0.4042   0.00    0.0    0.00132   -0.00326   -0.00388   0.00000  0.00000  0.00000  0.00000  0.00000  0.00000
2268 259407.000   4402958.2716    666836.1145   4550862.6754   6  10   0.3905   0.1749   0.4557   0.2294   0.2623   0.4032   0.00    0.0    0.00117   -0.00323   -0.00399   0.00000  0.00000  0.00000  0.00000  0.00000  0.00000
2268 259408.000   4402958.2334    666836.0988   4550862.6263   6  10   0.3894   0.1745   0.4547   0.2288   0.2617   0.4022   0.00    0.0    0.00138   -0.00356   -0.00441   0.00000  0.00000  0.00000  0.00000  0.00000  0.00000
2268 259409.000   4402958.2226    666836.0857   4550862.6011   6  10   0.3883   0.1741   0.4538   0.2282   0.2612   0.4012   0.00    0.0    0.00118   -0.00343   -0.00410   0.00000  0.00000  0.00000  0.00000  0.00000  0.00000
2268 259410.000   4402958.2387    666836.0879   4550862.6188   6  10   0.3873   0.1737   0.4528   0.2277   0.2606   0.4003   0.00    0.0    0.00112   -0.00338   -0.00395   0.00000  0.00000  0.00000  0.00000  0.00000  0.00000
2268 259411.000   4402958.3129    666836.0973   4550862.6900   6  10   0.3862   0.1733   0.4519   0.2271   0.2600   0.3993   0.00    0.0    0.00144   -0.00333   -0.00384   0.00000  0.00000  0.00000  0.00000  0.00000  0.00000
2268 259412.000   4402958.3253    666836.0923   4550862.6972   6  10   0.3852   0.1729   0.4509   0.2266   0.2595   0.3984   0.00    0.0    0.00084   -0.00366   -0.00409   0.00000  0.00000  0.00000  0.00000  0.00000  0.00000
2268 259413.000   4402958.3080    666836.1007   4550862.6890   6  10   0.3841   0.1726   0.4500   0.2260   0.2589   0.3975   0.00    0.0    0.00089   -0.00322   -0.00411   0.00000  0.00000  0.00000  0.00000  0.00000  0.00000
2268 259414.000   4402958.3387    666836.1259   4550862.7262   6  10   0.3831   0.1722   0.4491   0.2255   0.2584   0.3966   0.00    0.0    0.00097   -0.00361   -0.00468   0.00000  0.00000  0.00000  0.00000  0.00000  0.00000
2268 259415.000   4402958.3543    666836.1183   4550862.7238   6  10   0.3821   0.1718   0.4482   0.2250   0.2579   0.3957   0.00    0.0    0.00135   -0.00345   -0.00379   0.00000  0.00000  0.00000  0.00000  0.00000  0.00000
2268 259416.000   4402958.3363    666836.1122   4550862.7167   6  10   0.3811   0.1714   0.4473   0.2245   0.2573   0.3948   0.00    0.0    0.00117   -0.00312   -0.00426   0.00000  0.00000  0.00000  0.00000  0.00000  0.00000
2268 259417.000   4402958.2944    666836.1108   4550862.6805   6  10   0.3802   0.1711   0.4464   0.2240   0.2568   0.3939   0.00    0.0    0.00171   -0.00328   -0.00379   0.00000  0.00000  0.00000  0.00000  0.00000  0.00000
2268 259418.000   4402958.2769    666836.0970   4550862.6461   6  10   0.3792   0.1707   0.4455   0.2235   0.2563   0.3930   0.00    0.0    0.00136   -0.00313   -0.00419   0.00000  0.00000  0.00000  0.00000  0.00000  0.00000
2268 259419.000   4402958.2492    666836.0856   4550862.6067   6  10   0.3782   0.1704   0.4446   0.2230   0.2558   0.3922   0.00    0.0    0.00053   -0.00316   -0.00438   0.00000  0.00000  0.00000  0.00000  0.00000  0.00000
2268 259420.000   4402958.2659    666836.1023   4550862.6297   6  10   0.3773   0.1700   0.4438   0.2225   0.2553   0.3913   0.00    0.0    0.00106   -0.00344   -0.00453   0.00000  0.00000  0.00000  0.00000  0.00000  0.00000
2268 259421.000   4402958.2341    666836.0863   4550862.5952   6  10   0.3764   0.1697   0.4429   0.2220   0.2548   0.3905   0.00    0.0    0.00094   -0.00324   -0.00397   0.00000  0.00000  0.00000  0.00000  0.00000  0.00000
2268 259422.000   4402958.2363    666836.0752   4550862.5743   6  10   0.3755   0.1693   0.4421   0.2215   0.2543   0.3897   0.00    0.0    0.00090   -0.00299   -0.00455   0.00000  0.00000  0.00000  0.00000  0.00000  0.00000
2268 259423.000   4402958.2294    666836.0840   4550862.5738   6  10   0.3746   0.1690   0.4413   0.2210   0.2538   0.3888   0.00    0.0    0.00036   -0.00320   -0.00459   0.00000  0.00000  0.00000  0.00000  0.00000  0.00000
2268 259424.000   4402958.2317    666836.0905   4550862.5768   6  10   0.3737   0.1686   0.4404   0.2206   0.2533   0.3880   0.00    0.0    0.00092   -0.00295   -0.00383   0.00000  0.00000  0.00000  0.00000  0.00000  0.00000
2268 259425.000   4402958.2274    666836.0867   4550862.5771   6  10   0.3728   0.1683   0.4396   0.2201   0.2529   0.3872   0.00    0.0    0.00092   -0.00329   -0.00399   0.00000  0.00000  0.00000  0.00000  0.00000  0.00000
2268 259426.000   4402958.2172    666836.0755   4550862.5600   6  10   0.3719   0.1680   0.4388   0.2197   0.2524   0.3865   0.00    0.0    0.00171   -0.00342   -0.00367   0.00000  0.00000  0.00000  0.00000  0.00000  0.00000
2268 259427.000   4402958.2424    666836.0841   4550862.5916   6  10   0.3710   0.1676   0.4380   0.2192   0.2519   0.3857   0.00    0.0    0.00108   -0.00333   -0.00386   0.00000  0.00000  0.00000  0.00000  0.00000  0.00000
2268 259428.000   4402958.2545    666836.0767   4550862.5629   6  10   0.3702   0.1673   0.4372   0.2188   0.2515   0.3849   0.00    0.0    0.00061   -0.00308   -0.00426   0.00000  0.00000  0.00000  0.00000  0.00000  0.00000
2268 259429.000   4402958.2368    666836.0627   4550862.5401   6  10   0.3693   0.1670   0.4365   0.2183   0.2510   0.3841   0.00    0.0    0.00097   -0.00331   -0.00412   0.00000  0.00000  0.00000  0.00000  0.00000  0.00000
2268 259430.000   4402958.2154    666836.0528   4550862.5320   6  10   0.3685   0.1667   0.4357   0.2179   0.2505   0.3834   0.00    0.0    0.00114   -0.00353   -0.00420   0.00000  0.00000  0.00000  0.00000  0.00000  0.00000
2268 259431.000   4402958.1700    666836.0531   4550862.4968   6  10   0.3677   0.1663   0.4349   0.2175   0.2501   0.3826   0.00    0.0    0.00102   -0.00318   -0.00427   0.00000  0.00000  0.00000  0.00000  0.00000  0.00000
2268 259432.000   4402958.1562    666836.0465   4550862.4759   6  10   0.3669   0.1660   0.4342   0.2170   0.2497   0.3819   0.00    0.0    0.00080   -0.00305   -0.00448   0.00000  0.00000  0.00000  0.00000  0.00000  0.00000
2268 259433.000   4402958.1370    666836.0526   4550862.4779   6  10   0.3661   0.1657   0.4334   0.2166   0.2492   0.3812   0.00    0.0    0.00127   -0.00343   -0.00413   0.00000  0.00000  0.00000  0.00000  0.00000  0.00000
2268 259434.000   4402958.1660    666836.0651   4550862.5061   6  10   0.3653   0.1654   0.4327   0.2162   0.2488   0.3805   0.00    0.0    0.00073   -0.00309   -0.00396   0.00000  0.00000  0.00000  0.00000  0.00000  0.00000
2268 259435.000   4402958.1570    666836.0621   4550862.4904   6  10   0.3645   0.1651   0.4319   0.2158   0.2484   0.3798   0.00    0.0    0.00102   -0.00314   -0.00422   0.00000  0.00000  0.00000  0.00000  0.00000  0.00000
2268 259436.000   4402958.1589    666836.0657   4550862.4923   6  10   0.3637   0.1648   0.4312   0.2154   0.2479   0.3791   0.00    0.0    0.00115   -0.00340   -0.00408   0.00000  0.00000  0.00000  0.00000  0.00000  0.00000
2268 259437.000   4402958.1702    666836.0547   4550862.4787   6  10   0.3629   0.1645   0.4305   0.2150   0.2475   0.3784   0.00    0.0    0.00086   -0.00305   -0.00420   0.00000  0.00000  0.00000  0.00000  0.00000  0.00000
2268 259438.000   4402958.1340    666836.0258   4550862.4314   6  10   0.3622   0.1642   0.4298   0.2146   0.2471   0.3777   0.00    0.0    0.00074   -0.00308   -0.00401   0.00000  0.00000  0.00000  0.00000  0.00000  0.00000
2268 259439.000   4402958.1280    666836.0312   4550862.4355   6  10   0.3614   0.1639   0.4291   0.2142   0.2467   0.3770   0.00    0.0    0.00085   -0.00338   -0.00463   0.00000  0.00000  0.00000  0.00000  0.00000  0.00000
2268 259440.000   4402958.1216    666836.0196   4550862.4181   6  10   0.3607   0.1636   0.4284   0.2138   0.2463   0.3763   0.00    0.0    0.00113   -0.00341   -0.00421   0.00000  0.00000  0.00000  0.00000  0.00000  0.00000
2268 259441.000   4402958.1312    666836.0352   4550862.4355   6  10   0.3600   0.1633   0.4277   0.2134   0.2459   0.3757   0.00    0.0    0.00073   -0.00343   -0.00464   0.00000  0.00000  0.00000  0.00000  0.00000  0.00000
2268 259442.000   4402958.1391    666836.0462   4550862.4588   6  10   0.3592   0.1630   0.4270   0.2131   0.2455   0.3750   0.00    0.0    0.00189   -0.00340   -0.00397   0.00000  0.00000  0.00000  0.00000  0.00000  0.00000
2268 259443.000   4402958.1274    666836.0485   4550862.4461   6  10   0.3585   0.1627   0.4263   0.2127   0.2451   0.3744   0.00    0.0    0.00065   -0.00298   -0.00460   0.00000  0.00000  0.00000  0.00000  0.00000  0.00000
2268 259444.000   4402958.1302    666836.0355   4550862.4446   6  10   0.3578   0.1625   0.4257   0.2123   0.2447   0.3737   0.00    0.0    0.00140   -0.00332   -0.00395   0.00000  0.00000  0.00000  0.00000  0.00000  0.00000
2268 259445.000   4402958.1611    666836.0345   4550862.4808   6  10   0.3571   0.1622   0.4250   0.2119   0.2443   0.3731   0.00    0.0    0.00181   -0.00356   -0.00384   0.00000  0.00000  0.00000  0.00000  0.00000  0.00000
2268 259446.000   4402958.1408    666836.0321   4550862.4675   6  10   0.3564   0.1619   0.4243   0.2116   0.2439   0.3724   0.00    0.0    0.00123   -0.00290   -0.00357   0.00000  0.00000  0.00000  0.00000  0.00000  0.00000
2268 259447.000   4402958.1380    666836.0364   4550862.4758   6  10   0.3557   0.1616   0.4237   0.2112   0.2435   0.3718   0.00    0.0    0.00100   -0.00307   -0.00378   0.00000  0.00000  0.00000  0.00000  0.00000  0.00000
2268 259448.000   4402958.1770    666836.0438   4550862.5085   6  10   0.3550   0.1614   0.4230   0.2109   0.2431   0.3712   0.00    0.0    0.00104   -0.00318   -0.00412   0.00000  0.00000  0.00000  0.00000  0.00000  0.00000
2268 259449.000   4402958.1848    666836.0534   4550862.5263   6  10   0.3544   0.1611   0.4224   0.2105   0.2428   0.3706   0.00    0.0    0.00128   -0.00330   -0.00389   0.00000  0.00000  0.00000  0.00000  0.00000  0.00000
2268 259450.000   4402958.2010    666836.0547   4550862.5418   6  10   0.3537   0.1608   0.4218   0.2102   0.2424   0.3700   0.00    0.0    0.00121   -0.00314   -0.00395   0.00000  0.00000  0.00000  0.00000  0.00000  0.00000
2268 259451.000   4402958.1988    666836.0580   4550862.5552   6  10   0.3530   0.1606   0.4211   0.2098   0.2420   0.3694   0.00    0.0    0.00120   -0.00325   -0.00401   0.00000  0.00000  0.00000  0.00000  0.00000  0.00000
2268 259452.000   4402958.2210    666836.0536   4550862.5597   6  10   0.3524   0.1603   0.4205   0.2095   0.2417   0.3688   0.00    0.0    0.00129   -0.00324   -0.00380   0.00000  0.00000  0.00000  0.00000  0.00000  0.00000
2268 259453.000   4402958.1981    666836.0491   4550862.5471   6  10   0.3517   0.1600   0.4199   0.2092   0.2413   0.3682   0.00    0.0    0.00100   -0.00318   -0.00382   0.00000  0.00000  0.00000  0.00000  0.00000  0.00000
2268 259454.000   4402958.2144    666836.0462   4550862.5632   6  10   0.3511   0.1598   0.4193   0.2088   0.2409   0.3676   0.00    0.0    0.00091   -0.00307   -0.00396   0.00000  0.00000  0.00000  0.00000  0.00000  0.00000
2268 259455.000   4402958.1766    666836.0242   4550862.5061   6  10   0.3505   0.1595   0.4187   0.2085   0.2406   0.3670   0.00    0.0    0.00070   -0.00329   -0.00429   0.00000  0.00000  0.00000  0.00000  0.00000  0.00000
2268 259456.000   4402958.1840    666836.0303   4550862.5203   6  10   0.3499   0.1593   0.4181   0.2082   0.2402   0.3665   0.00    0.0    0.00031   -0.00295   -0.00420   0.00000  0.00000  0.00000  0.00000  0.00000  0.00000
2268 259457.000   4402958.1686    666836.0135   4550862.4928   6  10   0.3492   0.1590   0.4175   0.2078   0.2399   0.3659   0.00    0.0    0.00042   -0.00306   -0.00407   0.00000  0.00000  0.00000  0.00000  0.00000  0.00000
2268 259458.000   4402958.1706    666836.0177   4550862.4912   6  10   0.3486   0.1588   0.4169   0.2075   0.2395   0.3654   0.00    0.0    0.00088   -0.00323   -0.00446   0.00000  0.00000  0.00000  0.00000  0.00000  0.00000
2268 259459.000   4402958.2016    666836.0254   4550862.5168   6  10   0.3480   0.1585   0.4163   0.2072   0.2392   0.3648   0.00    0.0    0.00096   -0.00343   -0.00410   0.00000  0.00000  0.00000  0.00000  0.00000  0.00000
2268 259460.000   4402958.1849    666836.0250   4550862.4945   6  10   0.3474   0.1583   0.4157   0.2069   0.2389   0.3643   0.00    0.0    0.00136   -0.00325   -0.00408   0.00000  0.00000  0.00000  0.00000  0.00000  0.00000
2268 259461.000   4402958.1725    666836.0157   4550862.4685   6  10   0.3468   0.1580   0.4151   0.2066   0.2385   0.3637   0.00    0.0    0.00139   -0.00334   -0.00397   0.00000  0.00000  0.00000  0.00000  0.00000  0.00000
2268 259462.000   4402958.1954    666836.0214   4550862.4879   6  10   0.3462   0.1578   0.4146   0.2063   0.2382   0.3632   0.00    0.0    0.00110   -0.00313   -0.00395   0.00000  0.00000  0.00000  0.00000  0.00000  0.00000
2268 259463.000   4402958.1791    666836.0044   4550862.4652   6  10   0.3456   0.1575   0.4140   0.2060   0.2379   0.3627   0.00    0.0    0.00133   -0.00329   -0.00386   0.00000  0.00000  0.00000  0.00000  0.00000  0.00000
2268 259464.000   4402958.1509    666835.9911   4550862.4279   6  10   0.3451   0.1573   0.4134   0.2057   0.2375   0.3621   0.00    0.0    0.00127   -0.00338   -0.00425   0.00000  0.00000  0.00000  0.00000  0.00000  0.00000
