% program   : GINav v0.1.0
% obs start : 2023/06/28 00:00:00.0
% obs end   : 2023/06/28 02:00:00.0
% mode      : PPP Kinematic
% system    : GPS GALILEO 
% nfreqs    : 2
% elev mask : 10.0 deg
% ephemeris : broadcast
% ionos opt : estimation
% trops opt : ZTD estimation
%
%  GPST              x-ecef(m)      y-ecef(m)      z-ecef(m)   Q  ns   sdx(m)   sdy(m)   sdz(m)  sdxy(m)  sdyz(m)  sdzx(m) age(s)  ratio    vx(m/s)    vy(m/s)    vz(m/s)      sdvx     sdvy     sdvz    sdvxy    sdvyz    sdvzx
2268 259201.000   4402961.7650    666808.4404   4550861.2970   6  12   1.6251   0.5170   1.2228   0.1794   0.3083   0.9106   0.00    0.0    0.01032   -0.00241    0.00166   0.00000  0.00000  0.00000  0.00000  0.00000  0.00000
2268 259202.000   4402961.7313    666808.4336   4550861.2510   6  12   1.1784   0.3712   0.9174   0.1639   0.2487   0.6963   0.00    0.0    0.01170   -0.00242    0.00225   0.00000  0.00000  0.00000  0.00000  0.00000  0.00000
2268 259203.000   4402961.6940    666808.4258   4550861.2026   6  12   0.9888   0.3079   0.7971   0.1624   0.2289   0.6157   0.00    0.0    0.01080   -0.00253    0.00166   0.00000  0.00000  0.00000  0.00000  0.00000  0.00000
2268 259204.000   4402961.6590    666808.4184   4550861.1562   6  12   0.8778   0.2704   0.7286   0.1613   0.2178   0.5705   0.00    0.0    0.01017   -0.00245    0.00178   0.00000  0.00000  0.00000  0.00000  0.00000  0.00000
2268 259205.000   4402961.6266    666808.4113   4550861.1134   6  12   0.8019   0.2447   0.6812   0.1591   0.2094   0.5387   0.00    0.0    0.01085   -0.00262    0.00175   0.00000  0.00000  0.00000  0.00000  0.00000  0.00000
2268 259206.000   4402961.5967    666808.4049   4550861.0746   6  12   0.7451   0.2256   0.6447   0.1564   0.2023   0.5137   0.00    0.0    0.01095   -0.00230    0.00161   0.00000  0.00000  0.00000  0.00000  0.00000  0.00000
2268 259207.000   4402961.5699    666808.3989   4550861.0392   6  12   0.7003   0.2107   0.6150   0.1534   0.1960   0.4928   0.00    0.0    0.01102   -0.00254    0.00198   0.00000  0.00000  0.00000  0.00000  0.00000  0.00000
2268 259208.000   4402961.5456    666808.3933   4550861.0073   6  12   0.6636   0.1986   0.5900   0.1503   0.1903   0.4749   0.00    0.0    0.01091   -0.00241    0.00219   0.00000  0.00000  0.00000  0.00000  0.00000  0.00000
2268 259209.000   4402961.5232    666808.3881   4550860.9779   6  12   0.6328   0.1884   0.5684   0.1473   0.1852   0.4593   0.00    0.0    0.01018   -0.00257    0.00175   0.00000  0.00000  0.00000  0.00000  0.00000  0.00000
2268 259210.000   4402961.5023    666808.3831   4550860.9499   6  12   0.6063   0.1798   0.5496   0.1444   0.1806   0.4455   0.00    0.0    0.01053   -0.00255    0.00197   0.00000  0.00000  0.00000  0.00000  0.00000  0.00000
2268 259211.000   4402961.4824    666808.3786   4550860.9234   6  12   0.5833   0.1723   0.5329   0.1417   0.1764   0.4331   0.00    0.0    0.01017   -0.00245    0.00176   0.00000  0.00000  0.00000  0.00000  0.00000  0.00000
2268 259212.000   4402961.4636    666808.3742   4550860.8984   6  12   0.5631   0.1658   0.5181   0.1392   0.1725   0.4220   0.00    0.0    0.01142   -0.00250    0.00160   0.00000  0.00000  0.00000  0.00000  0.00000  0.00000
2268 259213.000   4402961.4452    666808.3699   4550860.8740   6  12   0.5451   0.1600   0.5047   0.1369   0.1690   0.4120   0.00    0.0    0.01083   -0.00246    0.00226   0.00000  0.00000  0.00000  0.00000  0.00000  0.00000
2268 259214.000   4402961.4276    666808.3657   4550860.8507   6  12   0.5289   0.1548   0.4925   0.1347   0.1658   0.4028   0.00    0.0    0.01100   -0.00258    0.00213   0.00000  0.00000  0.00000  0.00000  0.00000  0.00000
2268 259215.000   4402961.4106    666808.3618   4550860.8281   6  12   0.5143   0.1502   0.4815   0.1326   0.1628   0.3944   0.00    0.0    0.01057   -0.00256    0.00169   0.00000  0.00000  0.00000  0.00000  0.00000  0.00000
2268 259216.000   4402961.3945    666808.3579   4550860.8065   6  12   0.5010   0.1459   0.4714   0.1307   0.1601   0.3867   0.00    0.0    0.01088   -0.00256    0.00219   0.00000  0.00000  0.00000  0.00000  0.00000  0.00000
2268 259217.000   4402961.3786    666808.3541   4550860.7852   6  12   0.4888   0.1420   0.4620   0.1289   0.1575   0.3796   0.00    0.0    0.01052   -0.00255    0.00209   0.00000  0.00000  0.00000  0.00000  0.00000  0.00000
2268 259218.000   4402961.3632    666808.3504   4550860.7646   6  12   0.4777   0.1385   0.4534   0.1272   0.1552   0.3730   0.00    0.0    0.01033   -0.00256    0.00177   0.00000  0.00000  0.00000  0.00000  0.00000  0.00000
2268 259219.000   4402961.3482    666808.3469   4550860.7446   6  12   0.4673   0.1352   0.4454   0.1256   0.1529   0.3668   0.00    0.0    0.00995   -0.00261    0.00172   0.00000  0.00000  0.00000  0.00000  0.00000  0.00000
2268 259220.000   4402961.3333    666808.3434   4550860.7249   6  12   0.4577   0.1322   0.4379   0.1241   0.1508   0.3611   0.00    0.0    0.01068   -0.00257    0.00213   0.00000  0.00000  0.00000  0.00000  0.00000  0.00000
2268 259221.000   4402961.3190    666808.3400   4550860.7058   6  12   0.4488   0.1294   0.4309   0.1227   0.1489   0.3557   0.00    0.0    0.01010   -0.00244    0.00172   0.00000  0.00000  0.00000  0.00000  0.00000  0.00000
2268 259222.000   4402961.3051    666808.3367   4550860.6872   6  12   0.4405   0.1268   0.4243   0.1214   0.1470   0.3506   0.00    0.0    0.01045   -0.00257    0.00218   0.00000  0.00000  0.00000  0.00000  0.00000  0.00000
2268 259223.000   4402961.2913    666808.3335   4550860.6690   6  12   0.4327   0.1243   0.4181   0.1201   0.1453   0.3458   0.00    0.0    0.01069   -0.00238    0.00207   0.00000  0.00000  0.00000  0.00000  0.00000  0.00000
2268 259224.000   4402961.2777    666808.3304   4550860.6510   6  12   0.4253   0.1220   0.4123   0.1188   0.1436   0.3413   0.00    0.0    0.01062   -0.00246    0.00233   0.00000  0.00000  0.00000  0.00000  0.00000  0.00000
2268 259225.000   4402961.2647    666808.3273   4550860.6336   6  12   0.4184   0.1198   0.4068   0.1177   0.1420   0.3370   0.00    0.0    0.01047   -0.00240    0.00210   0.00000  0.00000  0.00000  0.00000  0.00000  0.00000
2268 259226.000   4402961.2518    666808.3242   4550860.6163   6  12   0.4119   0.1178   0.4016   0.1166   0.1405   0.3329   0.00    0.0    0.01031   -0.00241    0.00203   0.00000  0.00000  0.00000  0.00000  0.00000  0.00000
2268 259227.000   4402961.2393    666808.3213   4550860.5996   6  12   0.4057   0.1158   0.3966   0.1155   0.1391   0.3291   0.00    0.0    0.01096   -0.00232    0.00220   0.00000  0.00000  0.00000  0.00000  0.00000  0.00000
2268 259228.000   4402961.2270    666808.3184   4550860.5832   6  12   0.3998   0.1140   0.3919   0.1145   0.1377   0.3254   0.00    0.0    0.01056   -0.00248    0.00219   0.00000  0.00000  0.00000  0.00000  0.00000  0.00000
2268 259229.000   4402961.2151    666808.3155   4550860.5673   6  12   0.3943   0.1123   0.3873   0.1135   0.1364   0.3219   0.00    0.0    0.01114   -0.00231    0.00230   0.00000  0.00000  0.00000  0.00000  0.00000  0.00000
2268 259230.000   4402961.2032    666808.3128   4550860.5514   6  12   0.3890   0.1106   0.3830   0.1125   0.1351   0.3185   0.00    0.0    0.01064   -0.00263    0.00226   0.00000  0.00000  0.00000  0.00000  0.00000  0.00000
2268 259231.000   4402961.1914    666808.3100   4550860.5357   6  12   0.3839   0.1090   0.3789   0.1116   0.1339   0.3153   0.00    0.0    0.01122   -0.00230    0.00210   0.00000  0.00000  0.00000  0.00000  0.00000  0.00000
2268 259232.000   4402961.1800    666808.3074   4550860.5205   6  12   0.3791   0.1075   0.3749   0.1107   0.1327   0.3122   0.00    0.0    0.01061   -0.00228    0.00258   0.00000  0.00000  0.00000  0.00000  0.00000  0.00000
2268 259233.000   4402961.1690    666808.3048   4550860.5056   6  12   0.3744   0.1061   0.3711   0.1099   0.1316   0.3092   0.00    0.0    0.01108   -0.00255    0.00275   0.00000  0.00000  0.00000  0.00000  0.00000  0.00000
2268 259234.000   4402961.1581    666808.3022   4550860.4910   6  12   0.3700   0.1047   0.3675   0.1090   0.1305   0.3063   0.00    0.0    0.01082   -0.00246    0.00240   0.00000  0.00000  0.00000  0.00000  0.00000  0.00000
2268 259235.000   4402961.1474    666808.2996   4550860.4767   6  12   0.3658   0.1034   0.3640   0.1082   0.1294   0.3035   0.00    0.0    0.01025   -0.00256    0.00195   0.00000  0.00000  0.00000  0.00000  0.00000  0.00000
2268 259236.000   4402961.1368    666808.2972   4550860.4626   6  12   0.3617   0.1021   0.3606   0.1075   0.1284   0.3009   0.00    0.0    0.01075   -0.00261    0.00206   0.00000  0.00000  0.00000  0.00000  0.00000  0.00000
2268 259237.000   4402961.1263    666808.2947   4550860.4487   6  12   0.3578   0.1009   0.3573   0.1067   0.1274   0.2983   0.00    0.0    0.01087   -0.00234    0.00217   0.00000  0.00000  0.00000  0.00000  0.00000  0.00000
2268 259238.000   4402961.1162    666808.2923   4550860.4350   6  12   0.3540   0.0998   0.3542   0.1060   0.1265   0.2958   0.00    0.0    0.01101   -0.00236    0.00228   0.00000  0.00000  0.00000  0.00000  0.00000  0.00000
2268 259239.000   4402961.1062    666808.2900   4550860.4218   6  12   0.3503   0.0986   0.3511   0.1053   0.1255   0.2934   0.00    0.0    0.01094   -0.00234    0.00226   0.00000  0.00000  0.00000  0.00000  0.00000  0.00000
2268 259240.000   4402961.0965    666808.2877   4550860.4088   6  12   0.3468   0.0975   0.3482   0.1046   0.1246   0.2911   0.00    0.0    0.01087   -0.00226    0.00235   0.00000  0.00000  0.00000  0.00000  0.00000  0.00000
2268 259241.000   4402961.0869    666808.2854   4550860.3960   6  12   0.3434   0.0965   0.3453   0.1039   0.1238   0.2888   0.00    0.0    0.01125   -0.00235    0.00241   0.00000  0.00000  0.00000  0.00000  0.00000  0.00000
2268 259242.000   4402961.0774    666808.2832   4550860.3834   6  12   0.3401   0.0955   0.3425   0.1032   0.1229   0.2866   0.00    0.0    0.01079   -0.00233    0.00235   0.00000  0.00000  0.00000  0.00000  0.00000  0.00000
2268 259243.000   4402961.0682    666808.2810   4550860.3710   6  12   0.3370   0.0945   0.3398   0.1026   0.1221   0.2845   0.00    0.0    0.01127   -0.00263    0.00207   0.00000  0.00000  0.00000  0.00000  0.00000  0.00000
2268 259244.000   4402961.0591    666808.2788   4550860.3588   6  12   0.3339   0.0936   0.3372   0.1020   0.1213   0.2824   0.00    0.0    0.01037   -0.00245    0.00220   0.00000  0.00000  0.00000  0.00000  0.00000  0.00000
2268 259245.000   4402961.0501    666808.2767   4550860.3468   6  12   0.3309   0.0927   0.3347   0.1013   0.1205   0.2804   0.00    0.0    0.01021   -0.00229    0.00199   0.00000  0.00000  0.00000  0.00000  0.00000  0.00000
2268 259246.000   4402961.0413    666808.2746   4550860.3351   6  12   0.3280   0.0918   0.3322   0.1007   0.1197   0.2784   0.00    0.0    0.01030   -0.00245    0.00223   0.00000  0.00000  0.00000  0.00000  0.00000  0.00000
2268 259247.000   4402961.0328    666808.2726   4550860.3236   6  12   0.3252   0.0909   0.3298   0.1002   0.1189   0.2765   0.00    0.0    0.01114   -0.00224    0.00257   0.00000  0.00000  0.00000  0.00000  0.00000  0.00000
2268 259248.000   4402961.0243    666808.2706   4550860.3123   6  12   0.3225   0.0901   0.3275   0.0996   0.1182   0.2746   0.00    0.0    0.01119   -0.00246    0.00255   0.00000  0.00000  0.00000  0.00000  0.00000  0.00000
2268 259249.000   4402961.0160    666808.2687   4550860.3012   6  12   0.3199   0.0893   0.3252   0.0990   0.1175   0.2728   0.00    0.0    0.01070   -0.00246    0.00194   0.00000  0.00000  0.00000  0.00000  0.00000  0.00000
2268 259250.000   4402961.0079    666808.2667   4550860.2903   6  12   0.3173   0.0885   0.3229   0.0985   0.1168   0.2710   0.00    0.0    0.01091   -0.00221    0.00271   0.00000  0.00000  0.00000  0.00000  0.00000  0.00000
2268 259251.000   4402961.0000    666808.2648   4550860.2797   6  12   0.3148   0.0877   0.3208   0.0979   0.1161   0.2693   0.00    0.0    0.01039   -0.00249    0.00204   0.00000  0.00000  0.00000  0.00000  0.00000  0.00000
2268 259252.000   4402960.9921    666808.2630   4550860.2691   6  12   0.3124   0.0870   0.3186   0.0974   0.1154   0.2676   0.00    0.0    0.01115   -0.00247    0.00240   0.00000  0.00000  0.00000  0.00000  0.00000  0.00000
2268 259253.000   4402960.9844    666808.2611   4550860.2589   6  12   0.3100   0.0863   0.3166   0.0969   0.1148   0.2659   0.00    0.0    0.01035   -0.00246    0.00184   0.00000  0.00000  0.00000  0.00000  0.00000  0.00000
2268 259254.000   4402960.9769    666808.2593   4550860.2487   6  12   0.3077   0.0856   0.3145   0.0964   0.1141   0.2643   0.00    0.0    0.01152   -0.00244    0.00252   0.00000  0.00000  0.00000  0.00000  0.00000  0.00000
2268 259255.000   4402960.9694    666808.2575   4550860.2387   6  12   0.3054   0.0849   0.3126   0.0959   0.1135   0.2627   0.00    0.0    0.01102   -0.00250    0.00273   0.00000  0.00000  0.00000  0.00000  0.00000  0.00000
2268 259256.000   4402960.9621    666808.2558   4550860.2290   6  12   0.3032   0.0842   0.3106   0.0954   0.1129   0.2611   0.00    0.0    0.01082   -0.00267    0.00284   0.00000  0.00000  0.00000  0.00000  0.00000  0.00000
2268 259257.000   4402960.9549    666808.2541   4550860.2193   6  12   0.3011   0.0836   0.3087   0.0949   0.1123   0.2596   0.00    0.0    0.01085   -0.00250    0.00210   0.00000  0.00000  0.00000  0.00000  0.00000  0.00000
2268 259258.000   4402960.9480    666808.2524   4550860.2099   6  12   0.2990   0.0829   0.3069   0.0944   0.1117   0.2581   0.00    0.0    0.01051   -0.00273    0.00241   0.00000  0.00000  0.00000  0.00000  0.00000  0.00000
2268 259259.000   4402960.9411    666808.2507   4550860.2007   6  12   0.2969   0.0823   0.3050   0.0940   0.1111   0.2566   0.00    0.0    0.01023   -0.00259    0.00191   0.00000  0.00000  0.00000  0.00000  0.00000  0.00000
2268 259260.000   4402960.9343    666808.2491   4550860.1916   6  12   0.2949   0.0817   0.3032   0.0935   0.1105   0.2552   0.00    0.0    0.01180   -0.00243    0.00278   0.00000  0.00000  0.00000  0.00000  0.00000  0.00000
2268 259261.000   4402960.9277    666808.2475   4550860.1827   6  12   0.2929   0.0811   0.3015   0.0931   0.1099   0.2538   0.00    0.0    0.01093   -0.00228    0.00215   0.00000  0.00000  0.00000  0.00000  0.00000  0.00000
2268 259262.000   4402960.9212    666808.2459   4550860.1739   6  12   0.2910   0.0806   0.2998   0.0926   0.1094   0.2524   0.00    0.0    0.01113   -0.00229    0.00272   0.00000  0.00000  0.00000  0.00000  0.00000  0.00000
2268 259263.000   4402960.9148    666808.2444   4550860.1654   6  12   0.2892   0.0800   0.2981   0.0922   0.1088   0.2510   0.00    0.0    0.01055   -0.00237    0.00229   0.00000  0.00000  0.00000  0.00000  0.00000  0.00000
2268 259264.000   4402960.9085    666808.2429   4550860.1569   6  12   0.2873   0.0794   0.2964   0.0917   0.1083   0.2497   0.00    0.0    0.01069   -0.00245    0.00238   0.00000  0.00000  0.00000  0.00000  0.00000  0.00000
2268 259265.000   4402960.9023    666808.2414   4550860.1486   6  12   0.2855   0.0789   0.2948   0.0913   0.1077   0.2484   0.00    0.0    0.01102   -0.00235    0.00238   0.00000  0.00000  0.00000  0.00000  0.00000  0.00000
2268 259266.000   4402960.8963    666808.2399   4550860.1405   6  12   0.2837   0.0784   0.2932   0.0909   0.1072   0.2471   0.00    0.0    0.01104   -0.00239    0.00264   0.00000  0.00000  0.00000  0.00000  0.00000  0.00000
2268 259267.000   4402960.8904    666808.2385   4550860.1325   6  12   0.2820   0.0779   0.2916   0.0905   0.1067   0.2458   0.00    0.0    0.01063   -0.00261    0.00165   0.00000  0.00000  0.00000  0.00000  0.00000  0.00000
2268 259268.000   4402960.8846    666808.2371   4550860.1247   6  12   0.2803   0.0774   0.2901   0.0901   0.1062   0.2446   0.00    0.0    0.01070   -0.00250    0.00244   0.00000  0.00000  0.00000  0.00000  0.00000  0.00000
2268 259269.000   4402960.8790    666808.2357   4550860.1171   6  12   0.2787   0.0769   0.2886   0.0897   0.1057   0.2434   0.00    0.0    0.01166   -0.00240    0.00281   0.00000  0.00000  0.00000  0.00000  0.00000  0.00000
2268 259270.000   4402960.8734    666808.2343   4550860.1095   6  12   0.2770   0.0764   0.2871   0.0893   0.1052   0.2421   0.00    0.0    0.01101   -0.00245    0.00259   0.00000  0.00000  0.00000  0.00000  0.00000  0.00000
2268 259271.000   4402960.8679    666808.2330   4550860.1021   6  12   0.2754   0.0759   0.2856   0.0889   0.1047   0.2410   0.00    0.0    0.01122   -0.00232    0.00258   0.00000  0.00000  0.00000  0.00000  0.00000  0.00000
2268 259272.000   4402960.8625    666808.2316   4550860.0948   6  12   0.2739   0.0754   0.2842   0.0885   0.1042   0.2398   0.00    0.0    0.01158   -0.00232    0.00259   0.00000  0.00000  0.00000  0.00000  0.00000  0.00000
2268 259273.000   4402960.8572    666808.2303   4550860.0876   6  12   0.2723   0.0750   0.2827   0.0881   0.1037   0.2386   0.00    0.0    0.01104   -0.00240    0.00264   0.00000  0.00000  0.00000  0.00000  0.00000  0.00000
2268 259274.000   4402960.8521    666808.2291   4550860.0806   6  12   0.2708   0.0745   0.2813   0.0877   0.1033   0.2375   0.00    0.0    0.01130   -0.00238    0.00268   0.00000  0.00000  0.00000  0.00000  0.00000  0.00000
2268 259275.000   4402960.8470    666808.2278   4550860.0738   6  12   0.2693   0.0741   0.2800   0.0874   0.1028   0.2364   0.00    0.0    0.01037   -0.00256    0.00198   0.00000  0.00000  0.00000  0.00000  0.00000  0.00000
2268 259276.000   4402960.8421    666808.2266   4550860.0670   6  12   0.2678   0.0737   0.2786   0.0870   0.1023   0.2353   0.00    0.0    0.01197   -0.00212    0.00312   0.00000  0.00000  0.00000  0.00000  0.00000  0.00000
2268 259277.000   4402960.8373    666808.2254   4550860.0605   6  12   0.2664   0.0732   0.2772   0.0866   0.1019   0.2342   0.00    0.0    0.01083   -0.00231    0.00268   0.00000  0.00000  0.00000  0.00000  0.00000  0.00000
2268 259278.000   4402960.8325    666808.2242   4550860.0541   6  12   0.2650   0.0728   0.2759   0.0863   0.1014   0.2331   0.00    0.0    0.01075   -0.00235    0.00264   0.00000  0.00000  0.00000  0.00000  0.00000  0.00000
2268 259279.000   4402960.8279    666808.2230   4550860.0478   6  12   0.2636   0.0724   0.2746   0.0859   0.1010   0.2320   0.00    0.0    0.01165   -0.00239    0.00325   0.00000  0.00000  0.00000  0.00000  0.00000  0.00000
2268 259280.000   4402960.8233    666808.2219   4550860.0416   6  12   0.2622   0.0720   0.2733   0.0856   0.1006   0.2310   0.00    0.0    0.01100   -0.00224    0.00233   0.00000  0.00000  0.00000  0.00000  0.00000  0.00000
2268 259281.000   4402960.8188    666808.2208   4550860.0355   6  12   0.2609   0.0716   0.2721   0.0852   0.1001   0.2299   0.00    0.0    0.01037   -0.00257    0.00259   0.00000  0.00000  0.00000  0.00000  0.00000  0.00000
2268 259282.000   4402960.8144    666808.2197   4550860.0295   6  12   0.2595   0.0712   0.2708   0.0849   0.0997   0.2289   0.00    0.0    0.01141   -0.00236    0.00261   0.00000  0.00000  0.00000  0.00000  0.00000  0.00000
2268 259283.000   4402960.8101    666808.2186   4550860.0237   6  12   0.2582   0.0708   0.2696   0.0845   0.0993   0.2279   0.00    0.0    0.01063   -0.00230    0.00268   0.00000  0.00000  0.00000  0.00000  0.00000  0.00000
2268 259284.000   4402960.8059    666808.2175   4550860.0180   6  12   0.2569   0.0705   0.2684   0.0842   0.0989   0.2269   0.00    0.0    0.01151   -0.00234    0.00300   0.00000  0.00000  0.00000  0.00000  0.00000  0.00000
2268 259285.000   4402960.8018    666808.2165   4550860.0123   6  12   0.2557   0.0701   0.2672   0.0839   0.0985   0.2259   0.00    0.0    0.01133   -0.00234    0.00285   0.00000  0.00000  0.00000  0.00000  0.00000  0.00000
2268 259286.000   4402960.7977    666808.2155   4550860.0068   6  12   0.2544   0.0697   0.2660   0.0835   0.0981   0.2250   0.00    0.0    0.01098   -0.00241    0.00243   0.00000  0.00000  0.00000  0.00000  0.00000  0.00000
2268 259287.000   4402960.7938    666808.2145   4550860.0014   6  12   0.2532   0.0694   0.2648   0.0832   0.0977   0.2240   0.00    0.0    0.01177   -0.00224    0.00294   0.00000  0.00000  0.00000  0.00000  0.00000  0.00000
2268 259288.000   4402960.7899    666808.2135   4550859.9962   6  12   0.2520   0.0690   0.2636   0.0829   0.0973   0.2231   0.00    0.0    0.01156   -0.00237    0.00284   0.00000  0.00000  0.00000  0.00000  0.00000  0.00000
2268 259289.000   4402960.7862    666808.2125   4550859.9910   6  12   0.2508   0.0687   0.2625   0.0826   0.0969   0.2221   0.00    0.0    0.01104   -0.00228    0.00292   0.00000  0.00000  0.00000  0.00000  0.00000  0.00000
2268 259290.000   4402960.7825    666808.2116   4550859.9860   6  12   0.2496   0.0683   0.2614   0.0822   0.0965   0.2212   0.00    0.0    0.01157   -0.00212    0.00326   0.00000  0.00000  0.00000  0.00000  0.00000  0.00000
2268 259291.000   4402960.7788    666808.2107   4550859.9809   6  12   0.2484   0.0680   0.2603   0.0819   0.0961   0.2203   0.00    0.0    0.01107   -0.00244    0.00294   0.00000  0.00000  0.00000  0.00000  0.00000  0.00000
2268 259292.000   4402960.7753    666808.2097   4550859.9761   6  12   0.2473   0.0676   0.2592   0.0816   0.0957   0.2194   0.00    0.0    0.01078   -0.00225    0.00302   0.00000  0.00000  0.00000  0.00000  0.00000  0.00000
2268 259293.000   4402960.7718    666808.2089   4550859.9714   6  12   0.2461   0.0673   0.2581   0.0813   0.0953   0.2185   0.00    0.0    0.01102   -0.00247    0.00285   0.00000  0.00000  0.00000  0.00000  0.00000  0.00000
2268 259294.000   4402960.7685    666808.2080   4550859.9668   6  12   0.2450   0.0670   0.2570   0.0810   0.0950   0.2176   0.00    0.0    0.01145   -0.00214    0.00307   0.00000  0.00000  0.00000  0.00000  0.00000  0.00000
2268 259295.000   4402960.7652    666808.2071   4550859.9622   6  12   0.2439   0.0667   0.2559   0.0807   0.0946   0.2167   0.00    0.0    0.01070   -0.00247    0.00267   0.00000  0.00000  0.00000  0.00000  0.00000  0.00000
2268 259296.000   4402960.7620    666808.2063   4550859.9578   6  12   0.2428   0.0664   0.2549   0.0804   0.0942   0.2159   0.00    0.0    0.01139   -0.00228    0.00316   0.00000  0.00000  0.00000  0.00000  0.00000  0.00000
2268 259297.000   4402960.7589    666808.2055   4550859.9535   6  12   0.2418   0.0660   0.2538   0.0801   0.0939   0.2150   0.00    0.0    0.01139   -0.00219    0.00282   0.00000  0.00000  0.00000  0.00000  0.00000  0.00000
2268 259298.000   4402960.7558    666808.2047   4550859.9493   6  12   0.2407   0.0657   0.2528   0.0798   0.0935   0.2142   0.00    0.0    0.01195   -0.00240    0.00295   0.00000  0.00000  0.00000  0.00000  0.00000  0.00000
2268 259299.000   4402960.7528    666808.2039   4550859.9451   6  12   0.2396   0.0654   0.2518   0.0795   0.0931   0.2133   0.00    0.0    0.01046   -0.00233    0.00228   0.00000  0.00000  0.00000  0.00000  0.00000  0.00000
2268 259300.000   4402960.7498    666808.2031   4550859.9411   6  12   0.2386   0.0651   0.2507   0.0792   0.0928   0.2125   0.00    0.0    0.01070   -0.00232    0.00255   0.00000  0.00000  0.00000  0.00000  0.00000  0.00000
2268 259301.000   4402960.7470    666808.2023   4550859.9372   6  12   0.2376   0.0648   0.2497   0.0789   0.0924   0.2117   0.00    0.0    0.01133   -0.00257    0.00299   0.00000  0.00000  0.00000  0.00000  0.00000  0.00000
2268 259302.000   4402960.7442    666808.2016   4550859.9334   6  12   0.2366   0.0646   0.2488   0.0786   0.0921   0.2108   0.00    0.0    0.01126   -0.00228    0.00288   0.00000  0.00000  0.00000  0.00000  0.00000  0.00000
2268 259303.000   4402960.7415    666808.2009   4550859.9296   6  12   0.2356   0.0643   0.2478   0.0784   0.0917   0.2100   0.00    0.0    0.01107   -0.00241    0.00309   0.00000  0.00000  0.00000  0.00000  0.00000  0.00000
2268 259304.000   4402960.7389    666808.2001   4550859.9259   6  12   0.2346   0.0640   0.2468   0.0781   0.0914   0.2092   0.00    0.0    0.01072   -0.00226    0.00232   0.00000  0.00000  0.00000  0.00000  0.00000  0.00000
2268 259305.000   4402960.7363    666808.1995   4550859.9224   6  12   0.2336   0.0637   0.2458   0.0778   0.0911   0.2084   0.00    0.0    0.01123   -0.00229    0.00302   0.00000  0.00000  0.00000  0.00000  0.00000  0.00000
2268 259306.000   4402960.7338    666808.1988   4550859.9189   6  12   0.2327   0.0634   0.2449   0.0775   0.0907   0.2077   0.00    0.0    0.01205   -0.00219    0.00341   0.00000  0.00000  0.00000  0.00000  0.00000  0.00000
2268 259307.000   4402960.7314    666808.1981   4550859.9156   6  12   0.2317   0.0632   0.2440   0.0773   0.0904   0.2069   0.00    0.0    0.01182   -0.00228    0.00288   0.00000  0.00000  0.00000  0.00000  0.00000  0.00000
2268 259308.000   4402960.7291    666808.1975   4550859.9123   6  12   0.2308   0.0629   0.2430   0.0770   0.0901   0.2061   0.00    0.0    0.01147   -0.00222    0.00307   0.00000  0.00000  0.00000  0.00000  0.00000  0.00000
2268 259309.000   4402960.7268    666808.1968   4550859.9091   6  12   0.2298   0.0626   0.2421   0.0767   0.0897   0.2053   0.00    0.0    0.01072   -0.00247    0.00317   0.00000  0.00000  0.00000  0.00000  0.00000  0.00000
2268 259310.000   4402960.7246    666808.1962   4550859.9059   6  12   0.2289   0.0624   0.2412   0.0764   0.0894   0.2046   0.00    0.0    0.01191   -0.00225    0.00304   0.00000  0.00000  0.00000  0.00000  0.00000  0.00000
2268 259311.000   4402960.7224    666808.1956   4550859.9029   6  12   0.2280   0.0621   0.2403   0.0762   0.0891   0.2038   0.00    0.0    0.01104   -0.00238    0.00301   0.00000  0.00000  0.00000  0.00000  0.00000  0.00000
2268 259312.000   4402960.7203    666808.1950   4550859.9000   6  12   0.2271   0.0618   0.2394   0.0759   0.0888   0.2031   0.00    0.0    0.01170   -0.00233    0.00307   0.00000  0.00000  0.00000  0.00000  0.00000  0.00000
2268 259313.000   4402960.7183    666808.1944   4550859.8971   6  12   0.2262   0.0616   0.2385   0.0757   0.0884   0.2024   0.00    0.0    0.01127   -0.00230    0.00303   0.00000  0.00000  0.00000  0.00000  0.00000  0.00000
2268 259314.000   4402960.7163    666808.1939   4550859.8943   6  12   0.2253   0.0613   0.2376   0.0754   0.0881   0.2016   0.00    0.0    0.01102   -0.00215    0.00302   0.00000  0.00000  0.00000  0.00000  0.00000  0.00000
2268 259315.000   4402960.7144    666808.1933   4550859.8916   6  12   0.2244   0.0611   0.2367   0.0751   0.0878   0.2009   0.00    0.0    0.01121   -0.00241    0.00319   0.00000  0.00000  0.00000  0.00000  0.00000  0.00000
2268 259316.000   4402960.7125    666808.1928   4550859.8890   6  12   0.2236   0.0608   0.2359   0.0749   0.0875   0.2002   0.00    0.0    0.01077   -0.00242    0.00258   0.00000  0.00000  0.00000  0.00000  0.00000  0.00000
2268 259317.000   4402960.7107    666808.1923   4550859.8865   6  12   0.2227   0.0606   0.2350   0.0746   0.0872   0.1995   0.00    0.0    0.01159   -0.00234    0.00286   0.00000  0.00000  0.00000  0.00000  0.00000  0.00000
2268 259318.000   4402960.7090    666808.1917   4550859.8840   6  12   0.2219   0.0604   0.2341   0.0744   0.0869   0.1988   0.00    0.0    0.01155   -0.00237    0.00341   0.00000  0.00000  0.00000  0.00000  0.00000  0.00000
2268 259319.000   4402960.7073    666808.1912   4550859.8816   6  12   0.2210   0.0601   0.2333   0.0741   0.0866   0.1981   0.00    0.0    0.01108   -0.00242    0.00310   0.00000  0.00000  0.00000  0.00000  0.00000  0.00000
2268 259320.000   4402960.7056    666808.1907   4550859.8793   6  12   0.2202   0.0599   0.2325   0.0739   0.0863   0.1974   0.00    0.0    0.01151   -0.00232    0.00300   0.00000  0.00000  0.00000  0.00000  0.00000  0.00000
2268 259321.000   4402960.7041    666808.1903   4550859.8770   6  12   0.2194   0.0597   0.2316   0.0736   0.0860   0.1967   0.00    0.0    0.01087   -0.00240    0.00276   0.00000  0.00000  0.00000  0.00000  0.00000  0.00000
2268 259322.000   4402960.7026    666808.1898   4550859.8749   6  12   0.2186   0.0594   0.2308   0.0734   0.0857   0.1960   0.00    0.0    0.01123   -0.00236    0.00293   0.00000  0.00000  0.00000  0.00000  0.00000  0.00000
2268 259323.000   4402960.7012    666808.1894   4550859.8728   6  12   0.2178   0.0592   0.2300   0.0731   0.0854   0.1953   0.00    0.0    0.01167   -0.00215    0.00330   0.00000  0.00000  0.00000  0.00000  0.00000  0.00000
2268 259324.000   4402960.6998    666808.1889   4550859.8707   6  12   0.2170   0.0590   0.2292   0.0729   0.0851   0.1946   0.00    0.0    0.01150   -0.00218    0.00330   0.00000  0.00000  0.00000  0.00000  0.00000  0.00000
2268 259325.000   4402960.6984    666808.1885   4550859.8688   6  12   0.2162   0.0588   0.2284   0.0727   0.0848   0.1940   0.00    0.0    0.01112   -0.00233    0.00324   0.00000  0.00000  0.00000  0.00000  0.00000  0.00000
2268 259326.000   4402960.6972    666808.1881   4550859.8669   6  12   0.2154   0.0585   0.2276   0.0724   0.0845   0.1933   0.00    0.0    0.01170   -0.00243    0.00320   0.00000  0.00000  0.00000  0.00000  0.00000  0.00000
2268 259327.000   4402960.6959    666808.1877   4550859.8651   6  12   0.2146   0.0583   0.2268   0.0722   0.0842   0.1927   0.00    0.0    0.01135   -0.00259    0.00273   0.00000  0.00000  0.00000  0.00000  0.00000  0.00000
2268 259328.000   4402960.6948    666808.1873   4550859.8634   6  12   0.2139   0.0581   0.2260   0.0720   0.0840   0.1920   0.00    0.0    0.01141   -0.00218    0.00279   0.00000  0.00000  0.00000  0.00000  0.00000  0.00000
2268 259329.000   4402960.6936    666808.1869   4550859.8617   6  12   0.2131   0.0579   0.2252   0.0717   0.0837   0.1914   0.00    0.0    0.01184   -0.00224    0.00338   0.00000  0.00000  0.00000  0.00000  0.00000  0.00000
2268 259330.000   4402960.6925    666808.1865   4550859.8600   6  12   0.2123   0.0577   0.2244   0.0715   0.0834   0.1907   0.00    0.0    0.01165   -0.00227    0.00366   0.00000  0.00000  0.00000  0.00000  0.00000  0.00000
2268 259331.000   4402960.6915    666808.1862   4550859.8585   6  12   0.2116   0.0575   0.2237   0.0713   0.0831   0.1901   0.00    0.0    0.01136   -0.00212    0.00294   0.00000  0.00000  0.00000  0.00000  0.00000  0.00000
2268 259332.000   4402960.6905    666808.1858   4550859.8570   6  12   0.2109   0.0573   0.2229   0.0710   0.0828   0.1894   0.00    0.0    0.01151   -0.00220    0.00327   0.00000  0.00000  0.00000  0.00000  0.00000  0.00000
2268 259333.000   4402960.6896    666808.1855   4550859.8556   6  12   0.2101   0.0571   0.2222   0.0708   0.0826   0.1888   0.00    0.0    0.01159   -0.00237    0.00303   0.00000  0.00000  0.00000  0.00000  0.00000  0.00000
2268 259334.000   4402960.6887    666808.1852   4550859.8543   6  12   0.2094   0.0569   0.2214   0.0706   0.0823   0.1882   0.00    0.0    0.01152   -0.00246    0.00291   0.00000  0.00000  0.00000  0.00000  0.00000  0.00000
2268 259335.000   4402960.6879    666808.1848   4550859.8530   6  12   0.2087   0.0567   0.2207   0.0703   0.0820   0.1876   0.00    0.0    0.01130   -0.00239    0.00332   0.00000  0.00000  0.00000  0.00000  0.00000  0.00000
2268 259336.000   4402960.6871    666808.1845   4550859.8517   6  12   0.2080   0.0565   0.2199   0.0701   0.0818   0.1869   0.00    0.0    0.01181   -0.00230    0.00334   0.00000  0.00000  0.00000  0.00000  0.00000  0.00000
2268 259337.000   4402960.6864    666808.1842   4550859.8506   6  12   0.2072   0.0563   0.2192   0.0699   0.0815   0.1863   0.00    0.0    0.01121   -0.00235    0.00317   0.00000  0.00000  0.00000  0.00000  0.00000  0.00000
2268 259338.000   4402960.6857    666808.1840   4550859.8495   6  12   0.2065   0.0561   0.2185   0.0697   0.0812   0.1857   0.00    0.0    0.01133   -0.00237    0.00290   0.00000  0.00000  0.00000  0.00000  0.00000  0.00000
2268 259339.000   4402960.6850    666808.1837   4550859.8484   6  12   0.2058   0.0559   0.2177   0.0695   0.0810   0.1851   0.00    0.0    0.01142   -0.00238    0.00335   0.00000  0.00000  0.00000  0.00000  0.00000  0.00000
2268 259340.000   4402960.6844    666808.1834   4550859.8475   6  12   0.2052   0.0557   0.2170   0.0692   0.0807   0.1845   0.00    0.0    0.01143   -0.00254    0.00330   0.00000  0.00000  0.00000  0.00000  0.00000  0.00000
2268 259341.000   4402960.6839    666808.1832   4550859.8466   6  12   0.2045   0.0555   0.2163   0.0690   0.0804   0.1839   0.00    0.0    0.01171   -0.00237    0.00332   0.00000  0.00000  0.00000  0.00000  0.00000  0.00000
2268 259342.000   4402960.6834    666808.1829   4550859.8457   6  12   0.2038   0.0553   0.2156   0.0688   0.0802   0.1833   0.00    0.0    0.01194   -0.00232    0.00358   0.00000  0.00000  0.00000  0.00000  0.00000  0.00000
2268 259343.000   4402960.6830    666808.1827   4550859.8450   6  12   0.2031   0.0551   0.2149   0.0686   0.0799   0.1827   0.00    0.0    0.01181   -0.00216    0.00304   0.00000  0.00000  0.00000  0.00000  0.00000  0.00000
2268 259344.000   4402960.6826    666808.1825   4550859.8442   6  12   0.2024   0.0549   0.2142   0.0684   0.0797   0.1822   0.00    0.0    0.01257   -0.00225    0.00370   0.00000  0.00000  0.00000  0.00000  0.00000  0.00000
2268 259345.000   4402960.6823    666808.1823   4550859.8436   6  12   0.2018   0.0548   0.2135   0.0682   0.0794   0.1816   0.00    0.0    0.01159   -0.00264    0.00343   0.00000  0.00000  0.00000  0.00000  0.00000  0.00000
2268 259346.000   4402960.6819    666808.1820   4550859.8429   6  12   0.2011   0.0546   0.2128   0.0679   0.0791   0.1810   0.00    0.0    0.01241   -0.00244    0.00380   0.00000  0.00000  0.00000  0.00000  0.00000  0.00000
2268 259347.000   4402960.6816    666808.1818   4550859.8424   6  12   0.2005   0.0544   0.2121   0.0677   0.0789   0.1804   0.00    0.0    0.01241   -0.00251    0.00350   0.00000  0.00000  0.00000  0.00000  0.00000  0.00000
2268 259348.000   4402960.6814    666808.1817   4550859.8419   6  12   0.1998   0.0542   0.2114   0.0675   0.0786   0.1799   0.00    0.0    0.01292   -0.00242    0.00365   0.00000  0.00000  0.00000  0.00000  0.00000  0.00000
2268 259349.000   4402960.6812    666808.1815   4550859.8414   6  12   0.1992   0.0540   0.2107   0.0673   0.0784   0.1793   0.00    0.0    0.01181   -0.00242    0.00356   0.00000  0.00000  0.00000  0.00000  0.00000  0.00000
2268 259350.000   4402960.6811    666808.1813   4550859.8410   6  12   0.1985   0.0539   0.2101   0.0671   0.0781   0.1787   0.00    0.0    0.01181   -0.00239    0.00345   0.00000  0.00000  0.00000  0.00000  0.00000  0.00000
2268 259351.000   4402960.6810    666808.1812   4550859.8406   6  12   0.1979   0.0537   0.2094   0.0669   0.0779   0.1782   0.00    0.0    0.01202   -0.00276    0.00368   0.00000  0.00000  0.00000  0.00000  0.00000  0.00000
2268 259352.000   4402960.6809    666808.1810   4550859.8403   6  12   0.1973   0.0535   0.2087   0.0667   0.0777   0.1776   0.00    0.0    0.01239   -0.00233    0.00350   0.00000  0.00000  0.00000  0.00000  0.00000  0.00000
2268 259353.000   4402960.6808    666808.1809   4550859.8400   6  12   0.1966   0.0534   0.2081   0.0665   0.0774   0.1771   0.00    0.0    0.01166   -0.00244    0.00362   0.00000  0.00000  0.00000  0.00000  0.00000  0.00000
2268 259354.000   4402960.6808    666808.1807   4550859.8399   6  12   0.1960   0.0532   0.2074   0.0663   0.0772   0.1765   0.00    0.0    0.01208   -0.00236    0.00350   0.00000  0.00000  0.00000  0.00000  0.00000  0.00000
2268 259355.000   4402960.6808    666808.1806   4550859.8397   6  12   0.1954   0.0530   0.2068   0.0661   0.0769   0.1760   0.00    0.0    0.01177   -0.00261    0.00340   0.00000  0.00000  0.00000  0.00000  0.00000  0.00000
2268 259356.000   4402960.6809    666808.1805   4550859.8396   6  12   0.1948   0.0528   0.2061   0.0659   0.0767   0.1754   0.00    0.0    0.01279   -0.00251    0.00379   0.00000  0.00000  0.00000  0.00000  0.00000  0.00000
2268 259357.000   4402960.6810    666808.1804   4550859.8395   6  12   0.1942   0.0527   0.2055   0.0657   0.0764   0.1749   0.00    0.0    0.01270   -0.00222    0.00407   0.00000  0.00000  0.00000  0.00000  0.00000  0.00000
2268 259358.000   4402960.6812    666808.1803   4550859.8395   6  12   0.1936   0.0525   0.2049   0.0655   0.0762   0.1743   0.00    0.0    0.01179   -0.00241    0.00351   0.00000  0.00000  0.00000  0.00000  0.00000  0.00000
2268 259359.000   4402960.6814    666808.1802   4550859.8396   6  12   0.1930   0.0524   0.2042   0.0653   0.0760   0.1738   0.00    0.0    0.01194   -0.00243    0.00312   0.00000  0.00000  0.00000  0.00000  0.00000  0.00000
2268 259360.000   4402960.6816    666808.1801   4550859.8397   6  12   0.1924   0.0522   0.2036   0.0651   0.0757   0.1733   0.00    0.0    0.01261   -0.00233    0.00358   0.00000  0.00000  0.00000  0.00000  0.00000  0.00000
2268 259361.000   4402960.6819    666808.1801   4550859.8398   6  12   0.1918   0.0520   0.2030   0.0649   0.0755   0.1728   0.00    0.0    0.01166   -0.00244    0.00310   0.00000  0.00000  0.00000  0.00000  0.00000  0.00000
2268 259362.000   4402960.6822    666808.1800   4550859.8400   6  12   0.1912   0.0519   0.2023   0.0647   0.0753   0.1722   0.00    0.0    0.01198   -0.00237    0.00348   0.00000  0.00000  0.00000  0.00000  0.00000  0.00000
2268 259363.000   4402960.6825    666808.1799   4550859.8403   6  12   0.1907   0.0517   0.2017   0.0645   0.0750   0.1717   0.00    0.0    0.01221   -0.00229    0.00334   0.00000  0.00000  0.00000  0.00000  0.00000  0.00000
2268 259364.000   4402960.6829    666808.1799   4550859.8405   6  12   0.1901   0.0516   0.2011   0.0643   0.0748   0.1712   0.00    0.0    0.01224   -0.00249    0.00351   0.00000  0.00000  0.00000  0.00000  0.00000  0.00000
2268 259365.000   4402960.6833    666808.1798   4550859.8409   6  12   0.1895   0.0514   0.2005   0.0641   0.0746   0.1707   0.00    0.0    0.01273   -0.00248    0.00370   0.00000  0.00000  0.00000  0.00000  0.00000  0.00000
2268 259366.000   4402960.6838    666808.1798   4550859.8412   6  12   0.1889   0.0513   0.1999   0.0639   0.0744   0.1702   0.00    0.0    0.01226   -0.00250    0.00393   0.00000  0.00000  0.00000  0.00000  0.00000  0.00000
2268 259367.000   4402960.6842    666808.1798   4550859.8416   6  12   0.1884   0.0511   0.1993   0.0637   0.0741   0.1697   0.00    0.0    0.01193   -0.00242    0.00373   0.00000  0.00000  0.00000  0.00000  0.00000  0.00000
2268 259368.000   4402960.6847    666808.1797   4550859.8421   6  12   0.1878   0.0509   0.1987   0.0636   0.0739   0.1692   0.00    0.0    0.01187   -0.00237    0.00391   0.00000  0.00000  0.00000  0.00000  0.00000  0.00000
2268 259369.000   4402960.6853    666808.1797   4550859.8426   6  12   0.1873   0.0508   0.1981   0.0634   0.0737   0.1687   0.00    0.0    0.01248   -0.00225    0.00347   0.00000  0.00000  0.00000  0.00000  0.00000  0.00000
2268 259370.000   4402960.6858    666808.1797   4550859.8432   6  12   0.1867   0.0506   0.1975   0.0632   0.0735   0.1682   0.00    0.0    0.01207   -0.00227    0.00369   0.00000  0.00000  0.00000  0.00000  0.00000  0.00000
2268 259371.000   4402960.6865    666808.1797   4550859.8437   6  12   0.1862   0.0505   0.1969   0.0630   0.0732   0.1677   0.00    0.0    0.01251   -0.00215    0.00389   0.00000  0.00000  0.00000  0.00000  0.00000  0.00000
2268 259372.000   4402960.6871    666808.1797   4550859.8444   6  12   0.1856   0.0504   0.1963   0.0628   0.0730   0.1672   0.00    0.0    0.01230   -0.00242    0.00376   0.00000  0.00000  0.00000  0.00000  0.00000  0.00000
2268 259373.000   4402960.6878    666808.1797   4550859.8450   6  12   0.1851   0.0502   0.1957   0.0626   0.0728   0.1667   0.00    0.0    0.01203   -0.00218    0.00364   0.00000  0.00000  0.00000  0.00000  0.00000  0.00000
2268 259374.000   4402960.6885    666808.1797   4550859.8457   6  12   0.1845   0.0501   0.1951   0.0624   0.0726   0.1662   0.00    0.0    0.01248   -0.00251    0.00379   0.00000  0.00000  0.00000  0.00000  0.00000  0.00000
2268 259375.000   4402960.6892    666808.1798   4550859.8465   6  12   0.1840   0.0499   0.1945   0.0623   0.0724   0.1657   0.00    0.0    0.01270   -0.00233    0.00372   0.00000  0.00000  0.00000  0.00000  0.00000  0.00000
2268 259376.000   4402960.6900    666808.1798   4550859.8473   6  12   0.1835   0.0498   0.1940   0.0621   0.0721   0.1652   0.00    0.0    0.01234   -0.00248    0.00355   0.00000  0.00000  0.00000  0.00000  0.00000  0.00000
2268 259377.000   4402960.6908    666808.1798   4550859.8481   6  12   0.1829   0.0496   0.1934   0.0619   0.0719   0.1647   0.00    0.0    0.01178   -0.00228    0.00371   0.00000  0.00000  0.00000  0.00000  0.00000  0.00000
2268 259378.000   4402960.6916    666808.1799   4550859.8490   6  12   0.1824   0.0495   0.1928   0.0617   0.0717   0.1642   0.00    0.0    0.01221   -0.00236    0.00380   0.00000  0.00000  0.00000  0.00000  0.00000  0.00000
2268 259379.000   4402960.6924    666808.1799   4550859.8498   6  12   0.1819   0.0494   0.1923   0.0615   0.0715   0.1638   0.00    0.0    0.01190   -0.00248    0.00365   0.00000  0.00000  0.00000  0.00000  0.00000  0.00000
2268 259380.000   4402960.6932    666808.1800   4550859.8507   6  12   0.1814   0.0492   0.1917   0.0614   0.0713   0.1633   0.00    0.0    0.01224   -0.00228    0.00335   0.00000  0.00000  0.00000  0.00000  0.00000  0.00000
2268 259381.000   4402960.6941    666808.1800   4550859.8517   6  12   0.1808   0.0491   0.1911   0.0612   0.0711   0.1628   0.00    0.0    0.01302   -0.00216    0.00396   0.00000  0.00000  0.00000  0.00000  0.00000  0.00000
2268 259382.000   4402960.6951    666808.1801   4550859.8527   6  12   0.1803   0.0489   0.1906   0.0610   0.0709   0.1624   0.00    0.0    0.01216   -0.00239    0.00379   0.00000  0.00000  0.00000  0.00000  0.00000  0.00000
2268 259383.000   4402960.6960    666808.1802   4550859.8538   6  12   0.1798   0.0488   0.1900   0.0608   0.0707   0.1619   0.00    0.0    0.01238   -0.00224    0.00373   0.00000  0.00000  0.00000  0.00000  0.00000  0.00000
2268 259384.000   4402960.6969    666808.1803   4550859.8548   6  12   0.1793   0.0487   0.1895   0.0607   0.0704   0.1614   0.00    0.0    0.01238   -0.00216    0.00353   0.00000  0.00000  0.00000  0.00000  0.00000  0.00000
2268 259385.000   4402960.6979    666808.1803   4550859.8559   6  12   0.1788   0.0485   0.1889   0.0605   0.0702   0.1610   0.00    0.0    0.01203   -0.00245    0.00384   0.00000  0.00000  0.00000  0.00000  0.00000  0.00000
2268 259386.000   4402960.6990    666808.1804   4550859.8571   6  12   0.1783   0.0484   0.1884   0.0603   0.0700   0.1605   0.00    0.0    0.01303   -0.00238    0.00408   0.00000  0.00000  0.00000  0.00000  0.00000  0.00000
2268 259387.000   4402960.7000    666808.1805   4550859.8582   6  12   0.1778   0.0483   0.1878   0.0601   0.0698   0.1600   0.00    0.0    0.01293   -0.00230    0.00443   0.00000  0.00000  0.00000  0.00000  0.00000  0.00000
2268 259388.000   4402960.7011    666808.1806   4550859.8595   6  12   0.1773   0.0481   0.1873   0.0600   0.0696   0.1596   0.00    0.0    0.01238   -0.00242    0.00381   0.00000  0.00000  0.00000  0.00000  0.00000  0.00000
2268 259389.000   4402960.7022    666808.1807   4550859.8607   6  12   0.1768   0.0480   0.1868   0.0598   0.0694   0.1591   0.00    0.0    0.01237   -0.00247    0.00387   0.00000  0.00000  0.00000  0.00000  0.00000  0.00000
2268 259390.000   4402960.7034    666808.1808   4550859.8620   6  12   0.1764   0.0479   0.1862   0.0596   0.0692   0.1587   0.00    0.0    0.01234   -0.00218    0.00404   0.00000  0.00000  0.00000  0.00000  0.00000  0.00000
2268 259391.000   4402960.7045    666808.1810   4550859.8633   6  12   0.1759   0.0477   0.1857   0.0595   0.0690   0.1582   0.00    0.0    0.01230   -0.00244    0.00409   0.00000  0.00000  0.00000  0.00000  0.00000  0.00000
2268 259392.000   4402960.7057    666808.1811   4550859.8647   6  12   0.1754   0.0476   0.1852   0.0593   0.0688   0.1578   0.00    0.0    0.01202   -0.00255    0.00367   0.00000  0.00000  0.00000  0.00000  0.00000  0.00000
2268 259393.000   4402960.7069    666808.1812   4550859.8660   6  12   0.1749   0.0475   0.1847   0.0591   0.0686   0.1573   0.00    0.0    0.01294   -0.00225    0.00439   0.00000  0.00000  0.00000  0.00000  0.00000  0.00000
2268 259394.000   4402960.7081    666808.1813   4550859.8674   6  12   0.1744   0.0474   0.1841   0.0589   0.0684   0.1569   0.00    0.0    0.01221   -0.00245    0.00409   0.00000  0.00000  0.00000  0.00000  0.00000  0.00000
2268 259395.000   4402960.7094    666808.1815   4550859.8689   6  12   0.1740   0.0472   0.1836   0.0588   0.0682   0.1565   0.00    0.0    0.01212   -0.00227    0.00393   0.00000  0.00000  0.00000  0.00000  0.00000  0.00000
2268 259396.000   4402960.7106    666808.1816   4550859.8703   6  12   0.1735   0.0471   0.1831   0.0586   0.0680   0.1560   0.00    0.0    0.01260   -0.00254    0.00392   0.00000  0.00000  0.00000  0.00000  0.00000  0.00000
2268 259397.000   4402960.7119    666808.1818   4550859.8718   6  12   0.1730   0.0470   0.1826   0.0584   0.0678   0.1556   0.00    0.0    0.01230   -0.00226    0.00367   0.00000  0.00000  0.00000  0.00000  0.00000  0.00000
2268 259398.000   4402960.7132    666808.1819   4550859.8733   6  12   0.1726   0.0469   0.1821   0.0583   0.0676   0.1552   0.00    0.0    0.01215   -0.00237    0.00419   0.00000  0.00000  0.00000  0.00000  0.00000  0.00000
2268 259399.000   4402960.7146    666808.1821   4550859.8749   6  12   0.1721   0.0467   0.1816   0.0581   0.0674   0.1547   0.00    0.0    0.01270   -0.00222    0.00409   0.00000  0.00000  0.00000  0.00000  0.00000  0.00000
2268 259400.000   4402960.7159    666808.1822   4550859.8764   6  12   0.1716   0.0466   0.1810   0.0580   0.0673   0.1543   0.00    0.0    0.01238   -0.00250    0.00402   0.00000  0.00000  0.00000  0.00000  0.00000  0.00000
2268 259401.000   4402960.7173    666808.1824   4550859.8780   6  12   0.1712   0.0465   0.1805   0.0578   0.0671   0.1539   0.00    0.0    0.01219   -0.00240    0.00389   0.00000  0.00000  0.00000  0.00000  0.00000  0.00000
2268 259402.000   4402960.7187    666808.1826   4550859.8797   6  12   0.1707   0.0464   0.1800   0.0576   0.0669   0.1535   0.00    0.0    0.01240   -0.00233    0.00422   0.00000  0.00000  0.00000  0.00000  0.00000  0.00000
2268 259403.000   4402960.7201    666808.1827   4550859.8813   6  12   0.1703   0.0463   0.1795   0.0575   0.0667   0.1530   0.00    0.0    0.01284   -0.00257    0.00418   0.00000  0.00000  0.00000  0.00000  0.00000  0.00000
2268 259404.000   4402960.7216    666808.1829   4550859.8830   6  12   0.1698   0.0461   0.1790   0.0573   0.0665   0.1526   0.00    0.0    0.01186   -0.00242    0.00366   0.00000  0.00000  0.00000  0.00000  0.00000  0.00000
2268 259405.000   4402960.7230    666808.1831   4550859.8847   6  12   0.1694   0.0460   0.1786   0.0572   0.0663   0.1522   0.00    0.0    0.01212   -0.00228    0.00361   0.00000  0.00000  0.00000  0.00000  0.00000  0.00000
2268 259406.000   4402960.7245    666808.1833   4550859.8865   6  12   0.1689   0.0459   0.1781   0.0570   0.0661   0.1518   0.00    0.0    0.01217   -0.00231    0.00403   0.00000  0.00000  0.00000  0.00000  0.00000  0.00000
2268 259407.000   4402960.7260    666808.1835   4550859.8882   6  12   0.1685   0.0458   0.1776   0.0568   0.0659   0.1514   0.00    0.0    0.01276   -0.00225    0.00443   0.00000  0.00000  0.00000  0.00000  0.00000  0.00000
2268 259408.000   4402960.7276    666808.1837   4550859.8900   6  12   0.1681   0.0457   0.1771   0.0567   0.0657   0.1509   0.00    0.0    0.01198   -0.00225    0.00401   0.00000  0.00000  0.00000  0.00000  0.00000  0.00000
2268 259409.000   4402960.7291    666808.1839   4550859.8918   6  12   0.1676   0.0456   0.1766   0.0565   0.0656   0.1505   0.00    0.0    0.01248   -0.00228    0.00450   0.00000  0.00000  0.00000  0.00000  0.00000  0.00000
2268 259410.000   4402960.7307    666808.1841   4550859.8937   6  12   0.1672   0.0455   0.1761   0.0564   0.0654   0.1501   0.00    0.0    0.01337   -0.00236    0.00416   0.00000  0.00000  0.00000  0.00000  0.00000  0.00000
2268 259411.000   4402960.7322    666808.1843   4550859.8955   6  12   0.1668   0.0453   0.1756   0.0562   0.0652   0.1497   0.00    0.0    0.01283   -0.00257    0.00405   0.00000  0.00000  0.00000  0.00000  0.00000  0.00000
2268 259412.000   4402960.7338    666808.1845   4550859.8974   6  12   0.1663   0.0452   0.1752   0.0561   0.0650   0.1493   0.00    0.0    0.01258   -0.00239    0.00409   0.00000  0.00000  0.00000  0.00000  0.00000  0.00000
2268 259413.000   4402960.7355    666808.1847   4550859.8993   6  12   0.1659   0.0451   0.1747   0.0559   0.0648   0.1489   0.00    0.0    0.01269   -0.00232    0.00367   0.00000  0.00000  0.00000  0.00000  0.00000  0.00000
2268 259414.000   4402960.7371    666808.1850   4550859.9013   6  12   0.1655   0.0450   0.1742   0.0557   0.0646   0.1485   0.00    0.0    0.01281   -0.00245    0.00429   0.00000  0.00000  0.00000  0.00000  0.00000  0.00000
2268 259415.000   4402960.7387    666808.1852   4550859.9032   6  12   0.1650   0.0449   0.1737   0.0556   0.0645   0.1481   0.00    0.0    0.01279   -0.00235    0.00436   0.00000  0.00000  0.00000  0.00000  0.00000  0.00000
2268 259416.000   4402960.7404    666808.1854   4550859.9051   6  12   0.1646   0.0448   0.1733   0.0554   0.0643   0.1477   0.00    0.0    0.01206   -0.00218    0.00426   0.00000  0.00000  0.00000  0.00000  0.00000  0.00000
2268 259417.000   4402960.7421    666808.1856   4550859.9071   6  12   0.1642   0.0447   0.1728   0.0553   0.0641   0.1473   0.00    0.0    0.01310   -0.00230    0.00478   0.00000  0.00000  0.00000  0.00000  0.00000  0.00000
2268 259418.000   4402960.7437    666808.1859   4550859.9091   6  12   0.1638   0.0446   0.1723   0.0551   0.0639   0.1469   0.00    0.0    0.01236   -0.00243    0.00409   0.00000  0.00000  0.00000  0.00000  0.00000  0.00000
2268 259419.000   4402960.7454    666808.1861   4550859.9111   6  12   0.1634   0.0445   0.1719   0.0550   0.0637   0.1465   0.00    0.0    0.01235   -0.00216    0.00378   0.00000  0.00000  0.00000  0.00000  0.00000  0.00000
2268 259420.000   4402960.7471    666808.1863   4550859.9132   6  12   0.1630   0.0444   0.1714   0.0548   0.0636   0.1461   0.00    0.0    0.01287   -0.00226    0.00405   0.00000  0.00000  0.00000  0.00000  0.00000  0.00000
2268 259421.000   4402960.7489    666808.1866   4550859.9153   6  12   0.1626   0.0442   0.1709   0.0547   0.0634   0.1457   0.00    0.0    0.01228   -0.00206    0.00421   0.00000  0.00000  0.00000  0.00000  0.00000  0.00000
2268 259422.000   4402960.7506    666808.1868   4550859.9174   6  12   0.1621   0.0441   0.1705   0.0545   0.0632   0.1454   0.00    0.0    0.01282   -0.00226    0.00469   0.00000  0.00000  0.00000  0.00000  0.00000  0.00000
2268 259423.000   4402960.7524    666808.1871   4550859.9195   6  12   0.1617   0.0440   0.1700   0.0544   0.0630   0.1450   0.00    0.0    0.01248   -0.00226    0.00416   0.00000  0.00000  0.00000  0.00000  0.00000  0.00000
2268 259424.000   4402960.7542    666808.1873   4550859.9216   6  12   0.1613   0.0439   0.1696   0.0542   0.0629   0.1446   0.00    0.0    0.01166   -0.00238    0.00397   0.00000  0.00000  0.00000  0.00000  0.00000  0.00000
2268 259425.000   4402960.7560    666808.1876   4550859.9238   6  12   0.1609   0.0438   0.1691   0.0541   0.0627   0.1442   0.00    0.0    0.01293   -0.00241    0.00455   0.00000  0.00000  0.00000  0.00000  0.00000  0.00000
2268 259426.000   4402960.7578    666808.1879   4550859.9259   6  12   0.1605   0.0437   0.1687   0.0540   0.0625   0.1438   0.00    0.0    0.01264   -0.00234    0.00427   0.00000  0.00000  0.00000  0.00000  0.00000  0.00000
2268 259427.000   4402960.7597    666808.1881   4550859.9282   6  12   0.1601   0.0436   0.1682   0.0538   0.0623   0.1434   0.00    0.0    0.01243   -0.00221    0.00432   0.00000  0.00000  0.00000  0.00000  0.00000  0.00000
2268 259428.000   4402960.7615    666808.1884   4550859.9304   6  12   0.1597   0.0435   0.1678   0.0537   0.0622   0.1431   0.00    0.0    0.01303   -0.00225    0.00433   0.00000  0.00000  0.00000  0.00000  0.00000  0.00000
2268 259429.000   4402960.7633    666808.1886   4550859.9326   6  12   0.1594   0.0434   0.1674   0.0535   0.0620   0.1427   0.00    0.0    0.01262   -0.00230    0.00420   0.00000  0.00000  0.00000  0.00000  0.00000  0.00000
2268 259430.000   4402960.7652    666808.1889   4550859.9348   6  12   0.1590   0.0433   0.1669   0.0534   0.0618   0.1423   0.00    0.0    0.01286   -0.00232    0.00446   0.00000  0.00000  0.00000  0.00000  0.00000  0.00000
2268 259431.000   4402960.7671    666808.1892   4550859.9371   6  12   0.1586   0.0432   0.1665   0.0532   0.0617   0.1419   0.00    0.0    0.01248   -0.00231    0.00437   0.00000  0.00000  0.00000  0.00000  0.00000  0.00000
2268 259432.000   4402960.7690    666808.1895   4550859.9394   6  12   0.1582   0.0431   0.1660   0.0531   0.0615   0.1416   0.00    0.0    0.01187   -0.00224    0.00396   0.00000  0.00000  0.00000  0.00000  0.00000  0.00000
2268 259433.000   4402960.7709    666808.1897   4550859.9417   6  12   0.1578   0.0430   0.1656   0.0529   0.0613   0.1412   0.00    0.0    0.01341   -0.00230    0.00446   0.00000  0.00000  0.00000  0.00000  0.00000  0.00000
2268 259434.000   4402960.7728    666808.1900   4550859.9440   6  12   0.1574   0.0429   0.1652   0.0528   0.0612   0.1408   0.00    0.0    0.01208   -0.00203    0.00420   0.00000  0.00000  0.00000  0.00000  0.00000  0.00000
2268 259435.000   4402960.7748    666808.1903   4550859.9463   6  12   0.1570   0.0428   0.1647   0.0527   0.0610   0.1405   0.00    0.0    0.01276   -0.00235    0.00476   0.00000  0.00000  0.00000  0.00000  0.00000  0.00000
2268 259436.000   4402960.7768    666808.1906   4550859.9487   6  12   0.1567   0.0427   0.1643   0.0525   0.0608   0.1401   0.00    0.0    0.01294   -0.00235    0.00416   0.00000  0.00000  0.00000  0.00000  0.00000  0.00000
2268 259437.000   4402960.7787    666808.1909   4550859.9510   6  12   0.1563   0.0426   0.1639   0.0524   0.0607   0.1397   0.00    0.0    0.01281   -0.00219    0.00422   0.00000  0.00000  0.00000  0.00000  0.00000  0.00000
2268 259438.000   4402960.7807    666808.1912   4550859.9534   6  12   0.1559   0.0425   0.1635   0.0522   0.0605   0.1394   0.00    0.0    0.01321   -0.00217    0.00433   0.00000  0.00000  0.00000  0.00000  0.00000  0.00000
2268 259439.000   4402960.7826    666808.1915   4550859.9558   6  12   0.1555   0.0424   0.1630   0.0521   0.0603   0.1390   0.00    0.0    0.01294   -0.00213    0.00430   0.00000  0.00000  0.00000  0.00000  0.00000  0.00000
2268 259440.000   4402960.7847    666808.1918   4550859.9582   6  12   0.1552   0.0423   0.1626   0.0520   0.0602   0.1387   0.00    0.0    0.01281   -0.00242    0.00458   0.00000  0.00000  0.00000  0.00000  0.00000  0.00000
2268 259441.000   4402960.7867    666808.1921   4550859.9606   6  12   0.1548   0.0422   0.1622   0.0518   0.0600   0.1383   0.00    0.0    0.01276   -0.00232    0.00410   0.00000  0.00000  0.00000  0.00000  0.00000  0.00000
2268 259442.000   4402960.7887    666808.1924   4550859.9631   6  12   0.1544   0.0421   0.1618   0.0517   0.0599   0.1380   0.00    0.0    0.01287   -0.00227    0.00438   0.00000  0.00000  0.00000  0.00000  0.00000  0.00000
2268 259443.000   4402960.7907    666808.1927   4550859.9655   6  12   0.1541   0.0420   0.1614   0.0516   0.0597   0.1376   0.00    0.0    0.01243   -0.00222    0.00414   0.00000  0.00000  0.00000  0.00000  0.00000  0.00000
2268 259444.000   4402960.7928    666808.1930   4550859.9680   6  12   0.1537   0.0419   0.1610   0.0514   0.0595   0.1373   0.00    0.0    0.01243   -0.00207    0.00432   0.00000  0.00000  0.00000  0.00000  0.00000  0.00000
2268 259445.000   4402960.7948    666808.1933   4550859.9705   6  12   0.1533   0.0419   0.1606   0.0513   0.0594   0.1369   0.00    0.0    0.01338   -0.00235    0.00461   0.00000  0.00000  0.00000  0.00000  0.00000  0.00000
2268 259446.000   4402960.7969    666808.1936   4550859.9729   6  12   0.1530   0.0418   0.1601   0.0511   0.0592   0.1366   0.00    0.0    0.01282   -0.00219    0.00413   0.00000  0.00000  0.00000  0.00000  0.00000  0.00000
2268 259447.000   4402960.7989    666808.1939   4550859.9754   6  12   0.1526   0.0417   0.1597   0.0510   0.0591   0.1362   0.00    0.0    0.01339   -0.00216    0.00472   0.00000  0.00000  0.00000  0.00000  0.00000  0.00000
2268 259448.000   4402960.8010    666808.1942   4550859.9780   6  12   0.1523   0.0416   0.1593   0.0509   0.0589   0.1359   0.00    0.0    0.01242   -0.00211    0.00416   0.00000  0.00000  0.00000  0.00000  0.00000  0.00000
2268 259449.000   4402960.8031    666808.1945   4550859.9805   6  12   0.1519   0.0415   0.1589   0.0507   0.0587   0.1355   0.00    0.0    0.01244   -0.00233    0.00429   0.00000  0.00000  0.00000  0.00000  0.00000  0.00000
2268 259450.000   4402960.8052    666808.1949   4550859.9830   6  12   0.1515   0.0414   0.1585   0.0506   0.0586   0.1352   0.00    0.0    0.01221   -0.00209    0.00473   0.00000  0.00000  0.00000  0.00000  0.00000  0.00000
2268 259451.000   4402960.8073    666808.1952   4550859.9856   6  12   0.1512   0.0413   0.1581   0.0505   0.0584   0.1348   0.00    0.0    0.01239   -0.00233    0.00409   0.00000  0.00000  0.00000  0.00000  0.00000  0.00000
2268 259452.000   4402960.8094    666808.1955   4550859.9881   6  12   0.1508   0.0412   0.1577   0.0504   0.0583   0.1345   0.00    0.0    0.01303   -0.00223    0.00444   0.00000  0.00000  0.00000  0.00000  0.00000  0.00000
2268 259453.000   4402960.8116    666808.1958   4550859.9907   6  12   0.1505   0.0411   0.1573   0.0502   0.0581   0.1342   0.00    0.0    0.01381   -0.00222    0.00536   0.00000  0.00000  0.00000  0.00000  0.00000  0.00000
2268 259454.000   4402960.8137    666808.1961   4550859.9933   6  12   0.1501   0.0410   0.1569   0.0501   0.0580   0.1338   0.00    0.0    0.01262   -0.00230    0.00442   0.00000  0.00000  0.00000  0.00000  0.00000  0.00000
2268 259455.000   4402960.8158    666808.1965   4550859.9959   6  12   0.1498   0.0409   0.1565   0.0500   0.0578   0.1335   0.00    0.0    0.01375   -0.00229    0.00478   0.00000  0.00000  0.00000  0.00000  0.00000  0.00000
2268 259456.000   4402960.8179    666808.1968   4550859.9984   6  12   0.1495   0.0409   0.1561   0.0498   0.0577   0.1331   0.00    0.0    0.01272   -0.00224    0.00477   0.00000  0.00000  0.00000  0.00000  0.00000  0.00000
2268 259457.000   4402960.8201    666808.1971   4550860.0011   6  12   0.1491   0.0408   0.1557   0.0497   0.0575   0.1328   0.00    0.0    0.01348   -0.00234    0.00457   0.00000  0.00000  0.00000  0.00000  0.00000  0.00000
2268 259458.000   4402960.8223    666808.1975   4550860.0037   6  12   0.1488   0.0407   0.1554   0.0496   0.0574   0.1325   0.00    0.0    0.01258   -0.00253    0.00459   0.00000  0.00000  0.00000  0.00000  0.00000  0.00000
2268 259459.000   4402960.8244    666808.1978   4550860.0063   6  12   0.1484   0.0406   0.1550   0.0494   0.0572   0.1322   0.00    0.0    0.01291   -0.00233    0.00473   0.00000  0.00000  0.00000  0.00000  0.00000  0.00000
2268 259460.000   4402960.8266    666808.1981   4550860.0090   6  12   0.1481   0.0405   0.1546   0.0493   0.0571   0.1318   0.00    0.0    0.01305   -0.00203    0.00497   0.00000  0.00000  0.00000  0.00000  0.00000  0.00000
2268 259461.000   4402960.8288    666808.1985   4550860.0116   6  12   0.1478   0.0404   0.1542   0.0492   0.0569   0.1315   0.00    0.0    0.01366   -0.00199    0.00464   0.00000  0.00000  0.00000  0.00000  0.00000  0.00000
2268 259462.000   4402960.8310    666808.1988   4550860.0143   6  12   0.1474   0.0403   0.1538   0.0491   0.0568   0.1312   0.00    0.0    0.01321   -0.00205    0.00486   0.00000  0.00000  0.00000  0.00000  0.00000  0.00000
2268 259463.000   4402960.8332    666808.1991   4550860.0169   6  12   0.1471   0.0403   0.1534   0.0489   0.0566   0.1308   0.00    0.0    0.01310   -0.00214    0.00490   0.00000  0.00000  0.00000  0.00000  0.00000  0.00000
2268 259464.000   4402960.8354    666808.1995   4550860.0196   6  12   0.1468   0.0402   0.1531   0.0488   0.0565   0.1305   0.00    0.0    0.01290   -0.00208    0.00484   0.00000  0.00000  0.00000  0.00000  0.00000  0.00000
