% program   : GINav v0.1.0
% obs start : 2023/06/28 00:00:20.0
% obs end   : 2023/06/28 02:00:01.0
% mode      : PPP Kinematic
% system    : GALILEO 
% nfreqs    : 2
% elev mask : 10.0 deg
% ephemeris : broadcast
% ionos opt : estimation
% trops opt : ZTD estimation
%
%  GPST              x-ecef(m)      y-ecef(m)      z-ecef(m)   Q  ns   sdx(m)   sdy(m)   sdz(m)  sdxy(m)  sdyz(m)  sdzx(m) age(s)  ratio    vx(m/s)    vy(m/s)    vz(m/s)      sdvx     sdvy     sdvz    sdvxy    sdvyz    sdvzx
2268 259220.000   4402948.0563    666834.0054   4550854.4863   6  10   1.7085   0.6080   1.2453   0.2684   0.2872   0.9735   0.00    0.0    0.02229    0.01794    0.00891   0.00000  0.00000  0.00000  0.00000  0.00000  0.00000
2268 259221.000   4402947.9526    666833.9299   4550854.7043   6  10   1.2413   0.4357   0.9366   0.2208   0.2381   0.7449   0.00    0.0   -0.00979   -0.01406    0.01001   0.00000  0.00000  0.00000  0.00000  0.00000  0.00000
2268 259222.000   4402947.9538    666833.9164   4550854.7523   6  10   1.0444   0.3608   0.8170   0.2066   0.2239   0.6604   0.00    0.0    0.02403   -0.01274    0.03272   0.00000  0.00000  0.00000  0.00000  0.00000  0.00000
2268 259223.000   4402947.9606    666833.9692   4550854.8977   6  10   0.9300   0.3164   0.7502   0.1991   0.2164   0.6141   0.00    0.0    0.02451    0.02334   -0.01899   0.00000  0.00000  0.00000  0.00000  0.00000  0.00000
2268 259224.000   4402948.0875    666834.0164   4550855.0059   6  10   0.8520   0.2860   0.7044   0.1933   0.2104   0.5819   0.00    0.0    0.01439   -0.01048   -0.00135   0.00000  0.00000  0.00000  0.00000  0.00000  0.00000
2268 259225.000   4402948.3566    666834.3448   4550855.1234   6  12   0.7834   0.2553   0.6649   0.1817   0.2050   0.5484   0.00    0.0    0.04049   -0.01285   -0.00739   0.00000  0.00000  0.00000  0.00000  0.00000  0.00000
2268 259226.000   4402948.5916    666834.5482   4550855.3026   6  12   0.7313   0.2334   0.6331   0.1734   0.1995   0.5220   0.00    0.0    0.00404   -0.00958   -0.01715   0.00000  0.00000  0.00000  0.00000  0.00000  0.00000
2268 259227.000   4402948.7399    666834.6784   4550855.4043   6  12   0.6894   0.2167   0.6063   0.1668   0.1941   0.5000   0.00    0.0   -0.00316   -0.01574    0.00228   0.00000  0.00000  0.00000  0.00000  0.00000  0.00000
2268 259228.000   4402949.0214    666834.7889   4550855.5471   6  12   0.6547   0.2034   0.5831   0.1613   0.1891   0.4811   0.00    0.0   -0.01799    0.00685   -0.01582   0.00000  0.00000  0.00000  0.00000  0.00000  0.00000
2268 259229.000   4402950.1849    666834.6906   4550855.9532   6   5   0.6401   0.2048   0.5935   0.1656   0.1959   0.4707   0.00    0.0    0.02248   -0.00624   -0.02103   0.00000  0.00000  0.00000  0.00000  0.00000  0.00000
2268 259230.000   4402950.7591    666834.5346   4550855.5573   6   5   0.6259   0.2062   0.6114   0.1677   0.2058   0.4585   0.00    0.0    0.09888   -0.02068    0.02130   0.00000  0.00000  0.00000  0.00000  0.00000  0.00000
2268 259232.000   4402951.1418    666834.2125   4550853.2047   6   6   0.6088   0.2052   0.5827   0.1679   0.2055   0.4553   0.00    0.0    0.01615    0.00083    0.01267   0.00000  0.00000  0.00000  0.00000  0.00000  0.00000
2268 259233.000   4402951.3089    666834.0814   4550852.5531   6  12   0.5873   0.1940   0.5580   0.1629   0.1976   0.4441   0.00    0.0   -0.00331   -0.00924   -0.01125   0.00000  0.00000  0.00000  0.00000  0.00000  0.00000
2268 259234.000   4402951.3472    666834.0629   4550852.1838   6  12   0.5681   0.1846   0.5394   0.1585   0.1913   0.4335   0.00    0.0   -0.09127   -0.00258   -0.02536   0.00000  0.00000  0.00000  0.00000  0.00000  0.00000
2268 259235.000   4402951.2948    666834.0924   4550852.0477   6  12   0.5505   0.1763   0.5236   0.1544   0.1855   0.4235   0.00    0.0   -0.04531   -0.01605   -0.01828   0.00000  0.00000  0.00000  0.00000  0.00000  0.00000
2268 259236.000   4402951.2112    666834.1134   4550852.0279   6  12   0.5344   0.1689   0.5096   0.1507   0.1803   0.4141   0.00    0.0   -0.01240   -0.02227   -0.03498   0.00000  0.00000  0.00000  0.00000  0.00000  0.00000
2268 259237.000   4402951.1341    666834.1396   4550852.0704   6  12   0.5195   0.1624   0.4970   0.1472   0.1756   0.4053   0.00    0.0   -0.07497   -0.00340   -0.02022   0.00000  0.00000  0.00000  0.00000  0.00000  0.00000
2268 259238.000   4402951.0420    666834.1707   4550852.1364   6  12   0.5058   0.1566   0.4856   0.1440   0.1714   0.3970   0.00    0.0   -0.00354   -0.01307   -0.03208   0.00000  0.00000  0.00000  0.00000  0.00000  0.00000
2268 259241.000   4402951.0025    666834.1939   4550852.2139   6  12   0.4932   0.1514   0.4750   0.1410   0.1676   0.3892   0.00    0.0   -0.01953    0.01125   -0.00298   0.00000  0.00000  0.00000  0.00000  0.00000  0.00000
2268 259242.000   4402950.9590    666834.2171   4550852.3191   6  12   0.4815   0.1468   0.4652   0.1382   0.1641   0.3819   0.00    0.0    0.05502   -0.00419   -0.00545   0.00000  0.00000  0.00000  0.00000  0.00000  0.00000
2268 259243.000   4402950.9277    666834.2433   4550852.4347   6  12   0.4707   0.1426   0.4562   0.1357   0.1610   0.3751   0.00    0.0    0.01981    0.00004   -0.01014   0.00000  0.00000  0.00000  0.00000  0.00000  0.00000
2268 259244.000   4402950.9761    666834.2656   4550852.6209   6  12   0.4607   0.1388   0.4478   0.1333   0.1580   0.3687   0.00    0.0   -0.05206    0.01384   -0.02821   0.00000  0.00000  0.00000  0.00000  0.00000  0.00000
2268 259245.000   4402951.0505    666834.2773   4550852.8122   6  12   0.4513   0.1353   0.4399   0.1311   0.1554   0.3628   0.00    0.0   -0.02438    0.00165   -0.02013   0.00000  0.00000  0.00000  0.00000  0.00000  0.00000
2268 259246.000   4402951.0596    666834.2856   4550852.9241   6  12   0.4426   0.1321   0.4325   0.1291   0.1528   0.3571   0.00    0.0    0.01833   -0.00882   -0.01069   0.00000  0.00000  0.00000  0.00000  0.00000  0.00000
2268 259247.000   4402951.1106    666834.2993   4550853.0930   6  12   0.4345   0.1291   0.4256   0.1272   0.1505   0.3518   0.00    0.0    0.02356   -0.01575    0.02628   0.00000  0.00000  0.00000  0.00000  0.00000  0.00000
2268 259248.000   4402951.1462    666834.3088   4550853.2400   6  12   0.4268   0.1264   0.4191   0.1254   0.1483   0.3467   0.00    0.0    0.01441   -0.00542    0.00955   0.00000  0.00000  0.00000  0.00000  0.00000  0.00000
2268 259249.000   4402951.1617    666834.3248   4550853.3694   6  12   0.4196   0.1238   0.4129   0.1237   0.1463   0.3420   0.00    0.0   -0.00530    0.01504   -0.00566   0.00000  0.00000  0.00000  0.00000  0.00000  0.00000
2268 259250.000   4402951.1610    666834.3482   4550853.4948   6  12   0.4128   0.1215   0.4071   0.1221   0.1443   0.3375   0.00    0.0    0.06530   -0.00133    0.08161   0.00000  0.00000  0.00000  0.00000  0.00000  0.00000
2268 259251.000   4402951.1598    666834.3756   4550853.6013   6  12   0.4064   0.1192   0.4016   0.1206   0.1425   0.3332   0.00    0.0    0.01178    0.00874    0.02039   0.00000  0.00000  0.00000  0.00000  0.00000  0.00000
2268 259252.000   4402951.1707    666834.4015   4550853.7329   6  12   0.4003   0.1171   0.3964   0.1191   0.1408   0.3291   0.00    0.0    0.03915   -0.01290    0.05438   0.00000  0.00000  0.00000  0.00000  0.00000  0.00000
2268 259253.000   4402951.1965    666834.4362   4550853.8477   6  12   0.3946   0.1151   0.3914   0.1178   0.1391   0.3252   0.00    0.0   -0.03026   -0.00779   -0.01133   0.00000  0.00000  0.00000  0.00000  0.00000  0.00000
2268 259254.000   4402951.2455    666834.4721   4550853.9835   6  12   0.3891   0.1133   0.3867   0.1165   0.1376   0.3215   0.00    0.0    0.06118   -0.00526    0.05210   0.00000  0.00000  0.00000  0.00000  0.00000  0.00000
2268 259255.000   4402951.2874    666834.5046   4550854.1070   6  12   0.3839   0.1115   0.3821   0.1153   0.1361   0.3179   0.00    0.0    0.08524    0.02938    0.03147   0.00000  0.00000  0.00000  0.00000  0.00000  0.00000
2268 259256.000   4402951.3438    666834.5334   4550854.2267   6  12   0.3789   0.1098   0.3778   0.1141   0.1347   0.3145   0.00    0.0    0.02599    0.00675   -0.01204   0.00000  0.00000  0.00000  0.00000  0.00000  0.00000
2268 259257.000   4402951.4112    666834.5565   4550854.3547   6  12   0.3742   0.1082   0.3737   0.1130   0.1334   0.3113   0.00    0.0   -0.01794   -0.01066   -0.01621   0.00000  0.00000  0.00000  0.00000  0.00000  0.00000
2268 259258.000   4402951.4719    666834.5846   4550854.4903   6  12   0.3696   0.1067   0.3697   0.1119   0.1321   0.3082   0.00    0.0   -0.00313    0.00054    0.00056   0.00000  0.00000  0.00000  0.00000  0.00000  0.00000
2268 259261.000   4402951.5532    666834.6010   4550854.6297   6  12   0.3652   0.1053   0.3659   0.1109   0.1308   0.3051   0.00    0.0   -0.13480   -0.01855   -0.05252   0.00000  0.00000  0.00000  0.00000  0.00000  0.00000
2268 259262.000   4402951.6361    666834.6174   4550854.7508   6  12   0.3610   0.1039   0.3622   0.1099   0.1296   0.3022   0.00    0.0   -0.02332    0.00960   -0.01324   0.00000  0.00000  0.00000  0.00000  0.00000  0.00000
2268 259263.000   4402951.7319    666834.6340   4550854.8809   6  12   0.3570   0.1026   0.3587   0.1090   0.1285   0.2994   0.00    0.0    0.07468    0.00690    0.04778   0.00000  0.00000  0.00000  0.00000  0.00000  0.00000
2268 259264.000   4402951.8210    666834.6521   4550855.0128   6  12   0.3531   0.1013   0.3553   0.1081   0.1274   0.2967   0.00    0.0    0.03736   -0.00611    0.01678   0.00000  0.00000  0.00000  0.00000  0.00000  0.00000
2268 259265.000   4402951.8894    666834.6714   4550855.1370   6  12   0.3494   0.1001   0.3520   0.1072   0.1263   0.2941   0.00    0.0    0.00832    0.02642    0.00119   0.00000  0.00000  0.00000  0.00000  0.00000  0.00000
2268 259266.000   4402951.9386    666834.6877   4550855.2447   6  12   0.3458   0.0989   0.3488   0.1063   0.1253   0.2916   0.00    0.0    0.01821    0.00691    0.07158   0.00000  0.00000  0.00000  0.00000  0.00000  0.00000
2268 259267.000   4402951.9832    666834.7066   4550855.3647   6  12   0.3424   0.0978   0.3458   0.1055   0.1243   0.2892   0.00    0.0    0.02576    0.00940    0.03428   0.00000  0.00000  0.00000  0.00000  0.00000  0.00000
2268 259268.000   4402952.0340    666834.7232   4550855.4780   6  12   0.3390   0.0967   0.3428   0.1047   0.1234   0.2869   0.00    0.0    0.02054    0.01043   -0.02606   0.00000  0.00000  0.00000  0.00000  0.00000  0.00000
2268 259269.000   4402952.0782    666834.7402   4550855.5905   6  12   0.3358   0.0957   0.3400   0.1040   0.1224   0.2846   0.00    0.0    0.00284   -0.00463   -0.00698   0.00000  0.00000  0.00000  0.00000  0.00000  0.00000
2268 259270.000   4402952.1314    666834.7560   4550855.7011   6  12   0.3327   0.0947   0.3372   0.1032   0.1215   0.2824   0.00    0.0    0.03125    0.01207    0.03548   0.00000  0.00000  0.00000  0.00000  0.00000  0.00000
2268 259271.000   4402952.2212    666834.7755   4550855.8248   6  12   0.3297   0.0937   0.3345   0.1025   0.1207   0.2803   0.00    0.0    0.01954   -0.01949    0.01370   0.00000  0.00000  0.00000  0.00000  0.00000  0.00000
2268 259272.000   4402952.3165    666834.7885   4550855.9426   6  12   0.3268   0.0928   0.3319   0.1018   0.1198   0.2782   0.00    0.0   -0.04133    0.00277   -0.03768   0.00000  0.00000  0.00000  0.00000  0.00000  0.00000
2268 259273.000   4402952.3812    666834.8010   4550856.0365   6  12   0.3239   0.0919   0.3294   0.1012   0.1190   0.2762   0.00    0.0    0.01407    0.00805    0.03216   0.00000  0.00000  0.00000  0.00000  0.00000  0.00000
2268 259274.000   4402952.4267    666834.8126   4550856.1101   6  12   0.3212   0.0910   0.3270   0.1005   0.1182   0.2742   0.00    0.0    0.01083    0.01800    0.00957   0.00000  0.00000  0.00000  0.00000  0.00000  0.00000
2268 259275.000   4402952.4988    666834.8212   4550856.2077   6  12   0.3185   0.0902   0.3246   0.0999   0.1175   0.2723   0.00    0.0    0.04376    0.00091   -0.01688   0.00000  0.00000  0.00000  0.00000  0.00000  0.00000
2268 259276.000   4402952.5707    666834.8348   4550856.3030   6  12   0.3159   0.0894   0.3223   0.0993   0.1167   0.2704   0.00    0.0   -0.00155    0.00426    0.00617   0.00000  0.00000  0.00000  0.00000  0.00000  0.00000
2268 259277.000   4402952.6162    666834.8509   4550856.3619   6  12   0.3134   0.0886   0.3200   0.0987   0.1160   0.2686   0.00    0.0   -0.00533    0.00335   -0.03558   0.00000  0.00000  0.00000  0.00000  0.00000  0.00000
2268 259278.000   4402952.6527    666834.8684   4550856.4097   6  12   0.3109   0.0878   0.3178   0.0981   0.1153   0.2669   0.00    0.0    0.00062   -0.00918    0.01338   0.00000  0.00000  0.00000  0.00000  0.00000  0.00000
2268 259279.000   4402952.6804    666834.8846   4550856.4595   6  12   0.3086   0.0870   0.3157   0.0975   0.1146   0.2652   0.00    0.0    0.08264   -0.00740    0.00331   0.00000  0.00000  0.00000  0.00000  0.00000  0.00000
2268 259280.000   4402952.7306    666834.8980   4550856.5252   6  12   0.3062   0.0863   0.3136   0.0969   0.1139   0.2635   0.00    0.0   -0.03650    0.00951    0.01287   0.00000  0.00000  0.00000  0.00000  0.00000  0.00000
2268 259281.000   4402952.7935    666834.9125   4550856.6156   6  12   0.3040   0.0856   0.3115   0.0964   0.1133   0.2618   0.00    0.0   -0.00034    0.00736   -0.01539   0.00000  0.00000  0.00000  0.00000  0.00000  0.00000
2268 259282.000   4402952.8561    666834.9252   4550856.6974   6  12   0.3018   0.0849   0.3096   0.0959   0.1126   0.2602   0.00    0.0    0.07012   -0.00356   -0.01421   0.00000  0.00000  0.00000  0.00000  0.00000  0.00000
2268 259283.000   4402952.9078    666834.9395   4550856.7608   6  12   0.2996   0.0843   0.3076   0.0953   0.1120   0.2587   0.00    0.0    0.03495   -0.01949    0.01644   0.00000  0.00000  0.00000  0.00000  0.00000  0.00000
2268 259284.000   4402952.9669    666834.9542   4550856.8341   6  12   0.2975   0.0836   0.3057   0.0948   0.1113   0.2571   0.00    0.0   -0.03128   -0.00516    0.01806   0.00000  0.00000  0.00000  0.00000  0.00000  0.00000
2268 259285.000   4402953.0104    666834.9630   4550856.8887   6  12   0.2955   0.0830   0.3038   0.0943   0.1107   0.2556   0.00    0.0    0.01650   -0.00151    0.00011   0.00000  0.00000  0.00000  0.00000  0.00000  0.00000
2268 259286.000   4402953.0586    666834.9686   4550856.9541   6  12   0.2935   0.0823   0.3020   0.0938   0.1101   0.2542   0.00    0.0    0.03604   -0.01881    0.03596   0.00000  0.00000  0.00000  0.00000  0.00000  0.00000
2268 259287.000   4402953.0978    666834.9757   4550856.9969   6  12   0.2915   0.0817   0.3002   0.0933   0.1096   0.2527   0.00    0.0   -0.05579   -0.02814   -0.00009   0.00000  0.00000  0.00000  0.00000  0.00000  0.00000
2268 259288.000   4402953.1450    666834.9863   4550857.0516   6  12   0.2896   0.0811   0.2985   0.0929   0.1090   0.2513   0.00    0.0    0.04402    0.02888    0.01861   0.00000  0.00000  0.00000  0.00000  0.00000  0.00000
2268 259289.000   4402953.1995    666834.9952   4550857.1176   6  12   0.2877   0.0806   0.2968   0.0924   0.1084   0.2499   0.00    0.0   -0.02941    0.00464   -0.00129   0.00000  0.00000  0.00000  0.00000  0.00000  0.00000
2268 259290.000   4402953.2684    666835.0054   4550857.1912   6  12   0.2859   0.0800   0.2951   0.0919   0.1079   0.2486   0.00    0.0   -0.02727    0.01626    0.01540   0.00000  0.00000  0.00000  0.00000  0.00000  0.00000
2268 259291.000   4402953.3339    666835.0141   4550857.2691   6  12   0.2841   0.0794   0.2934   0.0915   0.1073   0.2473   0.00    0.0    0.02180    0.01375    0.02539   0.00000  0.00000  0.00000  0.00000  0.00000  0.00000
2268 259293.000   4402953.3780    666835.0236   4550857.3149   6  12   0.2823   0.0789   0.2918   0.0911   0.1068   0.2459   0.00    0.0   -0.03121    0.00278    0.01716   0.00000  0.00000  0.00000  0.00000  0.00000  0.00000
2268 259294.000   4402953.4221    666835.0347   4550857.3565   6  12   0.2806   0.0784   0.2902   0.0906   0.1063   0.2446   0.00    0.0   -0.01145    0.01757   -0.00934   0.00000  0.00000  0.00000  0.00000  0.00000  0.00000
2268 259295.000   4402953.4701    666835.0419   4550857.4030   6  12   0.2789   0.0779   0.2887   0.0902   0.1057   0.2434   0.00    0.0    0.02764    0.00255   -0.02702   0.00000  0.00000  0.00000  0.00000  0.00000  0.00000
2268 259296.000   4402953.5167    666835.0451   4550857.4571   6  12   0.2772   0.0774   0.2871   0.0898   0.1052   0.2421   0.00    0.0    0.02345    0.01499    0.00956   0.00000  0.00000  0.00000  0.00000  0.00000  0.00000
2268 259298.000   4402953.5566    666835.0517   4550857.5092   6  12   0.2756   0.0769   0.2856   0.0894   0.1047   0.2409   0.00    0.0    0.01088    0.00015    0.02117   0.00000  0.00000  0.00000  0.00000  0.00000  0.00000
2268 259299.000   4402953.6038    666835.0585   4550857.5700   6  12   0.2740   0.0764   0.2841   0.0889   0.1042   0.2397   0.00    0.0   -0.07046   -0.01271    0.01598   0.00000  0.00000  0.00000  0.00000  0.00000  0.00000
2268 259300.000   4402953.6606    666835.0665   4550857.6431   6  12   0.2724   0.0759   0.2826   0.0885   0.1037   0.2385   0.00    0.0    0.04881    0.00397   -0.00488   0.00000  0.00000  0.00000  0.00000  0.00000  0.00000
2268 259301.000   4402953.7009    666835.0754   4550857.7029   6  12   0.2709   0.0754   0.2812   0.0881   0.1032   0.2373   0.00    0.0    0.03458    0.00008    0.01647   0.00000  0.00000  0.00000  0.00000  0.00000  0.00000
2268 259305.000   4402953.7364    666835.0854   4550857.7527   6  12   0.2693   0.0750   0.2797   0.0877   0.1028   0.2362   0.00    0.0    0.02804    0.00525    0.00958   0.00000  0.00000  0.00000  0.00000  0.00000  0.00000
2268 259306.000   4402953.7782    666835.0918   4550857.8052   6  12   0.2678   0.0745   0.2783   0.0873   0.1023   0.2350   0.00    0.0    0.00031    0.00585    0.00050   0.00000  0.00000  0.00000  0.00000  0.00000  0.00000
2268 259307.000   4402953.8147    666835.0958   4550857.8458   6  12   0.2664   0.0741   0.2769   0.0869   0.1018   0.2339   0.00    0.0    0.04166    0.01610    0.00197   0.00000  0.00000  0.00000  0.00000  0.00000  0.00000
2268 259308.000   4402953.8395    666835.1016   4550857.8814   6  12   0.2649   0.0736   0.2755   0.0866   0.1013   0.2327   0.00    0.0    0.02844   -0.00866   -0.02537   0.00000  0.00000  0.00000  0.00000  0.00000  0.00000
2268 259309.000   4402953.8610    666835.1084   4550857.9153   6  12   0.2635   0.0732   0.2742   0.0862   0.1009   0.2316   0.00    0.0    0.03594   -0.00232    0.01781   0.00000  0.00000  0.00000  0.00000  0.00000  0.00000
2268 259310.000   4402953.8827    666835.1126   4550857.9381   6  12   0.2621   0.0728   0.2729   0.0858   0.1004   0.2306   0.00    0.0   -0.02717    0.00933   -0.05897   0.00000  0.00000  0.00000  0.00000  0.00000  0.00000
2268 259311.000   4402953.9048    666835.1192   4550857.9660   6  12   0.2607   0.0724   0.2715   0.0854   0.1000   0.2295   0.00    0.0    0.01153   -0.00154   -0.00835   0.00000  0.00000  0.00000  0.00000  0.00000  0.00000
2268 259312.000   4402953.9391    666835.1288   4550858.0108   6  12   0.2594   0.0720   0.2703   0.0851   0.0995   0.2284   0.00    0.0   -0.04750   -0.00178   -0.01469   0.00000  0.00000  0.00000  0.00000  0.00000  0.00000
2268 259313.000   4402953.9854    666835.1364   4550858.0608   6  12   0.2580   0.0716   0.2690   0.0847   0.0991   0.2274   0.00    0.0   -0.00475    0.00075    0.01196   0.00000  0.00000  0.00000  0.00000  0.00000  0.00000
2268 259314.000   4402954.0282    666835.1436   4550858.1080   6  12   0.2567   0.0712   0.2677   0.0844   0.0987   0.2264   0.00    0.0   -0.03978   -0.00978   -0.01832   0.00000  0.00000  0.00000  0.00000  0.00000  0.00000
2268 259315.000   4402954.0719    666835.1546   4550858.1533   6  12   0.2554   0.0708   0.2665   0.0840   0.0982   0.2254   0.00    0.0    0.01700    0.01174    0.02577   0.00000  0.00000  0.00000  0.00000  0.00000  0.00000
2268 259316.000   4402954.1103    666835.1658   4550858.1975   6  12   0.2542   0.0704   0.2653   0.0837   0.0978   0.2244   0.00    0.0   -0.00917    0.00565   -0.00976   0.00000  0.00000  0.00000  0.00000  0.00000  0.00000
2268 259317.000   4402954.1557    666835.1757   4550858.2476   6  12   0.2529   0.0700   0.2641   0.0833   0.0974   0.2234   0.00    0.0    0.04137    0.00519    0.00819   0.00000  0.00000  0.00000  0.00000  0.00000  0.00000
2268 259319.000   4402954.1886    666835.1845   4550858.2842   6  12   0.2517   0.0697   0.2629   0.0830   0.0970   0.2224   0.00    0.0    0.04085   -0.02106   -0.00666   0.00000  0.00000  0.00000  0.00000  0.00000  0.00000
2268 259320.000   4402954.2236    666835.1927   4550858.3322   6  12   0.2505   0.0693   0.2617   0.0827   0.0966   0.2214   0.00    0.0    0.00970   -0.00227    0.01728   0.00000  0.00000  0.00000  0.00000  0.00000  0.00000
2268 259321.000   4402954.2631    666835.1995   4550858.3780   6  12   0.2493   0.0689   0.2605   0.0823   0.0962   0.2205   0.00    0.0    0.00669    0.00812   -0.01073   0.00000  0.00000  0.00000  0.00000  0.00000  0.00000
2268 259322.000   4402954.3114    666835.2043   4550858.4212   6  12   0.2481   0.0686   0.2594   0.0820   0.0958   0.2195   0.00    0.0   -0.00849   -0.00132   -0.02610   0.00000  0.00000  0.00000  0.00000  0.00000  0.00000
2268 259323.000   4402954.3547    666835.2108   4550858.4622   6  12   0.2469   0.0683   0.2583   0.0817   0.0954   0.2186   0.00    0.0    0.06018    0.03474    0.01390   0.00000  0.00000  0.00000  0.00000  0.00000  0.00000
2268 259324.000   4402954.3820    666835.2174   4550858.4952   6  12   0.2458   0.0679   0.2571   0.0813   0.0950   0.2177   0.00    0.0    0.05408    0.00719   -0.00010   0.00000  0.00000  0.00000  0.00000  0.00000  0.00000
2268 259325.000   4402954.4095    666835.2244   4550858.5345   6  12   0.2446   0.0676   0.2560   0.0810   0.0946   0.2168   0.00    0.0    0.04353    0.00353   -0.01638   0.00000  0.00000  0.00000  0.00000  0.00000  0.00000
2268 259326.000   4402954.4316    666835.2327   4550858.5664   6  12   0.2435   0.0673   0.2549   0.0807   0.0942   0.2159   0.00    0.0    0.08007    0.00333    0.01335   0.00000  0.00000  0.00000  0.00000  0.00000  0.00000
2268 259327.000   4402954.4557    666835.2388   4550858.5976   6  12   0.2424   0.0669   0.2539   0.0804   0.0939   0.2150   0.00    0.0    0.00589   -0.01473   -0.03789   0.00000  0.00000  0.00000  0.00000  0.00000  0.00000
2268 259328.000   4402954.4736    666835.2430   4550858.6203   6  12   0.2413   0.0666   0.2528   0.0801   0.0935   0.2141   0.00    0.0    0.09883   -0.01223    0.02480   0.00000  0.00000  0.00000  0.00000  0.00000  0.00000
2268 259329.000   4402954.5026    666835.2476   4550858.6458   6  12   0.2402   0.0663   0.2517   0.0798   0.0931   0.2133   0.00    0.0    0.01116    0.01614    0.01043   0.00000  0.00000  0.00000  0.00000  0.00000  0.00000
2268 259330.000   4402954.5209    666835.2507   4550858.6623   6  12   0.2392   0.0660   0.2507   0.0795   0.0928   0.2124   0.00    0.0   -0.04507   -0.00083   -0.05504   0.00000  0.00000  0.00000  0.00000  0.00000  0.00000
2268 259332.000   4402954.5382    666835.2516   4550858.6837   6  12   0.2381   0.0657   0.2497   0.0792   0.0924   0.2116   0.00    0.0   -0.01566    0.01609   -0.01102   0.00000  0.00000  0.00000  0.00000  0.00000  0.00000
2268 259333.000   4402954.5541    666835.2570   4550858.7067   6  12   0.2371   0.0654   0.2486   0.0789   0.0920   0.2107   0.00    0.0    0.03251    0.01496    0.06719   0.00000  0.00000  0.00000  0.00000  0.00000  0.00000
2268 259334.000   4402954.5826    666835.2641   4550858.7389   6  12   0.2361   0.0651   0.2476   0.0786   0.0917   0.2099   0.00    0.0   -0.09092    0.01186   -0.02570   0.00000  0.00000  0.00000  0.00000  0.00000  0.00000
2268 259335.000   4402954.6121    666835.2677   4550858.7725   6  12   0.2351   0.0648   0.2466   0.0783   0.0913   0.2091   0.00    0.0   -0.02591    0.00077   -0.01521   0.00000  0.00000  0.00000  0.00000  0.00000  0.00000
2268 259336.000   4402954.6452    666835.2726   4550858.8136   6  12   0.2341   0.0645   0.2456   0.0780   0.0910   0.2083   0.00    0.0    0.01432   -0.00766   -0.01577   0.00000  0.00000  0.00000  0.00000  0.00000  0.00000
2268 259337.000   4402954.6754    666835.2787   4550858.8558   6  12   0.2331   0.0642   0.2447   0.0777   0.0906   0.2075   0.00    0.0    0.01010   -0.01099    0.04568   0.00000  0.00000  0.00000  0.00000  0.00000  0.00000
2268 259339.000   4402954.7044    666835.2862   4550858.8867   6  12   0.2321   0.0639   0.2437   0.0774   0.0903   0.2066   0.00    0.0    0.04314   -0.00931    0.03122   0.00000  0.00000  0.00000  0.00000  0.00000  0.00000
2268 259340.000   4402954.7269    666835.2934   4550858.9124   6  12   0.2311   0.0636   0.2427   0.0772   0.0900   0.2058   0.00    0.0   -0.06405    0.00173   -0.04922   0.00000  0.00000  0.00000  0.00000  0.00000  0.00000
2268 259341.000   4402954.7410    666835.2986   4550858.9372   6  12   0.2302   0.0634   0.2418   0.0769   0.0896   0.2051   0.00    0.0   -0.03263    0.00389    0.02585   0.00000  0.00000  0.00000  0.00000  0.00000  0.00000
2268 259342.000   4402954.7591    666835.3051   4550858.9611   6  12   0.2292   0.0631   0.2408   0.0766   0.0893   0.2043   0.00    0.0   -0.01701    0.00186    0.00765   0.00000  0.00000  0.00000  0.00000  0.00000  0.00000
2268 259343.000   4402954.7769    666835.3116   4550858.9854   6  12   0.2283   0.0628   0.2399   0.0763   0.0889   0.2035   0.00    0.0   -0.02350   -0.00216    0.01831   0.00000  0.00000  0.00000  0.00000  0.00000  0.00000
2268 259344.000   4402954.7947    666835.3162   4550859.0054   6  12   0.2274   0.0625   0.2390   0.0760   0.0886   0.2027   0.00    0.0   -0.05043    0.00615   -0.01079   0.00000  0.00000  0.00000  0.00000  0.00000  0.00000
2268 259345.000   4402954.8052    666835.3186   4550859.0182   6  12   0.2265   0.0623   0.2380   0.0758   0.0883   0.2020   0.00    0.0   -0.02047   -0.00516    0.03240   0.00000  0.00000  0.00000  0.00000  0.00000  0.00000
2268 259346.000   4402954.8161    666835.3238   4550859.0287   6  12   0.2256   0.0620   0.2371   0.0755   0.0880   0.2012   0.00    0.0   -0.02946    0.00448   -0.03303   0.00000  0.00000  0.00000  0.00000  0.00000  0.00000
2268 259347.000   4402954.8391    666835.3277   4550859.0526   6  12   0.2247   0.0618   0.2362   0.0752   0.0876   0.2005   0.00    0.0    0.01234    0.01551   -0.01964   0.00000  0.00000  0.00000  0.00000  0.00000  0.00000
2268 259348.000   4402954.8680    666835.3339   4550859.0865   6  12   0.2238   0.0615   0.2354   0.0750   0.0873   0.1998   0.00    0.0   -0.06025   -0.01226   -0.02641   0.00000  0.00000  0.00000  0.00000  0.00000  0.00000
2268 259349.000   4402954.9074    666835.3398   4550859.1351   6  12   0.2229   0.0613   0.2345   0.0747   0.0870   0.1990   0.00    0.0    0.05415   -0.00675    0.02388   0.00000  0.00000  0.00000  0.00000  0.00000  0.00000
2268 259350.000   4402954.9458    666835.3457   4550859.1778   6  12   0.2220   0.0610   0.2336   0.0744   0.0867   0.1983   0.00    0.0    0.00711   -0.00299   -0.01106   0.00000  0.00000  0.00000  0.00000  0.00000  0.00000
2268 259352.000   4402954.9791    666835.3499   4550859.2106   6  12   0.2212   0.0608   0.2327   0.0742   0.0864   0.1976   0.00    0.0   -0.06274   -0.01298   -0.03894   0.00000  0.00000  0.00000  0.00000  0.00000  0.00000
2268 259353.000   4402955.0037    666835.3545   4550859.2372   6  12   0.2203   0.0605   0.2319   0.0739   0.0861   0.1969   0.00    0.0   -0.00310    0.00109   -0.00511   0.00000  0.00000  0.00000  0.00000  0.00000  0.00000
2268 259354.000   4402955.0180    666835.3555   4550859.2569   6  12   0.2195   0.0603   0.2310   0.0737   0.0858   0.1962   0.00    0.0    0.04783   -0.01943    0.00282   0.00000  0.00000  0.00000  0.00000  0.00000  0.00000
2268 259355.000   4402955.0332    666835.3580   4550859.2740   6  12   0.2187   0.0600   0.2302   0.0734   0.0855   0.1955   0.00    0.0   -0.00368    0.02186   -0.05169   0.00000  0.00000  0.00000  0.00000  0.00000  0.00000
2268 259356.000   4402955.0558    666835.3627   4550859.2943   6  12   0.2178   0.0598   0.2293   0.0732   0.0852   0.1948   0.00    0.0    0.05307   -0.01264    0.00069   0.00000  0.00000  0.00000  0.00000  0.00000  0.00000
2268 259357.000   4402955.0743    666835.3666   4550859.3112   6  12   0.2170   0.0596   0.2285   0.0729   0.0849   0.1941   0.00    0.0   -0.02003    0.00406   -0.02458   0.00000  0.00000  0.00000  0.00000  0.00000  0.00000
2268 259358.000   4402955.0878    666835.3700   4550859.3207   6  12   0.2162   0.0593   0.2277   0.0727   0.0846   0.1934   0.00    0.0   -0.04202    0.00183    0.01167   0.00000  0.00000  0.00000  0.00000  0.00000  0.00000
2268 259360.000   4402955.0963    666835.3741   4550859.3287   6  12   0.2154   0.0591   0.2268   0.0724   0.0843   0.1927   0.00    0.0    0.04481   -0.00014    0.02713   0.00000  0.00000  0.00000  0.00000  0.00000  0.00000
2268 259361.000   4402955.1131    666835.3791   4550859.3475   6  12   0.2146   0.0589   0.2260   0.0722   0.0840   0.1920   0.00    0.0    0.01226    0.00026   -0.01415   0.00000  0.00000  0.00000  0.00000  0.00000  0.00000
2268 259362.000   4402955.1393    666835.3842   4550859.3727   6  12   0.2138   0.0587   0.2252   0.0719   0.0837   0.1914   0.00    0.0   -0.02082    0.01431   -0.03360   0.00000  0.00000  0.00000  0.00000  0.00000  0.00000
2268 259363.000   4402955.1713    666835.3878   4550859.4013   6  12   0.2131   0.0585   0.2244   0.0717   0.0834   0.1907   0.00    0.0    0.01013   -0.01728   -0.00325   0.00000  0.00000  0.00000  0.00000  0.00000  0.00000
2268 259364.000   4402955.1991    666835.3919   4550859.4311   6  12   0.2123   0.0582   0.2236   0.0714   0.0831   0.1900   0.00    0.0   -0.02303   -0.00565   -0.03324   0.00000  0.00000  0.00000  0.00000  0.00000  0.00000
2268 259365.000   4402955.2243    666835.3954   4550859.4584   6  12   0.2115   0.0580   0.2228   0.0712   0.0828   0.1894   0.00    0.0   -0.07013   -0.00683   -0.02728   0.00000  0.00000  0.00000  0.00000  0.00000  0.00000
2268 259366.000   4402955.2476    666835.3979   4550859.4850   6  12   0.2108   0.0578   0.2221   0.0710   0.0825   0.1887   0.00    0.0   -0.04757   -0.01162    0.02724   0.00000  0.00000  0.00000  0.00000  0.00000  0.00000
2268 259367.000   4402955.2726    666835.4011   4550859.5092   6  12   0.2100   0.0576   0.2213   0.0707   0.0822   0.1881   0.00    0.0    0.07947    0.00819    0.00031   0.00000  0.00000  0.00000  0.00000  0.00000  0.00000
2268 259368.000   4402955.2996    666835.4058   4550859.5348   6  12   0.2093   0.0574   0.2205   0.0705   0.0820   0.1874   0.00    0.0   -0.01420    0.00130   -0.00811   0.00000  0.00000  0.00000  0.00000  0.00000  0.00000
2268 259369.000   4402955.3307    666835.4080   4550859.5623   6  12   0.2085   0.0572   0.2197   0.0703   0.0817   0.1868   0.00    0.0    0.01813    0.00034    0.02552   0.00000  0.00000  0.00000  0.00000  0.00000  0.00000
2268 259370.000   4402955.3504    666835.4114   4550859.5863   6  12   0.2078   0.0570   0.2190   0.0700   0.0814   0.1862   0.00    0.0   -0.07793   -0.02274   -0.01578   0.00000  0.00000  0.00000  0.00000  0.00000  0.00000
2268 259371.000   4402955.3653    666835.4155   4550859.6011   6  12   0.2071   0.0568   0.2182   0.0698   0.0811   0.1855   0.00    0.0   -0.02658    0.00777    0.02554   0.00000  0.00000  0.00000  0.00000  0.00000  0.00000
2268 259372.000   4402955.3708    666835.4188   4550859.6097   6  12   0.2064   0.0566   0.2175   0.0696   0.0809   0.1849   0.00    0.0   -0.10613   -0.01377   -0.06260   0.00000  0.00000  0.00000  0.00000  0.00000  0.00000
2268 259373.000   4402955.3881    666835.4227   4550859.6291   6  12   0.2057   0.0564   0.2168   0.0693   0.0806   0.1843   0.00    0.0    0.05015    0.01232    0.00671   0.00000  0.00000  0.00000  0.00000  0.00000  0.00000
2268 259374.000   4402955.4089    666835.4269   4550859.6543   6  12   0.2050   0.0562   0.2160   0.0691   0.0803   0.1837   0.00    0.0    0.06431   -0.00815   -0.00310   0.00000  0.00000  0.00000  0.00000  0.00000  0.00000
2268 259375.000   4402955.4325    666835.4302   4550859.6815   6  12   0.2043   0.0560   0.2153   0.0689   0.0801   0.1831   0.00    0.0   -0.00592   -0.01859    0.00292   0.00000  0.00000  0.00000  0.00000  0.00000  0.00000
2268 259376.000   4402955.4532    666835.4326   4550859.7029   6  12   0.2036   0.0558   0.2146   0.0687   0.0798   0.1825   0.00    0.0    0.04923   -0.00330    0.02391   0.00000  0.00000  0.00000  0.00000  0.00000  0.00000
2268 259377.000   4402955.4783    666835.4359   4550859.7247   6  12   0.2029   0.0556   0.2139   0.0684   0.0795   0.1819   0.00    0.0    0.01136   -0.00426    0.00830   0.00000  0.00000  0.00000  0.00000  0.00000  0.00000
2268 259378.000   4402955.4977    666835.4391   4550859.7481   6  12   0.2022   0.0554   0.2132   0.0682   0.0793   0.1813   0.00    0.0   -0.05349   -0.01359   -0.07500   0.00000  0.00000  0.00000  0.00000  0.00000  0.00000
2268 259379.000   4402955.5166    666835.4413   4550859.7700   6  12   0.2015   0.0552   0.2124   0.0680   0.0790   0.1807   0.00    0.0    0.01928   -0.01247   -0.00185   0.00000  0.00000  0.00000  0.00000  0.00000  0.00000
2268 259380.000   4402955.5362    666835.4445   4550859.7904   6  12   0.2009   0.0550   0.2117   0.0678   0.0788   0.1801   0.00    0.0   -0.00512    0.00298   -0.01046   0.00000  0.00000  0.00000  0.00000  0.00000  0.00000
2268 259381.000   4402955.5561    666835.4487   4550859.8131   6  12   0.2002   0.0548   0.2111   0.0676   0.0785   0.1795   0.00    0.0    0.01663   -0.00558   -0.00190   0.00000  0.00000  0.00000  0.00000  0.00000  0.00000
2268 259382.000   4402955.5748    666835.4537   4550859.8391   6  12   0.1995   0.0547   0.2104   0.0674   0.0782   0.1790   0.00    0.0    0.00167    0.00294    0.01266   0.00000  0.00000  0.00000  0.00000  0.00000  0.00000
2268 259383.000   4402955.5861    666835.4587   4550859.8570   6  12   0.1989   0.0545   0.2097   0.0672   0.0780   0.1784   0.00    0.0   -0.00072    0.02135   -0.01421   0.00000  0.00000  0.00000  0.00000  0.00000  0.00000
2268 259384.000   4402955.5987    666835.4631   4550859.8696   6  12   0.1983   0.0543   0.2090   0.0669   0.0777   0.1778   0.00    0.0   -0.00837    0.00800    0.05858   0.00000  0.00000  0.00000  0.00000  0.00000  0.00000
2268 259385.000   4402955.6219    666835.4680   4550859.8900   6  12   0.1976   0.0541   0.2083   0.0667   0.0775   0.1773   0.00    0.0   -0.02084    0.00364   -0.02241   0.00000  0.00000  0.00000  0.00000  0.00000  0.00000
2268 259386.000   4402955.6386    666835.4726   4550859.9078   6  12   0.1970   0.0539   0.2077   0.0665   0.0772   0.1767   0.00    0.0   -0.00524   -0.01108   -0.03985   0.00000  0.00000  0.00000  0.00000  0.00000  0.00000
2268 259387.000   4402955.6552    666835.4763   4550859.9252   6  12   0.1963   0.0538   0.2070   0.0663   0.0770   0.1761   0.00    0.0   -0.05833   -0.01962   -0.00826   0.00000  0.00000  0.00000  0.00000  0.00000  0.00000
2268 259388.000   4402955.6718    666835.4782   4550859.9436   6  12   0.1957   0.0536   0.2063   0.0661   0.0768   0.1756   0.00    0.0    0.01161    0.01971    0.00095   0.00000  0.00000  0.00000  0.00000  0.00000  0.00000
2268 259389.000   4402955.6862    666835.4816   4550859.9613   6  12   0.1951   0.0534   0.2057   0.0659   0.0765   0.1750   0.00    0.0    0.05906   -0.00351   -0.00595   0.00000  0.00000  0.00000  0.00000  0.00000  0.00000
2268 259390.000   4402955.7007    666835.4845   4550859.9766   6  12   0.1945   0.0532   0.2050   0.0657   0.0763   0.1745   0.00    0.0    0.01434   -0.00918    0.01538   0.00000  0.00000  0.00000  0.00000  0.00000  0.00000
2268 259391.000   4402955.7147    666835.4866   4550859.9904   6  12   0.1939   0.0531   0.2044   0.0655   0.0760   0.1740   0.00    0.0    0.00156   -0.00876   -0.00021   0.00000  0.00000  0.00000  0.00000  0.00000  0.00000
2268 259392.000   4402955.7218    666835.4870   4550859.9986   6  12   0.1933   0.0529   0.2037   0.0653   0.0758   0.1734   0.00    0.0   -0.01058    0.00899    0.00938   0.00000  0.00000  0.00000  0.00000  0.00000  0.00000
2268 259393.000   4402955.7321    666835.4878   4550860.0097   6  12   0.1927   0.0527   0.2031   0.0651   0.0756   0.1729   0.00    0.0    0.01122   -0.00318   -0.00168   0.00000  0.00000  0.00000  0.00000  0.00000  0.00000
2268 259394.000   4402955.7403    666835.4900   4550860.0210   6  12   0.1921   0.0526   0.2025   0.0649   0.0753   0.1723   0.00    0.0    0.10526   -0.01110    0.05149   0.00000  0.00000  0.00000  0.00000  0.00000  0.00000
2268 259395.000   4402955.7542    666835.4918   4550860.0329   6  12   0.1915   0.0524   0.2018   0.0647   0.0751   0.1718   0.00    0.0   -0.01669   -0.00731   -0.01762   0.00000  0.00000  0.00000  0.00000  0.00000  0.00000
2268 259396.000   4402955.7748    666835.4942   4550860.0490   6  12   0.1909   0.0523   0.2012   0.0645   0.0749   0.1713   0.00    0.0    0.03036   -0.01347   -0.02031   0.00000  0.00000  0.00000  0.00000  0.00000  0.00000
2268 259397.000   4402955.7942    666835.4958   4550860.0663   6  12   0.1903   0.0521   0.2006   0.0643   0.0746   0.1708   0.00    0.0    0.03188    0.00104    0.01022   0.00000  0.00000  0.00000  0.00000  0.00000  0.00000
2268 259398.000   4402955.8132    666835.4967   4550860.0863   6  12   0.1897   0.0519   0.2000   0.0641   0.0744   0.1702   0.00    0.0   -0.00110   -0.02492   -0.03672   0.00000  0.00000  0.00000  0.00000  0.00000  0.00000
2268 259399.000   4402955.8284    666835.4982   4550860.1012   6  12   0.1891   0.0518   0.1993   0.0639   0.0742   0.1697   0.00    0.0    0.04523   -0.02851    0.01068   0.00000  0.00000  0.00000  0.00000  0.00000  0.00000
2268 259400.000   4402955.8475    666835.5006   4550860.1205   6  12   0.1886   0.0516   0.1987   0.0637   0.0739   0.1692   0.00    0.0    0.03175    0.00106    0.02808   0.00000  0.00000  0.00000  0.00000  0.00000  0.00000
2268 259401.000   4402955.8663    666835.5038   4550860.1359   6  12   0.1880   0.0515   0.1981   0.0635   0.0737   0.1687   0.00    0.0   -0.02289    0.02245    0.02460   0.00000  0.00000  0.00000  0.00000  0.00000  0.00000
2268 259402.000   4402955.8809    666835.5065   4550860.1482   6  12   0.1874   0.0513   0.1975   0.0634   0.0735   0.1682   0.00    0.0    0.06178   -0.00878    0.05428   0.00000  0.00000  0.00000  0.00000  0.00000  0.00000
2268 259403.000   4402955.8926    666835.5091   4550860.1594   6  12   0.1869   0.0512   0.1969   0.0632   0.0733   0.1677   0.00    0.0   -0.09170   -0.02486   -0.04358   0.00000  0.00000  0.00000  0.00000  0.00000  0.00000
2268 259404.000   4402955.9019    666835.5112   4550860.1726   6  12   0.1863   0.0510   0.1963   0.0630   0.0730   0.1672   0.00    0.0   -0.00970    0.00319    0.01603   0.00000  0.00000  0.00000  0.00000  0.00000  0.00000
2268 259405.000   4402955.9162    666835.5143   4550860.1928   6  12   0.1858   0.0508   0.1957   0.0628   0.0728   0.1667   0.00    0.0    0.01565    0.01078   -0.00004   0.00000  0.00000  0.00000  0.00000  0.00000  0.00000
2268 259406.000   4402955.9278    666835.5171   4550860.2061   6  12   0.1852   0.0507   0.1952   0.0626   0.0726   0.1662   0.00    0.0   -0.10749   -0.02861   -0.00505   0.00000  0.00000  0.00000  0.00000  0.00000  0.00000
2268 259409.000   4402955.9417    666835.5200   4550860.2206   6  12   0.1847   0.0505   0.1946   0.0624   0.0724   0.1657   0.00    0.0   -0.01635    0.01227   -0.00990   0.00000  0.00000  0.00000  0.00000  0.00000  0.00000
2268 259410.000   4402955.9526    666835.5231   4550860.2323   6  12   0.1841   0.0504   0.1940   0.0622   0.0722   0.1652   0.00    0.0   -0.07339    0.00480   -0.04267   0.00000  0.00000  0.00000  0.00000  0.00000  0.00000
2268 259411.000   4402955.9660    666835.5252   4550860.2527   6  12   0.1836   0.0503   0.1934   0.0620   0.0719   0.1647   0.00    0.0    0.01705    0.00811    0.01027   0.00000  0.00000  0.00000  0.00000  0.00000  0.00000
2268 259412.000   4402955.9853    666835.5269   4550860.2737   6  12   0.1830   0.0501   0.1928   0.0619   0.0717   0.1642   0.00    0.0    0.04078    0.00455    0.01612   0.00000  0.00000  0.00000  0.00000  0.00000  0.00000
2268 259413.000   4402956.0039    666835.5278   4550860.2916   6  12   0.1825   0.0500   0.1922   0.0617   0.0715   0.1637   0.00    0.0   -0.05369   -0.00144   -0.01321   0.00000  0.00000  0.00000  0.00000  0.00000  0.00000
2268 259414.000   4402956.0167    666835.5302   4550860.3031   6  12   0.1820   0.0498   0.1916   0.0615   0.0713   0.1632   0.00    0.0   -0.00113    0.02707    0.01494   0.00000  0.00000  0.00000  0.00000  0.00000  0.00000
2268 259415.000   4402956.0303    666835.5337   4550860.3182   6  12   0.1814   0.0497   0.1911   0.0613   0.0711   0.1628   0.00    0.0   -0.06237    0.00130   -0.03619   0.00000  0.00000  0.00000  0.00000  0.00000  0.00000
2268 259416.000   4402956.0441    666835.5359   4550860.3286   6  12   0.1809   0.0495   0.1905   0.0611   0.0708   0.1623   0.00    0.0   -0.01855    0.01507    0.00436   0.00000  0.00000  0.00000  0.00000  0.00000  0.00000
2268 259417.000   4402956.0663    666835.5384   4550860.3466   6  12   0.1804   0.0494   0.1899   0.0609   0.0706   0.1618   0.00    0.0    0.00696    0.00368   -0.02032   0.00000  0.00000  0.00000  0.00000  0.00000  0.00000
2268 259418.000   4402956.0887    666835.5414   4550860.3669   6  12   0.1799   0.0492   0.1894   0.0608   0.0704   0.1613   0.00    0.0    0.03627    0.00003    0.01900   0.00000  0.00000  0.00000  0.00000  0.00000  0.00000
2268 259419.000   4402956.1062    666835.5438   4550860.3815   6  12   0.1794   0.0491   0.1888   0.0606   0.0702   0.1609   0.00    0.0    0.07551    0.01864    0.01506   0.00000  0.00000  0.00000  0.00000  0.00000  0.00000
2268 259420.000   4402956.1251    666835.5453   4550860.4032   6  12   0.1788   0.0490   0.1882   0.0604   0.0700   0.1604   0.00    0.0   -0.00469    0.01575    0.02971   0.00000  0.00000  0.00000  0.00000  0.00000  0.00000
2268 259421.000   4402956.1411    666835.5461   4550860.4262   6  12   0.1783   0.0488   0.1877   0.0602   0.0698   0.1599   0.00    0.0    0.06962    0.00467    0.00523   0.00000  0.00000  0.00000  0.00000  0.00000  0.00000
2268 259422.000   4402956.1581    666835.5480   4550860.4500   6  12   0.1778   0.0487   0.1871   0.0601   0.0696   0.1595   0.00    0.0   -0.00516   -0.01364   -0.01885   0.00000  0.00000  0.00000  0.00000  0.00000  0.00000
2268 259423.000   4402956.1676    666835.5505   4550860.4681   6  12   0.1773   0.0486   0.1866   0.0599   0.0694   0.1590   0.00    0.0   -0.06808   -0.01155   -0.00416   0.00000  0.00000  0.00000  0.00000  0.00000  0.00000
2268 259424.000   4402956.1723    666835.5535   4550860.4803   6  12   0.1768   0.0484   0.1860   0.0597   0.0692   0.1585   0.00    0.0    0.00003   -0.01091   -0.01901   0.00000  0.00000  0.00000  0.00000  0.00000  0.00000
2268 259425.000   4402956.1716    666835.5566   4550860.4864   6  12   0.1763   0.0483   0.1855   0.0595   0.0690   0.1581   0.00    0.0    0.02451    0.02357    0.01026   0.00000  0.00000  0.00000  0.00000  0.00000  0.00000
2268 259426.000   4402956.1800    666835.5592   4550860.4952   6  12   0.1759   0.0482   0.1850   0.0594   0.0688   0.1576   0.00    0.0    0.02253    0.00434    0.01252   0.00000  0.00000  0.00000  0.00000  0.00000  0.00000
2268 259427.000   4402956.1958    666835.5614   4550860.5104   6  12   0.1754   0.0480   0.1844   0.0592   0.0686   0.1572   0.00    0.0    0.00815    0.01440    0.01148   0.00000  0.00000  0.00000  0.00000  0.00000  0.00000
2268 259428.000   4402956.2133    666835.5637   4550860.5280   6  12   0.1749   0.0479   0.1839   0.0590   0.0684   0.1567   0.00    0.0    0.05777    0.00045    0.02585   0.00000  0.00000  0.00000  0.00000  0.00000  0.00000
2268 259429.000   4402956.2269    666835.5666   4550860.5399   6  12   0.1744   0.0478   0.1834   0.0588   0.0682   0.1563   0.00    0.0    0.03671   -0.01478    0.01473   0.00000  0.00000  0.00000  0.00000  0.00000  0.00000
2268 259430.000   4402956.2403    666835.5679   4550860.5532   6  12   0.1739   0.0476   0.1829   0.0587   0.0680   0.1558   0.00    0.0   -0.02457   -0.00264   -0.05778   0.00000  0.00000  0.00000  0.00000  0.00000  0.00000
2268 259433.000   4402956.2500    666835.5703   4550860.5633   6  12   0.1734   0.0475   0.1823   0.0585   0.0678   0.1554   0.00    0.0    0.01756   -0.00321   -0.01077   0.00000  0.00000  0.00000  0.00000  0.00000  0.00000
2268 259434.000   4402956.2591    666835.5719   4550860.5733   6  12   0.1730   0.0474   0.1818   0.0583   0.0676   0.1549   0.00    0.0    0.04510    0.01698   -0.01645   0.00000  0.00000  0.00000  0.00000  0.00000  0.00000
2268 259435.000   4402956.2691    666835.5744   4550860.5843   6  12   0.1725   0.0473   0.1813   0.0582   0.0674   0.1545   0.00    0.0   -0.04349   -0.01082   -0.01855   0.00000  0.00000  0.00000  0.00000  0.00000  0.00000
2268 259436.000   4402956.2749    666835.5768   4550860.5917   6  12   0.1720   0.0471   0.1807   0.0580   0.0672   0.1541   0.00    0.0   -0.01211    0.00850    0.00271   0.00000  0.00000  0.00000  0.00000  0.00000  0.00000
2268 259437.000   4402956.2862    666835.5791   4550860.6004   6  12   0.1715   0.0470   0.1802   0.0578   0.0670   0.1536   0.00    0.0    0.08306   -0.01139    0.05002   0.00000  0.00000  0.00000  0.00000  0.00000  0.00000
2268 259438.000   4402956.2928    666835.5815   4550860.6089   6  12   0.1711   0.0469   0.1797   0.0577   0.0668   0.1532   0.00    0.0   -0.00553   -0.00994   -0.02042   0.00000  0.00000  0.00000  0.00000  0.00000  0.00000
2268 259439.000   4402956.3004    666835.5825   4550860.6165   6  12   0.1706   0.0468   0.1792   0.0575   0.0666   0.1527   0.00    0.0    0.09420    0.00347    0.05792   0.00000  0.00000  0.00000  0.00000  0.00000  0.00000
2268 259440.000   4402956.3090    666835.5837   4550860.6256   6  12   0.1701   0.0466   0.1787   0.0573   0.0664   0.1523   0.00    0.0   -0.07313    0.00776   -0.02977   0.00000  0.00000  0.00000  0.00000  0.00000  0.00000
2268 259441.000   4402956.3259    666835.5854   4550860.6424   6  12   0.1697   0.0465   0.1782   0.0572   0.0662   0.1519   0.00    0.0   -0.01746   -0.00291    0.01160   0.00000  0.00000  0.00000  0.00000  0.00000  0.00000
2268 259442.000   4402956.3395    666835.5875   4550860.6567   6  12   0.1692   0.0464   0.1777   0.0570   0.0660   0.1515   0.00    0.0    0.00146   -0.00503    0.01927   0.00000  0.00000  0.00000  0.00000  0.00000  0.00000
2268 259443.000   4402956.3459    666835.5888   4550860.6689   6  12   0.1688   0.0463   0.1772   0.0568   0.0658   0.1510   0.00    0.0    0.06162    0.00343    0.06434   0.00000  0.00000  0.00000  0.00000  0.00000  0.00000
2268 259444.000   4402956.3574    666835.5910   4550860.6849   6  12   0.1683   0.0462   0.1767   0.0567   0.0656   0.1506   0.00    0.0    0.06238    0.01906    0.02195   0.00000  0.00000  0.00000  0.00000  0.00000  0.00000
2268 259445.000   4402956.3639    666835.5918   4550860.6975   6  12   0.1679   0.0460   0.1762   0.0565   0.0654   0.1502   0.00    0.0   -0.00785    0.01994   -0.03372   0.00000  0.00000  0.00000  0.00000  0.00000  0.00000
2268 259446.000   4402956.3692    666835.5931   4550860.7068   6  12   0.1674   0.0459   0.1757   0.0564   0.0652   0.1498   0.00    0.0   -0.06628   -0.00669   -0.01487   0.00000  0.00000  0.00000  0.00000  0.00000  0.00000
2268 259448.000   4402956.3743    666835.5952   4550860.7139   6  12   0.1670   0.0458   0.1752   0.0562   0.0650   0.1493   0.00    0.0    0.04413    0.02179    0.02783   0.00000  0.00000  0.00000  0.00000  0.00000  0.00000
2268 259449.000   4402956.3785    666835.5967   4550860.7199   6  12   0.1666   0.0457   0.1747   0.0560   0.0648   0.1489   0.00    0.0    0.01174   -0.00265    0.00093   0.00000  0.00000  0.00000  0.00000  0.00000  0.00000
2268 259450.000   4402956.3860    666835.5978   4550860.7305   6  12   0.1661   0.0456   0.1742   0.0559   0.0646   0.1485   0.00    0.0   -0.03588   -0.00859   -0.00263   0.00000  0.00000  0.00000  0.00000  0.00000  0.00000
2268 259451.000   4402956.3980    666835.5993   4550860.7417   6  12   0.1657   0.0455   0.1737   0.0557   0.0645   0.1481   0.00    0.0   -0.04176    0.02442   -0.02440   0.00000  0.00000  0.00000  0.00000  0.00000  0.00000
2268 259452.000   4402956.4087    666835.5996   4550860.7530   6  12   0.1652   0.0453   0.1732   0.0556   0.0643   0.1477   0.00    0.0   -0.00179   -0.00735   -0.01450   0.00000  0.00000  0.00000  0.00000  0.00000  0.00000
2268 259453.000   4402956.4197    666835.6001   4550860.7628   6  12   0.1648   0.0452   0.1727   0.0554   0.0641   0.1473   0.00    0.0   -0.02044   -0.02705   -0.00002   0.00000  0.00000  0.00000  0.00000  0.00000  0.00000
2268 259454.000   4402956.4325    666835.5996   4550860.7741   6  12   0.1644   0.0451   0.1723   0.0552   0.0639   0.1469   0.00    0.0    0.06462    0.00382    0.02584   0.00000  0.00000  0.00000  0.00000  0.00000  0.00000
2268 259455.000   4402956.4389    666835.6008   4550860.7809   6  12   0.1640   0.0450   0.1718   0.0551   0.0637   0.1465   0.00    0.0   -0.02183    0.00242    0.01548   0.00000  0.00000  0.00000  0.00000  0.00000  0.00000
2268 259456.000   4402956.4475    666835.6026   4550860.7906   6  12   0.1635   0.0449   0.1713   0.0549   0.0635   0.1461   0.00    0.0    0.01547   -0.01268    0.03337   0.00000  0.00000  0.00000  0.00000  0.00000  0.00000
2268 259457.000   4402956.4564    666835.6041   4550860.8020   6  12   0.1631   0.0448   0.1708   0.0548   0.0634   0.1457   0.00    0.0    0.04439   -0.00442    0.02448   0.00000  0.00000  0.00000  0.00000  0.00000  0.00000
2268 259458.000   4402956.4704    666835.6071   4550860.8169   6  12   0.1627   0.0447   0.1704   0.0546   0.0632   0.1453   0.00    0.0    0.03497    0.01171   -0.00957   0.00000  0.00000  0.00000  0.00000  0.00000  0.00000
2268 259459.000   4402956.4853    666835.6098   4550860.8340   6  12   0.1623   0.0446   0.1699   0.0545   0.0630   0.1449   0.00    0.0   -0.08979   -0.02736   -0.01838   0.00000  0.00000  0.00000  0.00000  0.00000  0.00000
2268 259460.000   4402956.5006    666835.6128   4550860.8477   6  12   0.1619   0.0444   0.1694   0.0543   0.0628   0.1445   0.00    0.0    0.03517   -0.00921    0.01762   0.00000  0.00000  0.00000  0.00000  0.00000  0.00000
2268 259461.000   4402956.5089    666835.6164   4550860.8536   6  12   0.1614   0.0443   0.1690   0.0542   0.0626   0.1441   0.00    0.0   -0.03635   -0.00679   -0.02477   0.00000  0.00000  0.00000  0.00000  0.00000  0.00000
2268 259462.000   4402956.5108    666835.6190   4550860.8557   6  12   0.1610   0.0442   0.1685   0.0540   0.0625   0.1437   0.00    0.0    0.00953   -0.01264    0.02753   0.00000  0.00000  0.00000  0.00000  0.00000  0.00000
2268 259463.000   4402956.5154    666835.6202   4550860.8594   6  12   0.1606   0.0441   0.1681   0.0539   0.0623   0.1433   0.00    0.0   -0.02576   -0.01253   -0.02211   0.00000  0.00000  0.00000  0.00000  0.00000  0.00000
2268 259464.000   4402956.5214    666835.6213   4550860.8644   6  12   0.1602   0.0440   0.1676   0.0537   0.0621   0.1429   0.00    0.0   -0.03089   -0.00547    0.03494   0.00000  0.00000  0.00000  0.00000  0.00000  0.00000
2268 259465.000   4402956.5257    666835.6223   4550860.8699   6  12   0.1598   0.0439   0.1672   0.0536   0.0619   0.1425   0.00    0.0    0.01990   -0.01291   -0.02116   0.00000  0.00000  0.00000  0.00000  0.00000  0.00000
2268 259466.000   4402956.5344    666835.6252   4550860.8789   6  12   0.1594   0.0438   0.1667   0.0534   0.0618   0.1422   0.00    0.0   -0.01440   -0.00414   -0.01524   0.00000  0.00000  0.00000  0.00000  0.00000  0.00000
2268 259467.000   4402956.5443    666835.6272   4550860.8880   6  12   0.1590   0.0437   0.1663   0.0533   0.0616   0.1418   0.00    0.0    0.01367   -0.01568   -0.02956   0.00000  0.00000  0.00000  0.00000  0.00000  0.00000
2268 259468.000   4402956.5528    666835.6286   4550860.8975   6  12   0.1586   0.0436   0.1658   0.0531   0.0614   0.1414   0.00    0.0   -0.02353   -0.00122   -0.00070   0.00000  0.00000  0.00000  0.00000  0.00000  0.00000
2268 259469.000   4402956.5602    666835.6303   4550860.9054   6  12   0.1582   0.0435   0.1654   0.0530   0.0613   0.1410   0.00    0.0   -0.01326   -0.00096    0.02126   0.00000  0.00000  0.00000  0.00000  0.00000  0.00000
2268 259470.000   4402956.5709    666835.6326   4550860.9152   6  12   0.1578   0.0434   0.1649   0.0528   0.0611   0.1407   0.00    0.0    0.07993    0.01737    0.01670   0.00000  0.00000  0.00000  0.00000  0.00000  0.00000
2268 259471.000   4402956.5839    666835.6351   4550860.9262   6  12   0.1575   0.0433   0.1645   0.0527   0.0609   0.1403   0.00    0.0   -0.00835   -0.01266   -0.02927   0.00000  0.00000  0.00000  0.00000  0.00000  0.00000
2268 259472.000   4402956.5952    666835.6375   4550860.9401   6  12   0.1571   0.0432   0.1641   0.0526   0.0607   0.1399   0.00    0.0    0.01092   -0.01847    0.02063   0.00000  0.00000  0.00000  0.00000  0.00000  0.00000
2268 259473.000   4402956.6013    666835.6402   4550860.9475   6  12   0.1567   0.0431   0.1636   0.0524   0.0606   0.1395   0.00    0.0   -0.01164    0.00449   -0.01307   0.00000  0.00000  0.00000  0.00000  0.00000  0.00000
2268 259474.000   4402956.6032    666835.6422   4550860.9498   6  12   0.1563   0.0430   0.1632   0.0523   0.0604   0.1392   0.00    0.0   -0.03783    0.00172   -0.02443   0.00000  0.00000  0.00000  0.00000  0.00000  0.00000
2268 259475.000   4402956.6113    666835.6437   4550860.9591   6  12   0.1559   0.0429   0.1628   0.0521   0.0602   0.1388   0.00    0.0    0.00805    0.00362    0.02301   0.00000  0.00000  0.00000  0.00000  0.00000  0.00000
2268 259476.000   4402956.6223    666835.6455   4550860.9706   6  12   0.1555   0.0428   0.1623   0.0520   0.0601   0.1384   0.00    0.0   -0.04149   -0.00118   -0.03256   0.00000  0.00000  0.00000  0.00000  0.00000  0.00000
2268 259477.000   4402956.6311    666835.6464   4550860.9796   6  12   0.1552   0.0427   0.1619   0.0519   0.0599   0.1381   0.00    0.0   -0.02979    0.00408    0.00261   0.00000  0.00000  0.00000  0.00000  0.00000  0.00000
2268 259478.000   4402956.6403    666835.6469   4550860.9880   6  12   0.1548   0.0426   0.1615   0.0517   0.0598   0.1377   0.00    0.0    0.04646   -0.00693    0.03518   0.00000  0.00000  0.00000  0.00000  0.00000  0.00000
2268 259480.000   4402956.6444    666835.6481   4550860.9952   6  12   0.1544   0.0425   0.1611   0.0516   0.0596   0.1374   0.00    0.0    0.02462    0.00917    0.02726   0.00000  0.00000  0.00000  0.00000  0.00000  0.00000
2268 259481.000   4402956.6523    666835.6498   4550861.0032   6  12   0.1540   0.0424   0.1606   0.0514   0.0594   0.1370   0.00    0.0    0.00369    0.01435   -0.01204   0.00000  0.00000  0.00000  0.00000  0.00000  0.00000
2268 259482.000   4402956.6586    666835.6512   4550861.0098   6  12   0.1537   0.0423   0.1602   0.0513   0.0593   0.1366   0.00    0.0    0.03606    0.02145    0.00333   0.00000  0.00000  0.00000  0.00000  0.00000  0.00000
2268 259483.000   4402956.6662    666835.6526   4550861.0173   6  12   0.1533   0.0422   0.1598   0.0512   0.0591   0.1363   0.00    0.0    0.02977   -0.01255    0.02215   0.00000  0.00000  0.00000  0.00000  0.00000  0.00000
2268 259484.000   4402956.6721    666835.6532   4550861.0219   6  12   0.1529   0.0421   0.1594   0.0510   0.0589   0.1359   0.00    0.0   -0.00599    0.01643    0.02789   0.00000  0.00000  0.00000  0.00000  0.00000  0.00000
2268 259485.000   4402956.6820    666835.6533   4550861.0294   6  12   0.1526   0.0420   0.1590   0.0509   0.0588   0.1356   0.00    0.0    0.03069    0.01452    0.01150   0.00000  0.00000  0.00000  0.00000  0.00000  0.00000
2268 259486.000   4402956.6908    666835.6535   4550861.0370   6  12   0.1522   0.0419   0.1586   0.0507   0.0586   0.1352   0.00    0.0   -0.00716    0.00000    0.02934   0.00000  0.00000  0.00000  0.00000  0.00000  0.00000
2268 259487.000   4402956.6967    666835.6537   4550861.0406   6  12   0.1518   0.0418   0.1582   0.0506   0.0585   0.1349   0.00    0.0   -0.03335   -0.00427   -0.01718   0.00000  0.00000  0.00000  0.00000  0.00000  0.00000
2268 259488.000   4402956.7004    666835.6543   4550861.0451   6  12   0.1515   0.0417   0.1577   0.0505   0.0583   0.1345   0.00    0.0    0.04566   -0.01532    0.04292   0.00000  0.00000  0.00000  0.00000  0.00000  0.00000
2268 259489.000   4402956.7046    666835.6555   4550861.0516   6  12   0.1511   0.0416   0.1573   0.0503   0.0581   0.1342   0.00    0.0   -0.04922    0.01134   -0.02353   0.00000  0.00000  0.00000  0.00000  0.00000  0.00000
2268 259490.000   4402956.7149    666835.6570   4550861.0615   6  12   0.1508   0.0416   0.1569   0.0502   0.0580   0.1338   0.00    0.0   -0.02190    0.01305    0.04287   0.00000  0.00000  0.00000  0.00000  0.00000  0.00000
2268 259491.000   4402956.7247    666835.6587   4550861.0699   6  12   0.1504   0.0415   0.1565   0.0501   0.0578   0.1335   0.00    0.0    0.04622    0.00720    0.03095   0.00000  0.00000  0.00000  0.00000  0.00000  0.00000
2268 259492.000   4402956.7367    666835.6606   4550861.0814   6  12   0.1501   0.0414   0.1561   0.0499   0.0577   0.1332   0.00    0.0    0.03246   -0.00817    0.00151   0.00000  0.00000  0.00000  0.00000  0.00000  0.00000
2268 259493.000   4402956.7467    666835.6623   4550861.0926   6  12   0.1497   0.0413   0.1557   0.0498   0.0575   0.1328   0.00    0.0    0.02887   -0.00256   -0.01744   0.00000  0.00000  0.00000  0.00000  0.00000  0.00000
2268 259494.000   4402956.7602    666835.6642   4550861.1044   6  12   0.1494   0.0412   0.1553   0.0497   0.0574   0.1325   0.00    0.0   -0.00687    0.00585    0.00338   0.00000  0.00000  0.00000  0.00000  0.00000  0.00000
2268 259495.000   4402956.7690    666835.6652   4550861.1124   6  12   0.1490   0.0411   0.1549   0.0495   0.0572   0.1321   0.00    0.0    0.07966   -0.02076    0.06960   0.00000  0.00000  0.00000  0.00000  0.00000  0.00000
2268 259496.000   4402956.7750    666835.6669   4550861.1207   6  12   0.1487   0.0410   0.1545   0.0494   0.0571   0.1318   0.00    0.0    0.02048    0.02847   -0.01590   0.00000  0.00000  0.00000  0.00000  0.00000  0.00000
2268 259497.000   4402956.7814    666835.6679   4550861.1286   6  12   0.1483   0.0409   0.1542   0.0493   0.0569   0.1315   0.00    0.0    0.00586    0.01192    0.03676   0.00000  0.00000  0.00000  0.00000  0.00000  0.00000
2268 259498.000   4402956.7841    666835.6683   4550861.1302   6  12   0.1480   0.0408   0.1538   0.0492   0.0568   0.1311   0.00    0.0    0.03147    0.01070   -0.01920   0.00000  0.00000  0.00000  0.00000  0.00000  0.00000
2268 259499.000   4402956.7893    666835.6683   4550861.1364   6  12   0.1476   0.0407   0.1534   0.0490   0.0566   0.1308   0.00    0.0   -0.01052   -0.00929    0.04457   0.00000  0.00000  0.00000  0.00000  0.00000  0.00000
2268 259500.000   4402956.7985    666835.6690   4550861.1458   6  12   0.1473   0.0407   0.1530   0.0489   0.0565   0.1305   0.00    0.0    0.00821   -0.00709   -0.01205   0.00000  0.00000  0.00000  0.00000  0.00000  0.00000
2268 259501.000   4402956.8102    666835.6703   4550861.1571   6  12   0.1470   0.0406   0.1526   0.0488   0.0563   0.1302   0.00    0.0   -0.04844    0.04105    0.00353   0.00000  0.00000  0.00000  0.00000  0.00000  0.00000
2268 259502.000   4402956.8189    666835.6715   4550861.1633   6  12   0.1466   0.0405   0.1522   0.0486   0.0562   0.1298   0.00    0.0    0.07471    0.02064    0.01593   0.00000  0.00000  0.00000  0.00000  0.00000  0.00000
2268 259503.000   4402956.8280    666835.6723   4550861.1713   6  12   0.1463   0.0404   0.1519   0.0485   0.0560   0.1295   0.00    0.0    0.00295    0.00705   -0.02803   0.00000  0.00000  0.00000  0.00000  0.00000  0.00000
2268 259504.000   4402956.8351    666835.6736   4550861.1784   6  12   0.1460   0.0403   0.1515   0.0484   0.0559   0.1292   0.00    0.0    0.07732   -0.00572    0.05072   0.00000  0.00000  0.00000  0.00000  0.00000  0.00000
